timestamp,TimeUS,Status,GMS,GWk,NSats,HDop,Lat,Lng,Alt,Spd,GCrs,VZ,U
1521997580.46014786,7945518,1,0,0,0,-0.01,0.0,0.0,0.0,0.0,0.0,0.0,1
1521997580.59999990,8085370,3,61595600,1994,12,0.73,39.8420264,-105.2125072,1813.31,0.0860000029206,0.0,-0.0780000016093,1
1521997580.80119085,8286561,3,61595800,1994,13,0.72,39.8420263,-105.2125027,1813.27,0.0220000017434,0.0,-0.0120000001043,1
1521997580.98131585,8466686,3,61596000,1994,13,0.72,39.842028,-105.2124941,1812.54,0.123000003397,0.0,0.231000006199,1
1521997581.18152785,8666898,3,61596200,1994,13,0.72,39.8420289,-105.2124902,1812.3,0.0890000015497,0.0,0.263999998569,1
1521997581.38163996,8867010,3,61596400,1994,13,0.72,39.8420308,-105.2124875,1812.15,0.0670000016689,0.0,0.323000013828,1
1521997581.58149195,9066862,3,61596600,1994,13,0.72,39.8420332,-105.2124852,1811.87,0.0659999996424,0.0,0.24200001359,1
1521997581.78132892,9266699,3,61596800,1994,14,0.69,39.8420349,-105.212483,1811.59,0.0940000042319,0.0,0.28100001812,1
1521997582.00220680,9487577,3,61597000,1994,14,0.69,39.842037,-105.2124817,1811.51,0.0910000056028,0.0,0.30600002408,1
1521997582.18176079,9667131,3,61597200,1994,15,0.69,39.8420375,-105.2124807,1811.48,0.0900000035763,0.0,0.322000026703,1
1521997582.38181591,9867186,3,61597400,1994,15,0.69,39.842038,-105.2124795,1811.34,0.070000000298,0.0,0.307000011206,1
1521997582.60204887,10087419,3,61597600,1994,15,0.69,39.8420383,-105.2124781,1811.24,0.11400000751,0.0,0.356000006199,1
1521997582.78139281,10266763,3,61597800,1994,15,0.69,39.8420389,-105.2124765,1811.11,0.10000000149,0.0,0.341000020504,1
1521997582.98143387,10466804,3,61598000,1994,15,0.69,39.8420394,-105.2124752,1811.01,0.0500000007451,0.0,0.382000029087,1
1521997583.18141294,10666783,3,61598200,1994,15,0.69,39.84204,-105.2124739,1810.93,0.0910000056028,0.0,0.471000015736,1
1521997583.38161778,10866988,3,61598400,1994,15,0.69,39.8420402,-105.2124736,1810.97,0.0900000035763,0.0,0.304000020027,1
1521997583.58140492,11066775,3,61598600,1994,14,0.69,39.8420403,-105.2124729,1810.87,0.0190000012517,0.0,0.421000033617,1
1521997583.78140092,11266771,3,61598800,1994,14,0.69,39.8420407,-105.2124717,1810.78,0.0990000069141,0.0,0.389000028372,1
1521997583.98139596,11466766,3,61599000,1994,14,0.69,39.8420411,-105.2124704,1810.66,0.0480000004172,0.0,0.430000007153,1
1521997584.18139982,11666770,3,61599200,1994,14,0.69,39.8420417,-105.2124692,1810.55,0.126000002027,0.0,0.282000005245,1
1521997584.38145185,11866822,3,61599400,1994,14,0.69,39.8420419,-105.2124685,1810.46,0.062000002712,0.0,0.279000014067,1
1521997584.58138180,12066752,3,61599600,1994,14,0.69,39.8420421,-105.2124684,1810.4,0.0940000042319,0.0,0.315000027418,1
1521997584.78156090,12266931,3,61599800,1994,14,0.69,39.8420427,-105.2124676,1810.28,0.0950000062585,0.0,0.23900000751,1
1521997584.98154974,12466920,3,61600000,1994,14,0.69,39.8420428,-105.2124672,1810.15,0.0980000048876,0.0,0.350000023842,1
1521997585.18135786,12666728,3,61600200,1994,14,0.69,39.8420431,-105.2124671,1810.04,0.0850000008941,0.0,0.0940000042319,1
1521997585.38136077,12866731,3,61600400,1994,14,0.69,39.8420436,-105.2124672,1809.9,0.0810000002384,0.0,0.214000016451,1
1521997585.58116579,13066536,3,61600600,1994,14,0.69,39.8420443,-105.212467,1809.79,0.0860000029206,0.0,0.0900000035763,1
1521997585.78129673,13266667,3,61600800,1994,14,0.69,39.8420447,-105.2124667,1809.67,0.102000005543,0.0,0.199000015855,1
1521997585.98131895,13466689,3,61601000,1994,14,0.69,39.8420451,-105.2124666,1809.58,0.015000000596,0.0,-0.0120000001043,1
1521997586.18164492,13667015,3,61601200,1994,14,0.69,39.8420454,-105.2124665,1809.45,0.00400000018999,0.0,0.0410000011325,1
1521997586.38118076,13866551,3,61601400,1994,14,0.69,39.8420459,-105.2124663,1809.31,0.0320000015199,0.0,-0.00800000037998,1
1521997586.58135676,14066727,3,61601600,1994,14,0.69,39.8420462,-105.2124659,1809.16,0.0830000042915,0.0,0.0270000007004,1
1521997586.78133774,14266708,3,61601800,1994,14,0.69,39.8420466,-105.2124658,1809.01,0.0600000023842,0.0,-0.0580000020564,1
1521997586.98137784,14466748,3,61602000,1994,14,0.69,39.8420471,-105.2124655,1808.87,0.0340000018477,0.0,0.015000000596,1
1521997587.18130374,14666674,3,61602200,1994,15,0.66,39.8420477,-105.212465,1808.69,0.0980000048876,0.0,0.0400000028312,1
1521997587.38149977,14866870,3,61602400,1994,15,0.66,39.8420484,-105.2124646,1808.54,0.0410000011325,0.0,0.0530000030994,1
1521997587.58152175,15066892,3,61602600,1994,15,0.66,39.8420486,-105.2124647,1808.46,0.0480000004172,0.0,0.00300000002608,1
1521997587.78139973,15266770,3,61602800,1994,15,0.66,39.8420491,-105.2124643,1808.34,0.0490000024438,0.0,-0.0860000029206,1
1521997587.98140073,15466771,3,61603000,1994,15,0.66,39.8420492,-105.2124641,1808.33,0.120000004768,0.0,0.0120000001043,1
1521997588.18143892,15666809,3,61603200,1994,15,0.66,39.842049,-105.2124639,1808.2,0.173000007868,0.0,0.119000002742,1
1521997588.38158178,15866952,3,61603400,1994,15,0.66,39.8420491,-105.2124635,1808.2,0.0870000049472,0.0,-0.0430000014603,1
1521997588.58148980,16066860,3,61603600,1994,15,0.66,39.8420493,-105.2124634,1808.21,0.0480000004172,0.0,-0.0430000014603,1
1521997588.78140974,16266780,3,61603800,1994,15,0.66,39.8420493,-105.2124636,1808.21,0.0710000023246,0.0,-0.0490000024438,1
1521997588.98134184,16466712,3,61604000,1994,15,0.66,39.8420493,-105.2124637,1808.2,0.127000004053,0.0,-0.00800000037998,1
1521997589.18132877,16666699,3,61604200,1994,16,0.66,39.8420494,-105.2124641,1808.19,0.0590000040829,0.0,-0.102000005543,1
1521997589.38140583,16866776,3,61604400,1994,15,0.66,39.8420492,-105.2124646,1808.19,0.0740000009537,0.0,0.0500000007451,1
1521997589.58135295,17066723,3,61604600,1994,15,0.66,39.8420492,-105.2124649,1808.11,0.110000006855,0.0,0.097000002861,1
1521997589.78141189,17266782,3,61604800,1994,15,0.66,39.8420489,-105.2124651,1808.03,0.0840000063181,0.0,0.107000008225,1
1521997589.98142076,17466791,3,61605000,1994,15,0.66,39.8420488,-105.2124654,1807.98,0.0190000012517,0.0,0.140000000596,1
1521997590.18149495,17666865,3,61605200,1994,15,0.66,39.8420486,-105.2124659,1807.95,0.0770000070333,0.0,0.0600000023842,1
1521997590.38152385,17866894,3,61605400,1994,15,0.66,39.8420485,-105.2124663,1807.95,0.069000005722,0.0,0.0830000042915,1
1521997590.58141685,18066787,3,61605600,1994,15,0.66,39.8420488,-105.2124664,1807.92,0.0940000042319,0.0,-0.00300000002608,1
1521997590.78137684,18266747,3,61605800,1994,15,0.66,39.8420494,-105.2124664,1807.78,0.172000005841,0.0,0.0570000037551,1
1521997590.98158073,18466951,3,61606000,1994,15,0.66,39.84205,-105.2124663,1807.72,0.133000001311,0.0,0.0490000024438,1
1521997591.18145680,18666827,3,61606200,1994,15,0.66,39.8420503,-105.2124664,1807.61,0.15000000596,0.0,0.191000014544,1
1521997591.38150096,18866871,3,61606400,1994,15,0.66,39.8420507,-105.2124664,1807.56,0.0910000056028,0.0,0.0380000025034,1
1521997591.58145881,19066829,3,61606600,1994,15,0.66,39.8420508,-105.2124666,1807.5,0.0100000007078,0.0,0.082000002265,1
1521997591.78161693,19266987,3,61606800,1994,15,0.66,39.8420508,-105.2124668,1807.43,0.0570000037551,0.0,0.151000007987,1
1521997591.98150182,19466872,3,61607000,1994,15,0.66,39.8420509,-105.212467,1807.36,0.0610000044107,0.0,0.0910000056028,1
1521997592.18152094,19666891,3,61607200,1994,15,0.66,39.8420511,-105.212467,1807.33,0.0380000025034,0.0,0.0710000023246,1
1521997592.38153195,19866902,3,61607400,1994,15,0.66,39.8420511,-105.212467,1807.26,0.162000000477,0.0,0.187000006437,1
1521997592.58142996,20066800,3,61607600,1994,15,0.66,39.8420509,-105.2124669,1807.19,0.105000004172,0.0,0.0570000037551,1
1521997592.78142595,20266796,3,61607800,1994,15,0.66,39.8420509,-105.2124668,1807.12,0.047000002116,0.0,0.194000005722,1
1521997592.98138690,20466757,3,61608000,1994,15,0.66,39.8420507,-105.2124669,1807.08,0.121000006795,0.0,0.0980000048876,1
1521997593.18133783,20666708,3,61608200,1994,15,0.66,39.8420503,-105.2124673,1807.05,0.129000008106,0.0,0.161000013351,1
1521997593.38134694,20866717,3,61608400,1994,15,0.66,39.8420501,-105.2124674,1807.08,0.0800000056624,0.0,0.069000005722,1
1521997593.58147073,21066841,3,61608600,1994,15,0.66,39.84205,-105.2124677,1807.06,0.0460000038147,0.0,0.122000008821,1
1521997593.78160191,21266972,3,61608800,1994,15,0.66,39.8420499,-105.2124677,1807.04,0.042000003159,0.0,0.0840000063181,1
1521997593.98151374,21466884,3,61609000,1994,15,0.66,39.8420498,-105.2124681,1807.02,0.176000013947,0.0,-0.0050000003539,1
1521997594.18152094,21666891,3,61609200,1994,15,0.66,39.8420501,-105.2124682,1806.99,0.0720000043511,0.0,0.0750000029802,1
1521997594.38154387,21866914,3,61609400,1994,15,0.66,39.84205,-105.212468,1806.97,0.146999999881,0.0,0.146999999881,1
1521997594.58137488,22066745,3,61609600,1994,15,0.66,39.8420498,-105.2124678,1807.01,0.069000005722,0.0,0.035000000149,1
1521997594.78150678,22266877,3,61609800,1994,15,0.66,39.8420493,-105.2124676,1806.98,0.131000012159,0.0,0.139000013471,1
1521997594.98153591,22466906,3,61610000,1994,15,0.66,39.8420491,-105.2124675,1806.98,0.126000002027,0.0,0.166000008583,1
1521997595.18140578,22666776,3,61610200,1994,15,0.66,39.8420491,-105.2124675,1807.04,0.0940000042319,0.0,-0.00200000009499,1
1521997595.38141990,22866790,3,61610400,1994,15,0.66,39.8420489,-105.2124675,1807.03,0.134000003338,0.0,0.0950000062585,1
1521997595.58128977,23066660,3,61610600,1994,15,0.66,39.8420485,-105.2124676,1806.96,0.122000008821,0.0,0.194000005722,1
1521997595.78140187,23266772,3,61610800,1994,15,0.66,39.8420482,-105.2124675,1806.94,0.070000000298,0.0,0.16400000453,1
1521997595.98134780,23466718,3,61611000,1994,15,0.66,39.842048,-105.2124674,1806.94,0.0490000024438,0.0,0.118000008166,1
1521997596.18137074,23666741,3,61611200,1994,15,0.66,39.8420477,-105.2124672,1806.96,0.188000008464,0.0,0.224000006914,1
1521997596.38170791,23867078,3,61611400,1994,15,0.66,39.8420476,-105.212467,1806.94,0.0410000011325,0.0,0.109000004828,1
1521997596.58140087,24066771,3,61611600,1994,15,0.66,39.8420476,-105.2124669,1806.97,0.0670000016689,0.0,0.0400000028312,1
1521997596.80206275,24287433,3,61611800,1994,15,0.66,39.8420478,-105.2124668,1806.98,0.070000000298,0.0,0.0540000014007,1
1521997596.98152375,24466894,3,61612000,1994,15,0.66,39.8420479,-105.2124669,1807.01,0.0730000063777,0.0,0.0180000010878,1
1521997597.18138981,24666760,3,61612200,1994,15,0.66,39.8420478,-105.212467,1807.01,0.0670000016689,0.0,0.042000003159,1
1521997597.38149381,24866864,3,61612400,1994,15,0.66,39.8420477,-105.2124669,1806.99,0.0110000008717,0.0,-0.0600000023842,1
1521997597.58150387,25066874,3,61612600,1994,14,0.71,39.8420475,-105.2124668,1806.97,0.162000000477,0.0,0.0659999996424,1
1521997597.78149486,25266865,3,61612800,1994,15,0.66,39.8420474,-105.2124665,1806.95,0.0250000003725,0.0,0.0010000000475,1
1521997597.98134184,25466712,3,61613000,1994,16,0.66,39.8420475,-105.2124663,1806.97,0.082000002265,0.0,0.0120000001043,1
1521997598.18155885,25666929,3,61613200,1994,16,0.66,39.8420475,-105.2124661,1807.0,0.0570000037551,0.0,0.108000002801,1
1521997598.38137293,25866743,3,61613400,1994,16,0.66,39.8420475,-105.2124659,1807.04,0.0740000009537,0.0,0.00200000009499,1
1521997598.58132887,26066699,3,61613600,1994,16,0.66,39.8420476,-105.2124659,1807.08,0.069000005722,0.0,0.0050000003539,1
1521997598.78125572,26266626,3,61613800,1994,16,0.66,39.8420475,-105.212466,1807.13,0.0240000002086,0.0,0.0410000011325,1
1521997598.98137689,26466747,3,61614000,1994,16,0.66,39.8420475,-105.2124658,1807.14,0.174000009894,0.0,0.0960000008345,1
1521997599.18135285,26666723,3,61614200,1994,16,0.66,39.8420474,-105.2124656,1807.18,0.0730000063777,0.0,0.035000000149,1
1521997599.38154483,26866915,3,61614400,1994,16,0.66,39.8420475,-105.2124654,1807.2,0.0560000017285,0.0,0.0800000056624,1
1521997599.58147192,27066842,3,61614600,1994,16,0.66,39.8420476,-105.212465,1807.19,0.0510000027716,0.0,0.0940000042319,1
1521997599.78141785,27266788,3,61614800,1994,16,0.66,39.8420478,-105.2124646,1807.25,0.0500000007451,0.0,-0.0380000025034,1
1521997599.98134089,27466711,3,61615000,1994,16,0.66,39.842048,-105.2124642,1807.26,0.0960000008345,0.0,-0.0130000002682,1
1521997600.18139887,27666769,3,61615200,1994,16,0.66,39.8420482,-105.2124641,1807.25,0.0400000028312,0.0,0.0380000025034,1
1521997600.38158274,27866953,3,61615400,1994,16,0.66,39.8420484,-105.2124639,1807.26,0.0329999998212,0.0,-0.00300000002608,1
1521997600.58145380,28066824,3,61615600,1994,16,0.66,39.8420486,-105.2124638,1807.27,0.0410000011325,0.0,-0.0290000010282,1
1521997600.78155684,28266927,3,61615800,1994,16,0.66,39.8420488,-105.2124638,1807.3,0.146999999881,0.0,0.0810000002384,1
1521997600.98166275,28467033,3,61616000,1994,16,0.66,39.842049,-105.212464,1807.28,0.0910000056028,0.0,0.0370000004768,1
1521997601.18131089,28666681,3,61616200,1994,16,0.66,39.842049,-105.212464,1807.26,0.118000008166,0.0,0.0880000069737,1
1521997601.38137078,28866741,3,61616400,1994,16,0.66,39.8420492,-105.212464,1807.24,0.0110000008717,0.0,0.122000008821,1
1521997601.58143878,29066809,3,61616600,1994,16,0.66,39.8420494,-105.2124643,1807.22,0.158000007272,0.0,0.047000002116,1
1521997601.78128076,29266651,3,61616800,1994,16,0.66,39.8420497,-105.2124645,1807.22,0.0930000022054,0.0,0.0960000008345,1
1521997601.98138094,29466751,3,61617000,1994,16,0.66,39.8420499,-105.2124648,1807.28,0.0870000049472,0.0,-0.0270000007004,1
1521997602.18138790,29666758,3,61617200,1994,16,0.66,39.8420499,-105.2124649,1807.3,0.0770000070333,0.0,0.133000001311,1
1521997602.38141680,29866787,3,61617400,1994,16,0.66,39.8420499,-105.212465,1807.28,0.0490000024438,0.0,-0.0730000063777,1
1521997602.60207081,30087441,3,61617600,1994,15,0.66,39.8420501,-105.2124652,1807.32,0.0830000042915,0.0,0.11400000751,1
1521997602.78142190,30266792,3,61617800,1994,15,0.66,39.8420503,-105.2124654,1807.31,0.0490000024438,0.0,0.0520000010729,1
1521997602.98140979,30466780,3,61618000,1994,15,0.66,39.8420503,-105.2124653,1807.29,0.0600000023842,0.0,0.139000013471,1
1521997603.18150973,30666880,3,61618200,1994,16,0.66,39.8420505,-105.2124652,1807.32,0.031000001356,0.0,0.126000002027,1
1521997603.38153982,30866910,3,61618400,1994,16,0.66,39.8420508,-105.2124651,1807.28,0.0540000014007,0.0,0.0800000056624,1
1521997603.58156276,31066933,3,61618600,1994,16,0.66,39.842051,-105.2124651,1807.32,0.0810000002384,0.0,-0.0050000003539,1
1521997603.78156495,31266935,3,61618800,1994,16,0.66,39.8420511,-105.2124651,1807.33,0.0720000043511,0.0,0.110000006855,1
1521997603.98150682,31466877,3,61619000,1994,16,0.66,39.8420512,-105.212465,1807.35,0.0900000035763,0.0,-0.0630000010133,1
1521997604.18139791,31666768,3,61619200,1994,16,0.66,39.8420512,-105.2124649,1807.41,0.0450000017881,0.0,0.0,1
1521997604.38141179,31866782,3,61619400,1994,16,0.66,39.8420513,-105.2124651,1807.45,0.0640000030398,0.0,0.0570000037551,1
1521997604.58156586,32066936,3,61619600,1994,16,0.66,39.8420514,-105.2124653,1807.49,0.0480000004172,0.0,0.00300000002608,1
1521997604.78150892,32266879,3,61619800,1994,16,0.66,39.8420515,-105.2124653,1807.51,0.106000006199,0.0,0.0140000004321,1
1521997604.98129392,32466664,3,61620000,1994,16,0.66,39.8420516,-105.2124653,1807.55,0.0580000020564,0.0,0.0400000028312,1
1521997605.18144393,32666814,3,61620200,1994,16,0.66,39.8420518,-105.2124654,1807.6,0.11400000751,0.0,0.0520000010729,1
1521997605.38150692,32866877,3,61620400,1994,16,0.66,39.842052,-105.2124656,1807.69,0.0840000063181,0.0,-0.0110000008717,1
1521997605.58144879,33066819,3,61620600,1994,16,0.66,39.8420521,-105.2124656,1807.71,0.0360000021756,0.0,0.0190000012517,1
1521997605.78142190,33266792,3,61620800,1994,16,0.66,39.8420522,-105.2124655,1807.77,0.0720000043511,0.0,0.0400000028312,1
1521997605.98146391,33466834,3,61621000,1994,16,0.66,39.8420524,-105.2124654,1807.82,0.0670000016689,0.0,-0.106000006199,1
1521997606.18163490,33667005,3,61621200,1994,16,0.66,39.8420524,-105.2124654,1807.8,0.0780000016093,0.0,0.0190000012517,1
1521997606.38150191,33866872,3,61621400,1994,16,0.66,39.8420525,-105.2124653,1807.81,0.0630000010133,0.0,-0.0210000015795,1
1521997606.60200596,34087376,3,61621600,1994,16,0.66,39.8420527,-105.2124654,1807.82,0.0940000042319,0.0,0.0120000001043,1
1521997606.78139281,34266763,3,61621800,1994,16,0.66,39.8420528,-105.2124655,1807.85,0.035000000149,0.0,-0.035000000149,1
1521997606.98142290,34466793,3,61622000,1994,16,0.66,39.8420529,-105.2124655,1807.9,0.0790000036359,0.0,-0.146000012755,1
1521997607.18151593,34666886,3,61622200,1994,16,0.66,39.8420531,-105.2124657,1807.95,0.104000002146,0.0,-0.0670000016689,1
1521997607.38145876,34866829,3,61622400,1994,16,0.66,39.8420533,-105.2124661,1808.01,0.119000002742,0.0,-0.0380000025034,1
1521997607.58147883,35066849,3,61622600,1994,16,0.66,39.8420535,-105.2124664,1808.02,0.0510000027716,0.0,-0.00400000018999,1
1521997607.78144574,35266816,3,61622800,1994,16,0.66,39.8420537,-105.2124663,1808.03,0.168000012636,0.0,-0.0370000004768,1
1521997607.98145080,35466821,3,61623000,1994,16,0.66,39.842054,-105.212466,1808.05,0.0830000042915,0.0,-0.035000000149,1
1521997608.18160176,35666972,3,61623200,1994,16,0.66,39.8420545,-105.2124659,1808.09,0.134000003338,0.0,-0.0530000030994,1
1521997608.38140583,35866776,3,61623400,1994,16,0.66,39.8420553,-105.2124658,1808.12,0.635000050068,0.0,-0.0730000063777,1
1521997608.58149886,36066869,3,61623600,1994,16,0.66,39.842057,-105.2124655,1808.17,1.0680000782,14.8839693069,0.0270000007004,1
1521997608.78143787,36266808,3,61623800,1994,16,0.66,39.8420592,-105.212465,1808.12,1.32100009918,15.9269294739,0.20000000298,1
1521997608.98144293,36466813,3,61624000,1994,16,0.66,39.8420617,-105.2124643,1808.12,1.40300011635,16.8072299957,0.222000017762,1
1521997609.18152595,36666896,3,61624200,1994,16,0.66,39.8420645,-105.2124634,1808.14,1.58900010586,16.8893795013,0.0950000062585,1
1521997609.38142776,36866798,3,61624400,1994,16,0.66,39.8420675,-105.2124621,1808.15,1.76700007915,21.6634292603,0.146000012755,1
1521997609.58164692,37067017,3,61624600,1994,16,0.66,39.8420707,-105.2124604,1808.18,1.77800011635,21.8917293549,0.236000016332,1
1521997609.78152275,37266893,3,61624800,1994,16,0.66,39.8420737,-105.2124587,1808.15,1.58000004292,24.4010696411,0.291000008583,1
1521997609.98151278,37466883,3,61625000,1994,16,0.66,39.8420763,-105.2124569,1808.13,1.52800011635,27.0871601105,0.362000018358,1
1521997610.18145490,37666825,3,61625200,1994,16,0.66,39.8420789,-105.2124552,1808.17,1.55400002003,28.5042800903,0.280000001192,1
1521997610.38138890,37866759,3,61625400,1994,16,0.66,39.8420814,-105.2124536,1808.13,1.29200005531,29.5186901093,0.358000010252,1
1521997610.58156991,38066940,3,61625600,1994,16,0.66,39.8420834,-105.2124521,1808.07,1.08000004292,31.2426795959,0.219000011683,1
1521997610.78138876,38266759,3,61625800,1994,16,0.66,39.8420851,-105.2124507,1808.04,0.915000021458,34.4075698853,0.325000017881,1
1521997610.98153281,38466903,3,61626000,1994,16,0.66,39.8420865,-105.2124494,1807.98,0.776000022888,38.3460693359,0.274000018835,1
1521997611.18139577,38666766,3,61626200,1994,16,0.66,39.8420877,-105.2124482,1807.96,0.665000021458,39.4007301331,0.160000011325,1
1521997611.38156796,38866938,3,61626400,1994,16,0.66,39.8420888,-105.2124475,1807.94,0.458000034094,39.4007301331,0.157000005245,1
1521997611.58139277,39066763,3,61626600,1994,16,0.66,39.8420895,-105.212447,1807.93,0.252000004053,39.4007301331,0.174000009894,1
1521997611.78153586,39266906,3,61626800,1994,16,0.66,39.8420901,-105.2124465,1807.88,0.126000002027,39.4007301331,0.112000003457,1
1521997611.98151875,39466889,3,61627000,1994,16,0.66,39.8420903,-105.2124461,1807.86,0.0870000049472,39.4007301331,0.126000002027,1
1521997612.18141389,39666784,3,61627200,1994,16,0.66,39.8420904,-105.2124461,1807.86,0.109000004828,39.4007301331,0.110000006855,1
1521997612.38163495,39867005,3,61627400,1994,16,0.66,39.8420905,-105.2124461,1807.85,0.113000005484,39.4007301331,-0.0370000004768,1
1521997612.58154178,40066912,3,61627600,1994,16,0.66,39.8420906,-105.2124461,1807.84,0.0540000014007,39.4007301331,-0.0200000014156,1
1521997612.78149080,40266861,3,61627800,1994,16,0.66,39.8420907,-105.2124461,1807.83,0.0510000027716,39.4007301331,-0.0440000034869,1
1521997612.98146296,40466833,3,61628000,1994,16,0.66,39.8420908,-105.2124459,1807.84,0.0890000015497,39.4007301331,0.01600000076,1
1521997613.18161178,40666982,3,61628200,1994,16,0.66,39.8420908,-105.2124457,1807.84,0.0130000002682,39.4007301331,-0.149000003934,1
1521997613.38136387,40866734,3,61628400,1994,16,0.66,39.8420907,-105.2124459,1807.85,0.118000008166,39.4007301331,-0.146999999881,1
1521997613.58138490,41066755,3,61628600,1994,16,0.66,39.8420906,-105.212446,1807.88,0.0280000008643,39.4007301331,-0.244000017643,1
1521997613.78162289,41266993,3,61628800,1994,16,0.66,39.8420905,-105.212446,1807.89,0.0680000036955,39.4007301331,-0.255000025034,1
1521997613.98140287,41466773,3,61629000,1994,16,0.66,39.8420904,-105.2124461,1807.91,0.0480000004172,39.4007301331,-0.16400000453,1
1521997614.18137693,41666747,3,61629200,1994,16,0.66,39.8420904,-105.2124462,1807.9,0.0340000018477,39.4007301331,-0.192000001669,1
1521997614.38151288,41866883,3,61629400,1994,16,0.66,39.8420904,-105.2124463,1807.9,0.0450000017881,39.4007301331,-0.263000011444,1
1521997614.58155274,42066923,3,61629600,1994,16,0.66,39.8420905,-105.2124464,1807.88,0.120000004768,39.4007301331,-0.210000008345,1
1521997614.78142285,42266793,3,61629800,1994,16,0.66,39.8420907,-105.2124465,1807.87,0.0500000007451,39.4007301331,-0.15000000596,1
1521997614.98134184,42466712,3,61630000,1994,16,0.66,39.8420909,-105.2124466,1807.83,0.0520000010729,39.4007301331,-0.0870000049472,1
1521997615.18151188,42666882,3,61630200,1994,16,0.66,39.842091,-105.2124467,1807.82,0.0440000034869,39.4007301331,-0.171000003815,1
1521997615.38149881,42866869,3,61630400,1994,16,0.66,39.8420912,-105.2124468,1807.8,0.0790000036359,39.4007301331,-0.134000003338,1
1521997615.58135581,43066726,3,61630600,1994,16,0.66,39.8420912,-105.212447,1807.82,0.069000005722,39.4007301331,-0.124000005424,1
1521997615.78140378,43266774,3,61630800,1994,16,0.66,39.8420913,-105.2124474,1807.87,0.0500000007451,39.4007301331,-0.177000001073,1
1521997615.98136878,43466739,3,61631000,1994,16,0.66,39.8420913,-105.2124477,1807.85,0.0510000027716,39.4007301331,-0.0410000011325,1
1521997616.18152189,43666892,3,61631200,1994,16,0.66,39.8420913,-105.2124478,1807.84,0.0329999998212,39.4007301331,-0.0990000069141,1
1521997616.38152885,43866899,3,61631400,1994,16,0.66,39.8420913,-105.2124478,1807.79,0.0900000035763,39.4007301331,-0.0010000000475,1
1521997616.58131194,44066682,3,61631600,1994,16,0.66,39.8420914,-105.2124478,1807.74,0.0260000005364,39.4007301331,-0.0380000025034,1
1521997616.78133774,44266708,3,61631800,1994,16,0.66,39.8420915,-105.2124479,1807.74,0.0940000042319,39.4007301331,-0.031000001356,1
1521997616.98139977,44466770,3,61632000,1994,16,0.66,39.8420915,-105.2124482,1807.7,0.0530000030994,39.4007301331,-0.0280000008643,1
1521997617.18160677,44666977,3,61632200,1994,16,0.66,39.8420916,-105.2124483,1807.69,0.0740000009537,39.4007301331,0.0200000014156,1
1521997617.38146591,44866836,3,61632400,1994,16,0.66,39.8420917,-105.2124483,1807.68,0.0260000005364,39.4007301331,-0.0260000005364,1
1521997617.58152390,45066894,3,61632600,1994,16,0.66,39.8420917,-105.2124485,1807.75,0.129000008106,39.4007301331,-0.154000014067,1
1521997617.78153777,45266908,3,61632800,1994,16,0.66,39.8420918,-105.2124487,1807.75,0.0100000007078,39.4007301331,-0.207000017166,1
1521997617.98158288,45466953,3,61633000,1994,16,0.66,39.8420918,-105.2124489,1807.74,0.0130000002682,39.4007301331,-0.104000002146,1
1521997618.18136191,45666732,3,61633200,1994,16,0.66,39.8420917,-105.2124489,1807.73,0.134000003338,39.4007301331,-0.107000008225,1
1521997618.38136888,45866739,3,61633400,1994,16,0.66,39.8420917,-105.2124489,1807.7,0.0250000003725,39.4007301331,-0.00700000021607,1
1521997618.58132672,46066697,3,61633600,1994,16,0.66,39.8420917,-105.2124489,1807.68,0.102000005543,39.4007301331,-0.0230000019073,1
1521997618.78154492,46266915,3,61633800,1994,16,0.66,39.8420917,-105.2124489,1807.7,0.0550000034273,39.4007301331,-0.0490000024438,1
1521997618.98148584,46466856,3,61634000,1994,16,0.66,39.8420916,-105.212449,1807.67,0.0670000016689,39.4007301331,0.00800000037998,1
1521997619.18138981,46666760,3,61634200,1994,16,0.66,39.8420916,-105.2124491,1807.7,0.047000002116,39.4007301331,-0.0610000044107,1
1521997619.38132095,46866691,3,61634400,1994,16,0.66,39.8420917,-105.2124491,1807.64,0.0440000034869,39.4007301331,0.0370000004768,1
1521997619.58141875,47066789,3,61634600,1994,16,0.66,39.8420916,-105.212449,1807.6,0.0550000034273,39.4007301331,0.0290000010282,1
1521997619.78140283,47266773,3,61634800,1994,16,0.66,39.8420917,-105.212449,1807.53,0.0280000008643,39.4007301331,0.097000002861,1
1521997619.98137879,47466749,3,61635000,1994,16,0.66,39.8420918,-105.212449,1807.5,0.107000008225,39.4007301331,0.0360000021756,1
1521997620.18136096,47666731,3,61635200,1994,16,0.66,39.8420919,-105.2124491,1807.49,0.0610000044107,39.4007301331,-0.069000005722,1
1521997620.38131595,47866686,3,61635400,1994,16,0.66,39.8420919,-105.2124492,1807.48,0.0340000018477,39.4007301331,-0.035000000149,1
1521997620.58151174,48066882,3,61635600,1994,16,0.66,39.8420918,-105.2124493,1807.48,0.00600000005215,39.4007301331,-0.0170000009239,1
1521997620.78140783,48266778,3,61635800,1994,16,0.66,39.8420918,-105.2124494,1807.49,0.0490000024438,39.4007301331,-0.104000002146,1
1521997620.98145294,48466823,3,61636000,1994,16,0.66,39.8420919,-105.2124495,1807.49,0.0450000017881,39.4007301331,-0.0130000002682,1
1521997621.18148780,48666858,3,61636200,1994,16,0.66,39.8420922,-105.2124495,1807.4,0.109000004828,39.4007301331,0.01600000076,1
1521997621.38155794,48866928,3,61636400,1994,16,0.66,39.8420924,-105.2124495,1807.34,0.0240000002086,39.4007301331,0.0440000034869,1
1521997621.58149791,49066868,3,61636600,1994,16,0.66,39.8420925,-105.2124496,1807.33,0.0550000034273,39.4007301331,-0.0300000011921,1
1521997621.78140974,49266780,3,61636800,1994,16,0.66,39.8420926,-105.2124498,1807.29,0.0740000009537,39.4007301331,-0.0730000063777,1
1521997621.98141885,49466789,3,61637000,1994,16,0.66,39.8420926,-105.2124499,1807.24,0.0570000037551,39.4007301331,0.00600000005215,1
1521997622.18153381,49666904,3,61637200,1994,16,0.66,39.8420928,-105.21245,1807.23,0.0230000019073,39.4007301331,0.0610000044107,1
1521997622.38179684,49867167,3,61637400,1994,16,0.66,39.8420929,-105.2124501,1807.17,0.0780000016093,39.4007301331,-0.015000000596,1
1521997622.58148885,50066859,3,61637600,1994,16,0.66,39.842093,-105.2124501,1807.18,0.047000002116,39.4007301331,0.00200000009499,1
1521997622.78137875,50266749,3,61637800,1994,16,0.66,39.8420931,-105.2124502,1807.19,0.00400000018999,39.4007301331,-0.0890000015497,1
1521997622.98136592,50466736,3,61638000,1994,16,0.66,39.8420932,-105.2124504,1807.23,0.0220000017434,39.4007301331,-0.0720000043511,1
1521997623.18135691,50666727,3,61638200,1994,16,0.66,39.8420933,-105.2124504,1807.21,0.0230000019073,39.4007301331,-0.0650000050664,1
1521997623.38142395,50866794,3,61638400,1994,16,0.66,39.8420933,-105.2124505,1807.22,0.0110000008717,39.4007301331,-0.108000002801,1
1521997623.58147478,51066845,3,61638600,1994,16,0.66,39.8420933,-105.2124507,1807.2,0.0270000007004,39.4007301331,-0.0720000043511,1
1521997623.78154492,51266915,3,61638800,1994,16,0.66,39.8420932,-105.2124509,1807.28,0.107000008225,39.4007301331,-0.116000004113,1
1521997623.98160577,51466976,3,61639000,1994,16,0.66,39.842093,-105.212451,1807.32,0.0510000027716,39.4007301331,-0.0870000049472,1
1521997624.18151879,51666889,3,61639200,1994,16,0.66,39.8420929,-105.2124511,1807.29,0.0990000069141,39.4007301331,-0.0260000005364,1
1521997624.38151693,51866887,3,61639400,1994,16,0.66,39.8420928,-105.2124511,1807.25,0.0460000038147,39.4007301331,-0.0130000002682,1
1521997624.58141184,52066782,3,61639600,1994,16,0.66,39.8420929,-105.2124513,1807.25,0.0380000025034,39.4007301331,-0.102000005543,1
1521997624.78151774,52266888,3,61639800,1994,16,0.66,39.8420929,-105.2124516,1807.25,0.0550000034273,39.4007301331,-0.0390000008047,1
1521997624.98150373,52466874,3,61640000,1994,16,0.66,39.8420929,-105.212452,1807.26,0.0500000007451,39.4007301331,-0.0450000017881,1
1521997625.18141675,52666787,3,61640200,1994,16,0.66,39.8420928,-105.2124523,1807.25,0.134000003338,39.4007301331,0.0130000002682,1
1521997625.38144279,52866813,3,61640400,1994,16,0.66,39.8420927,-105.2124525,1807.22,0.082000002265,39.4007301331,-0.10300000757,1
1521997625.58146882,53066839,3,61640600,1994,16,0.66,39.8420927,-105.2124526,1807.21,0.0910000056028,39.4007301331,0.0220000017434,1
1521997625.78160381,53266974,3,61640800,1994,16,0.66,39.8420928,-105.2124528,1807.19,0.0440000034869,39.4007301331,0.0100000007078,1
1521997625.98154593,53466916,3,61641000,1994,16,0.66,39.8420928,-105.2124529,1807.2,0.0390000008047,39.4007301331,-0.0380000025034,1
1521997626.18157482,53666945,3,61641200,1994,16,0.66,39.842093,-105.2124531,1807.19,0.0480000004172,39.4007301331,0.0460000038147,1
1521997626.38156176,53866932,3,61641400,1994,16,0.66,39.8420931,-105.2124533,1807.17,0.097000002861,39.4007301331,0.107000008225,1
1521997626.58157277,54066943,3,61641600,1994,16,0.66,39.8420933,-105.2124533,1807.14,0.0930000022054,39.4007301331,-0.0200000014156,1
1521997626.78152680,54266897,3,61641800,1994,16,0.66,39.8420934,-105.2124532,1807.14,0.0180000010878,39.4007301331,0.0200000014156,1
1521997626.98165989,54467030,3,61642000,1994,16,0.66,39.8420934,-105.2124531,1807.09,0.0720000043511,39.4007301331,0.0910000056028,1
1521997627.18138289,54666753,3,61642200,1994,16,0.66,39.8420933,-105.212453,1807.07,0.0580000020564,39.4007301331,0.0280000008643,1
1521997627.38137579,54866746,3,61642400,1994,16,0.66,39.8420932,-105.2124529,1807.05,0.0630000010133,39.4007301331,0.171000003815,1
1521997627.58153391,55066904,3,61642600,1994,16,0.66,39.8420931,-105.2124529,1807.07,0.0329999998212,39.4007301331,0.0670000016689,1
1521997627.78141689,55266787,3,61642800,1994,16,0.66,39.842093,-105.2124529,1807.09,0.0840000063181,39.4007301331,0.0990000069141,1
1521997627.98134685,55466717,3,61643000,1994,16,0.66,39.842093,-105.2124529,1807.11,0.0290000010282,39.4007301331,0.0400000028312,1
1521997628.18140078,55666771,3,61643200,1994,16,0.66,39.842093,-105.2124528,1807.12,0.0500000007451,39.4007301331,0.0370000004768,1
1521997628.38154173,55866912,3,61643400,1994,16,0.66,39.842093,-105.2124528,1807.14,0.082000002265,39.4007301331,0.0560000017285,1
1521997628.58141375,56066784,3,61643600,1994,16,0.66,39.842093,-105.2124528,1807.11,0.0340000018477,39.4007301331,0.0730000063777,1
1521997628.78136492,56266735,3,61643800,1994,16,0.66,39.842093,-105.2124528,1807.1,0.0530000030994,39.4007301331,0.0340000018477,1
1521997628.98135686,56466727,3,61644000,1994,16,0.66,39.8420929,-105.2124526,1807.07,0.0590000040829,39.4007301331,0.0250000003725,1
1521997629.18142390,56666794,3,61644200,1994,16,0.66,39.8420929,-105.2124525,1807.07,0.0590000040829,39.4007301331,0.108000002801,1
1521997629.38135982,56866730,3,61644400,1994,16,0.66,39.842093,-105.2124523,1807.0,0.115000002086,39.4007301331,0.0560000017285,1
1521997629.58154988,57066920,3,61644600,1994,16,0.66,39.8420931,-105.2124521,1806.98,0.0250000003725,39.4007301331,0.151000007987,1
1521997629.78139377,57266764,3,61644800,1994,16,0.66,39.8420931,-105.2124521,1806.94,0.070000000298,39.4007301331,0.131999999285,1
1521997629.98146582,57466836,3,61645000,1994,16,0.66,39.842093,-105.212452,1806.88,0.0480000004172,39.4007301331,0.0280000008643,1
1521997630.18143272,57666803,3,61645200,1994,16,0.66,39.8420931,-105.2124519,1806.8,0.125,39.4007301331,0.166000008583,1
1521997630.38148689,57866857,3,61645400,1994,16,0.66,39.8420931,-105.2124517,1806.78,0.0800000056624,39.4007301331,0.143000006676,1
1521997630.58144188,58066812,3,61645600,1994,16,0.66,39.8420932,-105.2124515,1806.8,0.127000004053,39.4007301331,0.0540000014007,1
1521997630.78169274,58267063,3,61645800,1994,16,0.66,39.8420933,-105.2124511,1806.79,0.10300000757,39.4007301331,0.110000006855,1
1521997630.98137593,58466746,3,61646000,1994,16,0.66,39.8420934,-105.2124509,1806.77,0.0590000040829,39.4007301331,0.121000006795,1
1521997631.18136287,58666733,3,61646200,1994,16,0.66,39.8420935,-105.2124509,1806.71,0.062000002712,39.4007301331,0.146999999881,1
1521997631.38139486,58866765,3,61646400,1994,16,0.66,39.8420935,-105.2124509,1806.71,0.0130000002682,39.4007301331,0.171000003815,1
1521997631.58135986,59066730,3,61646600,1994,16,0.66,39.8420936,-105.2124508,1806.7,0.0710000023246,39.4007301331,0.113000005484,1
1521997631.78136778,59266738,3,61646800,1994,16,0.66,39.8420937,-105.2124507,1806.73,0.144000008702,39.4007301331,0.0670000016689,1
1521997631.98142290,59466793,3,61647000,1994,16,0.66,39.8420937,-105.2124508,1806.79,0.0560000017285,39.4007301331,0.0200000014156,1
1521997632.20182776,59687198,3,61647200,1994,16,0.66,39.8420937,-105.2124507,1806.78,0.0230000019073,39.4007301331,0.01600000076,1
1521997632.38158274,59866953,3,61647400,1994,16,0.66,39.8420937,-105.2124505,1806.79,0.0190000012517,39.4007301331,0.0300000011921,1
1521997632.58159184,60066962,3,61647600,1994,16,0.66,39.8420937,-105.2124506,1806.76,0.0560000017285,39.4007301331,0.0720000043511,1
1521997632.78126788,60266638,3,61647800,1994,16,0.66,39.8420936,-105.2124506,1806.78,0.0130000002682,39.4007301331,0.0600000023842,1
1521997633.00141883,60486789,3,61648000,1994,16,0.66,39.8420936,-105.2124506,1806.75,0.0360000021756,39.4007301331,0.0890000015497,1
1521997633.18160176,60666972,3,61648200,1994,16,0.66,39.8420935,-105.2124506,1806.75,0.0800000056624,39.4007301331,0.123000003397,1
1521997633.38147187,60866842,3,61648400,1994,16,0.66,39.8420934,-105.2124507,1806.72,0.101000003517,39.4007301331,0.16400000453,1
1521997633.58139682,61066767,3,61648600,1994,16,0.66,39.8420934,-105.2124509,1806.66,0.0659999996424,39.4007301331,-0.0200000014156,1
1521997633.78151894,61266889,3,61648800,1994,16,0.66,39.8420935,-105.212451,1806.66,0.062000002712,39.4007301331,-0.0390000008047,1
1521997633.98150277,61466873,3,61649000,1994,16,0.66,39.8420936,-105.212451,1806.66,0.0360000021756,39.4007301331,-0.0659999996424,1
1521997634.18181086,61667181,3,61649200,1994,16,0.66,39.8420935,-105.2124511,1806.64,0.0520000010729,39.4007301331,0.134000003338,1
1521997634.38146591,61866836,3,61649400,1994,16,0.66,39.8420935,-105.2124512,1806.64,0.0170000009239,39.4007301331,0.109000004828,1
1521997634.58152676,62066897,3,61649600,1994,16,0.66,39.8420935,-105.2124513,1806.66,0.0540000014007,39.4007301331,0.047000002116,1
1521997634.78149176,62266862,3,61649800,1994,16,0.66,39.8420935,-105.2124514,1806.68,0.0640000030398,39.4007301331,0.00600000005215,1
1521997634.98156595,62466936,3,61650000,1994,16,0.66,39.8420934,-105.2124513,1806.69,0.0530000030994,39.4007301331,0.0720000043511,1
1521997635.18149686,62666867,3,61650200,1994,16,0.66,39.8420933,-105.2124514,1806.67,0.0880000069737,39.4007301331,0.0730000063777,1
1521997635.38143182,62866802,3,61650400,1994,16,0.66,39.8420932,-105.2124515,1806.68,0.0500000007451,39.4007301331,0.156000003219,1
1521997635.58146977,63066840,3,61650600,1994,16,0.66,39.8420932,-105.2124515,1806.69,0.0890000015497,39.4007301331,0.0910000056028,1
1521997635.78153491,63266905,3,61650800,1994,16,0.66,39.8420932,-105.2124516,1806.73,0.0740000009537,39.4007301331,-0.0250000003725,1
1521997635.98153186,63466902,3,61651000,1994,16,0.66,39.8420932,-105.2124518,1806.79,0.111000008881,39.4007301331,0.0810000002384,1
1521997636.18153977,63666910,3,61651200,1994,16,0.66,39.8420932,-105.2124519,1806.82,0.062000002712,39.4007301331,0.00700000021607,1
1521997636.38149476,63866865,3,61651400,1994,16,0.66,39.8420932,-105.2124519,1806.82,0.0640000030398,39.4007301331,-0.0790000036359,1
1521997636.60130978,64086680,3,61651600,1994,16,0.66,39.8420934,-105.2124517,1806.84,0.258000016212,39.4007301331,0.0200000014156,1
1521997636.78152084,64266891,3,61651800,1994,16,0.66,39.8420939,-105.2124513,1806.89,0.436000019312,39.4007301331,-0.0780000016093,1
1521997636.98142481,64466795,3,61652000,1994,16,0.66,39.8420948,-105.2124502,1806.91,0.897000014782,41.2575874329,-0.0510000027716,1
1521997637.18139577,64666766,3,61652200,1994,16,0.66,39.8420961,-105.2124487,1806.89,1.04700005054,42.9599571228,-0.00300000002608,1
1521997637.38141680,64866787,3,61652400,1994,16,0.66,39.8420975,-105.2124469,1806.94,1.10800004005,45.0319480896,0.101000003517,1
1521997637.58158875,65066959,3,61652600,1994,16,0.66,39.842099,-105.2124447,1806.96,1.41400003433,47.3396987915,0.219000011683,1
1521997637.78174186,65267112,3,61652800,1994,16,0.66,39.8421008,-105.2124418,1806.91,1.67100012302,48.5946083069,0.395000010729,1
1521997637.98167276,65467043,3,61653000,1994,16,0.66,39.8421028,-105.2124388,1806.94,1.68300008774,48.0655784607,0.352000027895,1
1521997638.18142891,65666799,3,61653200,1994,16,0.66,39.8421052,-105.2124358,1806.98,1.92300009727,42.714050293,0.428000032902,1
1521997638.38152695,65866897,3,61653400,1994,16,0.66,39.842108,-105.2124329,1807.1,2.0720000267,39.7600402832,0.423000007868,1
1521997638.58141780,66066788,3,61653600,1994,16,0.66,39.8421109,-105.2124297,1807.13,2.08600020409,39.2385482788,0.472000032663,1
1521997638.98148990,66466860,3,61654000,1994,16,0.66,39.8421173,-105.2124231,1807.06,2.48300004005,36.045249939,0.490000009537,1
1521997639.18151283,66666883,3,61654200,1994,16,0.66,39.8421208,-105.2124202,1807.11,2.29300022125,34.438999176,0.57900005579,1
1521997639.38159084,66866961,3,61654400,1994,16,0.66,39.8421242,-105.2124175,1807.12,2.28400015831,31.8914699554,0.563000023365,1
1521997639.58141875,67066789,3,61654600,1994,16,0.66,39.8421276,-105.2124151,1807.18,2.18400001526,31.3932495117,0.512000024319,1
1521997639.78151488,67266885,3,61654800,1994,16,0.66,39.8421307,-105.2124126,1807.16,2.02500009537,32.2256202698,0.516000032425,1
1521997639.98150682,67466877,3,61655000,1994,16,0.66,39.8421336,-105.2124103,1807.12,1.87400007248,32.2424087524,0.40600001812,1
1521997640.18144989,67666820,3,61655200,1994,16,0.66,39.8421363,-105.212408,1807.12,1.75400006771,33.3523788452,0.364000022411,1
1521997640.38153386,67866904,3,61655400,1994,16,0.66,39.8421388,-105.2124059,1807.12,1.58500003815,34.1627082825,0.305000007153,1
1521997640.58177185,68067142,3,61655600,1994,16,0.66,39.8421412,-105.2124038,1807.13,1.6020001173,34.2459983826,0.0600000023842,1
1521997640.78140879,68266779,3,61655800,1994,16,0.66,39.8421435,-105.2124015,1807.14,1.62900006771,37.1158485413,0.0750000029802,1
1521997640.98145294,68466823,3,61656000,1994,16,0.66,39.8421458,-105.2123989,1807.15,1.78100013733,39.8276672363,0.0190000012517,1
1521997641.18157578,68666946,3,61656200,1994,16,0.66,39.8421483,-105.212396,1807.16,1.85500013828,40.9738388062,0.0870000049472,1
1521997641.38151479,68866885,3,61656400,1994,16,0.66,39.8421505,-105.2123933,1807.23,1.66600012779,42.5680007935,-0.0370000004768,1
1521997641.58135986,69066730,3,61656600,1994,16,0.66,39.8421525,-105.2123906,1807.27,1.59200012684,46.3380775452,-0.0010000000475,1
1521997641.78145289,69266823,3,61656800,1994,16,0.66,39.8421539,-105.2123878,1807.32,1.33900010586,52.3231201172,-0.0240000002086,1
1521997641.98151875,69466889,3,61657000,1994,16,0.66,39.8421552,-105.2123848,1807.31,1.60500001907,59.231880188,-0.00800000037998,1
1521997642.18142891,69666799,3,61657200,1994,16,0.66,39.8421564,-105.2123812,1807.29,1.69900012016,64.1195602417,0.035000000149,1
1521997642.38150573,69866876,3,61657400,1994,16,0.66,39.8421574,-105.2123777,1807.29,1.59600007534,68.1601867676,0.0520000010729,1
1521997642.58139586,70066766,3,61657600,1994,16,0.66,39.8421581,-105.2123745,1807.3,1.40600001812,72.8057479858,0.0659999996424,1
1521997642.78166580,70267036,3,61657800,1994,16,0.66,39.8421585,-105.2123716,1807.3,1.27100002766,74.8094558716,0.173000007868,1
1521997643.00139475,70486765,3,61658000,1994,16,0.66,39.842159,-105.212369,1807.3,1.10699999332,76.395149231,0.0710000023246,1
1521997643.18176389,70667134,3,61658200,1994,16,0.66,39.8421592,-105.2123666,1807.32,1.06600010395,80.7452087402,0.0590000040829,1
1521997643.40142393,70886794,3,61658400,1994,16,0.66,39.8421592,-105.2123641,1807.33,1.16500008106,83.7332763672,-0.0200000014156,1
1521997643.58133984,71066710,3,61658600,1994,16,0.66,39.8421591,-105.2123613,1807.35,1.25500011444,89.4720611572,0.0010000000475,1
1521997643.80125690,71286627,3,61658800,1994,16,0.66,39.8421589,-105.2123589,1807.31,0.881000041962,90.3889083862,0.0640000030398,1
1521997643.98163795,71467008,3,61659000,1994,16,0.66,39.8421587,-105.212357,1807.31,0.854000031948,93.6189498901,0.101000003517,1
1521997644.18150091,71666871,3,61659200,1994,16,0.66,39.8421584,-105.2123553,1807.33,0.685000061989,94.9505386353,-0.00800000037998,1
1521997644.38143086,71866801,3,61659400,1994,16,0.66,39.8421583,-105.2123541,1807.35,0.529000043869,94.9505386353,-0.0560000017285,1
1521997644.58153081,72066901,3,61659600,1994,16,0.66,39.8421581,-105.2123532,1807.36,0.385000020266,94.9505386353,-0.0790000036359,1
1521997644.78145194,72266822,3,61659800,1994,16,0.66,39.8421579,-105.2123528,1807.37,0.16700001061,94.9505386353,-0.135000005364,1
1521997644.98138475,72466755,3,61660000,1994,16,0.66,39.8421577,-105.2123529,1807.44,0.0260000005364,94.9505386353,-0.223000004888,1
1521997645.18159676,72666967,3,61660200,1994,16,0.66,39.8421575,-105.212353,1807.42,0.105000004172,94.9505386353,-0.148000001907,1
1521997645.38140583,72866776,3,61660400,1994,16,0.66,39.8421573,-105.212353,1807.39,0.0890000015497,94.9505386353,-0.333000004292,1
1521997645.58143187,73066802,3,61660600,1994,16,0.66,39.8421572,-105.2123529,1807.38,0.148000001907,94.9505386353,-0.369000017643,1
1521997645.78151178,73266882,3,61660800,1994,16,0.66,39.8421571,-105.2123528,1807.39,0.104000002146,94.9505386353,-0.293999999762,1
1521997645.98144174,73466812,3,61661000,1994,16,0.66,39.8421571,-105.2123528,1807.42,0.121000006795,94.9505386353,-0.420000016689,1
1521997646.18133688,73666707,3,61661200,1994,16,0.66,39.842157,-105.212353,1807.37,0.125,94.9505386353,-0.307000011206,1
1521997646.38154078,73866911,3,61661400,1994,16,0.66,39.8421569,-105.212353,1807.38,0.174000009894,94.9505386353,-0.369000017643,1
1521997646.58150482,74066875,3,61661600,1994,16,0.66,39.8421568,-105.212353,1807.4,0.130000010133,94.9505386353,-0.35900002718,1
1521997646.80144191,74286812,3,61661800,1994,16,0.66,39.8421567,-105.2123532,1807.41,0.117000006139,94.9505386353,-0.324000000954,1
1521997647.00139093,74486761,3,61662000,1994,16,0.66,39.8421567,-105.2123533,1807.4,0.069000005722,94.9505386353,-0.426000028849,1
1521997647.18137479,74666745,3,61662200,1994,16,0.66,39.8421566,-105.2123535,1807.42,0.138000011444,94.9505386353,-0.464000016451,1
1521997647.38173890,74867109,3,61662400,1994,16,0.66,39.8421565,-105.2123536,1807.45,0.16400000453,94.9505386353,-0.380000025034,1
1521997647.58158875,75066959,3,61662600,1994,16,0.66,39.8421564,-105.2123539,1807.46,0.0810000002384,94.9505386353,-0.293000012636,1
1521997647.78144693,75266817,3,61662800,1994,16,0.66,39.8421565,-105.212354,1807.49,0.113000005484,94.9505386353,-0.277000010014,1
1521997647.98145294,75466823,3,61663000,1994,16,0.66,39.8421567,-105.212354,1807.5,0.179000005126,94.9505386353,-0.256999999285,1
1521997648.18143773,75666808,3,61663200,1994,16,0.66,39.8421568,-105.2123542,1807.49,0.0760000050068,94.9505386353,-0.268000006676,1
1521997648.38151193,75866882,3,61663400,1994,16,0.66,39.8421568,-105.2123543,1807.52,0.0840000063181,94.9505386353,-0.272000014782,1
1521997648.58142686,76066797,3,61663600,1994,16,0.66,39.8421567,-105.2123545,1807.55,0.186000004411,94.9505386353,-0.183000013232,1
1521997648.78153872,76266909,3,61663800,1994,16,0.66,39.8421566,-105.2123546,1807.59,0.047000002116,94.9505386353,-0.236000016332,1
1521997648.98139977,76466770,3,61664000,1994,16,0.66,39.8421565,-105.2123547,1807.61,0.0780000016093,94.9505386353,-0.225000008941,1
1521997649.18153691,76666907,3,61664200,1994,16,0.66,39.8421565,-105.2123547,1807.61,0.106000006199,94.9505386353,-0.107000008225,1
1521997649.38155079,76866921,3,61664400,1994,16,0.66,39.8421567,-105.2123547,1807.59,0.0659999996424,94.9505386353,-0.0900000035763,1
1521997649.58151674,77066887,3,61664600,1994,16,0.66,39.8421568,-105.2123548,1807.59,0.0140000004321,94.9505386353,-0.0560000017285,1
1521997649.78148675,77266857,3,61664800,1994,16,0.66,39.8421569,-105.2123547,1807.58,0.0860000029206,94.9505386353,-0.070000000298,1
1521997649.98163295,77467003,3,61665000,1994,16,0.66,39.8421569,-105.2123542,1807.59,0.377000004053,94.9505386353,-0.0450000017881,1
1521997650.18139672,77666767,3,61665200,1994,16,0.66,39.8421568,-105.212353,1807.62,0.631000041962,95.0694580078,0.035000000149,1
1521997650.38137984,77866750,3,61665400,1994,16,0.66,39.8421567,-105.2123512,1807.58,0.953000068665,98.3951644897,0.101000003517,1
1521997650.58132195,78066692,3,61665600,1994,16,0.66,39.8421562,-105.2123485,1807.56,1.35900008678,102.122039795,0.225000008941,1
1521997650.78153181,78266902,3,61665800,1994,16,0.66,39.8421554,-105.2123447,1807.58,1.83200013638,103.131416321,0.301000028849,1
1521997650.98151994,78466890,3,61666000,1994,16,0.66,39.8421545,-105.2123399,1807.56,2.26200008392,102.703796387,0.389000028372,1
1521997651.18138790,78666758,3,61666200,1994,16,0.66,39.8421534,-105.212334,1807.57,2.71100020409,103.493255615,0.471000015736,1
1521997651.38151383,78866884,3,61666400,1994,16,0.66,39.8421519,-105.2123271,1807.56,3.27000021935,104.156990051,0.558000028133,1
1521997651.58162189,79066992,3,61666600,1994,16,0.66,39.8421502,-105.2123189,1807.55,3.72000026703,103.976005554,0.661000013351,1
1521997651.78149176,79266862,3,61666800,1994,16,0.66,39.8421482,-105.2123094,1807.54,4.42000007629,104.232040405,0.684000015259,1
1521997651.98157382,79466944,3,61667000,1994,16,0.66,39.8421458,-105.2122981,1807.53,5.31200027466,104.950386047,0.636000037193,1
1521997652.18145180,79666822,3,61667200,1994,16,0.66,39.8421431,-105.2122849,1807.55,6.12700033188,104.947669983,0.510000050068,1
1521997652.38166976,79867040,3,61667400,1994,16,0.66,39.8421401,-105.21227,1807.55,6.78400039673,104.540405273,0.600000023842,1
1521997652.58183193,80067202,3,61667600,1994,16,0.66,39.8421368,-105.2122534,1807.53,7.71800041199,103.92199707,0.632000029087,1
1521997652.78155780,80266928,3,61667800,1994,16,0.66,39.8421334,-105.2122347,1807.54,8.49300003052,102.817588806,0.507000029087,1
1521997653.00170374,80487074,3,61668000,1994,16,0.66,39.8421295,-105.2122141,1807.53,9.45100021362,103.855537415,0.432000011206,1
1521997653.18144488,80666815,3,61668200,1994,16,0.66,39.8421251,-105.2121914,1807.52,10.4340009689,104.35546875,0.535000026226,1
1521997653.38142490,80866795,3,61668400,1994,16,0.66,39.8421201,-105.2121666,1807.43,11.3860006332,104.521377563,0.628000020981,1
1521997653.60142779,81086798,3,61668600,1994,16,0.66,39.8421143,-105.2121399,1807.39,12.2960004807,106.636909485,0.322000026703,1
1521997653.78141785,81266788,3,61668800,1994,16,0.66,39.8421075,-105.2121114,1807.36,13.0940008163,107.470779419,0.428000032902,1
1521997653.98142982,81466800,3,61669000,1994,16,0.66,39.8421,-105.2120813,1807.34,13.908000946,108.046470642,0.440000027418,1
1521997654.18134475,81666715,3,61669200,1994,16,0.66,39.842092,-105.2120493,1807.3,14.7770004272,107.435157776,0.598000049591,1
1521997654.38151884,81866889,3,61669400,1994,16,0.66,39.8420836,-105.2120156,1807.26,15.4330005646,108.002861023,0.418000012636,1
1521997654.58144879,82066819,3,61669600,1994,16,0.66,39.8420746,-105.2119804,1807.24,16.1780014038,107.735610962,0.284000009298,1
1521997654.80129886,82286669,3,61669800,1994,16,0.66,39.8420656,-105.2119435,1807.28,16.8360004425,107.300621033,0.0400000028312,1
1521997654.98149085,82466861,3,61670000,1994,16,0.66,39.8420564,-105.2119056,1807.34,17.1800003052,107.03842926,-0.134000003338,1
1521997655.18155074,82666921,3,61670200,1994,16,0.66,39.8420472,-105.2118663,1807.5,17.8370018005,106.124824524,-0.716000020504,1
1521997655.38151789,82866888,3,61670400,1994,16,0.66,39.8420384,-105.2118255,1807.66,18.3330001831,105.178474426,-0.774000048637,1
1521997655.58144379,83066814,3,61670600,1994,16,0.66,39.84203,-105.2117832,1807.77,18.9870014191,103.754653931,-0.959000051022,1
1521997655.78136277,83266733,3,61670800,1994,16,0.66,39.842022,-105.2117398,1808.02,19.1370010376,103.066390991,-1.45700001717,1
1521997655.98143578,83466806,3,61671000,1994,16,0.66,39.8420142,-105.2116955,1808.4,19.611000061,102.25428009,-2.13300013542,1
1521997656.18139291,83666763,3,61671200,1994,16,0.66,39.842007,-105.2116505,1808.93,19.5910015106,101.151664734,-2.32400012016,1
1521997656.38174295,83867113,3,61671400,1994,16,0.66,39.8420003,-105.2116051,1809.46,19.8270015717,100.293830872,-2.31700015068,1
1521997656.58152676,84066897,3,61671600,1994,16,0.66,39.8419938,-105.211559,1809.93,20.1670017242,100.179344177,-1.99700009823,1
1521997656.80144882,84286819,3,61671800,1994,16,0.66,39.8419869,-105.2115125,1810.32,20.3660011292,101.530410767,-1.7080000639,1
1521997656.98136091,84466731,3,61672000,1994,16,0.66,39.8419789,-105.2114658,1810.73,20.5840015411,103.03730011,-1.53200006485,1
1521997657.18141890,84666789,3,61672200,1994,16,0.66,39.8419699,-105.2114189,1811.09,20.71900177,104.810417175,-1.35300004482,1
1521997657.38140273,84866773,3,61672400,1994,16,0.66,39.8419596,-105.2113719,1811.43,21.0960006714,106.737304688,-1.6890001297,1
1521997657.58150482,85066875,3,61672600,1994,16,0.66,39.8419482,-105.2113246,1811.87,21.2490005493,107.79888916,-1.79400002956,1
1521997657.78148174,85266852,3,61672800,1994,16,0.66,39.8419361,-105.2112774,1812.43,21.1920013428,108.798553467,-2.83000016212,1
1521997657.98143888,85466809,3,61673000,1994,16,0.66,39.8419236,-105.2112304,1813.09,21.3990001678,109.061820984,-3.50900006294,1
1521997658.18144083,85666811,3,61673200,1994,16,0.66,39.8419114,-105.211183,1813.91,21.3910007477,107.740959167,-4.1970000267,1
1521997658.38152981,85866900,3,61673400,1994,16,0.66,39.8418999,-105.2111353,1814.84,21.2890014648,106.911529541,-4.43400001526,1
1521997658.58153582,86066906,3,61673600,1994,16,0.66,39.8418888,-105.2110875,1815.71,21.4550018311,106.134346008,-4.17200040817,1
1521997658.78150272,86266873,3,61673800,1994,16,0.66,39.8418784,-105.211039,1816.46,21.7000007629,105.119728088,-3.62100028992,1
1521997658.98135090,86466721,3,61674000,1994,16,0.66,39.8418683,-105.2109899,1817.02,21.7710018158,104.833045959,-2.83500003815,1
1521997659.18152785,86666898,3,61674200,1994,16,0.66,39.8418583,-105.2109405,1817.56,21.9250011444,104.277145386,-2.40800023079,1
1521997659.38142991,86866800,3,61674400,1994,16,0.66,39.8418483,-105.2108909,1818.03,22.0230007172,104.821594238,-2.46100020409,1
1521997659.58139086,87066761,3,61674600,1994,16,0.66,39.8418381,-105.210841,1818.54,22.2210006714,104.886856079,-2.84100008011,1
1521997659.78152585,87266896,3,61674800,1994,16,0.66,39.8418277,-105.2107908,1819.19,22.2770004272,104.868347168,-3.10400009155,1
1521997659.98136091,87466731,3,61675000,1994,16,0.66,39.8418175,-105.2107403,1819.98,22.3370018005,104.391456604,-3.64800024033,1
1521997660.18150282,87666873,3,61675200,1994,16,0.66,39.8418079,-105.2106896,1820.85,22.3530006409,102.996139526,-3.9880001545,1
1521997660.38142180,87866792,3,61675400,1994,16,0.66,39.8417994,-105.2106383,1821.62,22.5490016937,101.254516602,-4.16200017929,1
1521997660.58145976,88066830,3,61675600,1994,16,0.66,39.8417923,-105.2105863,1822.53,22.640001297,98.822227478,-5.11500024796,1
1521997660.78146386,88266834,3,61675800,1994,16,0.66,39.8417869,-105.2105342,1823.58,22.3990001678,96.5987243652,-5.47500038147,1
1521997660.98141074,88466781,3,61676000,1994,16,0.66,39.8417832,-105.210482,1824.67,22.408000946,94.121055603,-5.6920003891,1
1521997661.18146276,88666833,3,61676200,1994,16,0.66,39.8417812,-105.2104295,1825.72,22.6590003967,91.5155563354,-4.01900005341,1
1521997661.38146496,88866835,3,61676400,1994,16,0.66,39.8417811,-105.2103768,1826.38,22.4800014496,89.0705795288,-3.78300023079,1
1521997661.58153391,89066904,3,61676600,1994,16,0.66,39.8417823,-105.2103237,1827.14,22.9150009155,87.61302948,-4.06800031662,1
1521997661.78139377,89266764,3,61676800,1994,16,0.66,39.8417845,-105.2102704,1827.95,22.8060016632,86.3448410034,-4.06800031662,1
1521997661.98135877,89466729,3,61677000,1994,16,0.66,39.8417884,-105.2102178,1828.81,22.533000946,82.7077102661,-5.1810002327,1
1521997662.18138981,89666760,3,61677200,1994,16,0.66,39.8417948,-105.2101658,1829.82,22.5780010223,79.3787994385,-4.9950003624,1
1521997662.38148880,89866859,3,61677400,1994,16,0.66,39.8418034,-105.2101146,1831.01,22.2910003662,76.1518554688,-5.73500013351,1
1521997662.58146787,90066838,3,61677600,1994,16,0.66,39.8418147,-105.2100647,1832.43,22.1610012054,71.6156768799,-6.41100025177,1
1521997662.78149295,90266863,3,61677800,1994,16,0.66,39.8418289,-105.2100157,1833.67,22.6830005646,67.2277679443,-6.42000007629,1
1521997662.98135591,90466726,3,61678000,1994,16,0.66,39.8418463,-105.2099673,1834.94,23.0310020447,63.1459388733,-6.36000013351,1
1521997663.18152094,90666891,3,61678200,1994,16,0.66,39.8418664,-105.2099198,1836.25,23.3810005188,59.5865974426,-5.91000032425,1
1521997663.38153076,90866901,3,61678400,1994,16,0.66,39.8418888,-105.2098735,1837.4,23.6290016174,55.7928085327,-5.3890004158,1
1521997663.58143187,91066802,3,61678600,1994,16,0.66,39.8419141,-105.2098288,1838.28,23.9760017395,51.2364768982,-5.0640001297,1
1521997663.80152678,91286897,3,61678800,1994,16,0.66,39.8419427,-105.2097866,1839.32,24.2760009766,46.056678772,-4.85900020599,1
1521997663.98154378,91466914,3,61679000,1994,16,0.66,39.8419745,-105.2097479,1840.56,24.1680011749,40.8599586487,-4.97100019455,1
1521997664.18164182,91667012,3,61679200,1994,16,0.66,39.842009,-105.2097118,1841.53,25.1230010986,37.1486091614,-5.26800012589,1
1521997664.38137078,91866741,3,61679400,1994,16,0.66,39.8420462,-105.2096786,1842.53,25.0890007019,31.879240036,-6.03900051117,1
1521997664.60141778,92086788,3,61679600,1994,16,0.66,39.8420855,-105.2096489,1843.67,25.3540019989,28.4187889099,-6.18300008774,1
1521997664.78132772,92266698,3,61679800,1994,16,0.66,39.8421268,-105.2096235,1844.8,25.4210014343,22.2603797913,-6.29300022125,1
1521997665.00144386,92486814,3,61680000,1994,16,0.66,39.8421702,-105.2096029,1846.17,25.8220005035,18.1166400909,-6.2610001564,1
1521997665.18146682,92666837,3,61680200,1994,16,0.66,39.8422148,-105.2095852,1847.35,25.9700012207,15.8238697052,-5.80200004578,1
1521997665.38151193,92866882,3,61680400,1994,16,0.66,39.8422601,-105.2095713,1848.53,25.8170013428,10.9030294418,-5.43000030518,1
1521997665.58135295,93066723,3,61680600,1994,16,0.66,39.8423058,-105.2095598,1849.52,25.9840011597,10.7467498779,-4.52100038528,1
1521997665.78141975,93266790,3,61680800,1994,16,0.66,39.842352,-105.2095503,1850.35,25.9900016785,6.76249980927,-5.05100011826,1
1521997665.98147488,93466845,3,61681000,1994,16,0.66,39.8423988,-105.209545,1851.48,26.1680011749,3.9572198391,-4.64500045776,1
1521997666.18140793,93666778,3,61681200,1994,16,0.66,39.8424458,-105.2095425,1852.45,26.1940021515,1.61606991291,-4.28500032425,1
1521997666.38148093,93866851,3,61681400,1994,15,0.71,39.842493,-105.2095427,1853.32,26.3730010986,358.30758667,-4.72200012207,1
1521997666.60133481,94086705,3,61681600,1994,15,0.71,39.8425405,-105.2095471,1854.28,26.6110019684,353.691833496,-4.66000032425,1
1521997666.78164887,94267019,3,61681800,1994,16,0.66,39.8425883,-105.2095566,1855.18,27.0830020905,349.276153564,-4.15400028229,1
1521997666.98148394,94466854,3,61682000,1994,16,0.66,39.8426363,-105.20957,1855.88,27.4200019836,346.9375,-3.24900007248,1
1521997667.18134284,94666713,3,61682200,1994,15,0.71,39.8426847,-105.2095857,1856.52,27.8190021515,345.560821533,-2.20900011063,1
1521997667.38134480,94866715,3,61682400,1994,16,0.66,39.8427333,-105.2096028,1857.24,28.0110015869,344.261749268,-1.62600004673,1
1521997667.58144188,95066812,3,61682600,1994,16,0.66,39.8427819,-105.2096218,1857.38,28.4420013428,341.386993408,-0.852000057697,1
1521997667.80140686,95286777,3,61682800,1994,16,0.66,39.8428302,-105.2096448,1857.54,28.751001358,338.25881958,-0.30600002408,1
1521997667.98137474,95466745,3,61683000,1994,16,0.66,39.842878,-105.209671,1857.63,28.904001236,334.982574463,-0.0230000019073,1
1521997668.18171382,95667084,3,61683200,1994,16,0.66,39.842925,-105.2097005,1857.7,29.2750015259,332.211029053,0.258000016212,1
1521997668.38140392,95866774,3,61683400,1994,16,0.66,39.8429713,-105.2097341,1857.83,29.5700016022,329.449188232,0.253000020981,1
1521997668.58156276,96066933,3,61683600,1994,16,0.66,39.8430165,-105.2097719,1858.0,29.9660015106,325.717041016,0.070000000298,1
1521997668.78155875,96266929,3,61683800,1994,15,0.71,39.8430609,-105.2098135,1858.09,30.2840023041,323.961486816,0.555000007153,1
1521997668.98143888,96466809,3,61684000,1994,15,0.71,39.8431037,-105.2098574,1858.03,30.3020019531,319.743927002,0.0680000036955,1
1521997669.18156981,96666940,3,61684200,1994,16,0.71,39.8431441,-105.209906,1858.36,30.4070014954,315.99798584,-0.774000048637,1
1521997669.38138294,96866753,3,61684400,1994,16,0.66,39.8431816,-105.2099583,1858.76,30.6890010834,310.743408203,-1.71600008011,1
1521997669.58139277,97066763,3,61684600,1994,16,0.66,39.8432171,-105.210014,1859.15,30.8650016785,308.957702637,-1.36000001431,1
1521997669.78149581,97266866,3,61684800,1994,15,0.71,39.8432512,-105.2100723,1859.46,31.3620014191,305.96975708,-1.06700003147,1
1521997669.98151493,97466885,3,61685000,1994,15,0.71,39.8432835,-105.2101329,1859.67,31.3020019531,303.660949707,-1.00800001621,1
1521997670.18137574,97666746,3,61685200,1994,15,0.71,39.8433132,-105.2101956,1859.96,31.3610019684,299.828918457,-1.88300013542,1
1521997670.38140178,97866772,3,61685400,1994,15,0.71,39.8433405,-105.2102599,1860.19,31.5690021515,297.446838379,-1.31200003624,1
1521997670.58149195,98066862,3,61685600,1994,15,0.71,39.8433658,-105.2103265,1860.42,31.7380008698,295.107574463,-0.911000072956,1
1521997670.78142476,98266795,3,61685800,1994,15,0.71,39.8433898,-105.2103925,1860.35,31.640001297,293.633392334,-0.042000003159,1
1521997670.98133779,98466708,3,61686000,1994,15,0.71,39.8434122,-105.2104609,1860.51,32.0230026245,292.44430542,1.36200010777,1
1521997671.18147779,98666848,3,61686200,1994,15,0.71,39.8434335,-105.2105308,1860.35,32.2770004272,290.68157959,0.869000017643,1
1521997671.38148689,98866857,3,61686400,1994,15,0.71,39.8434538,-105.2106025,1860.3,32.4770011902,290.157836914,1.22900009155,1
1521997671.58144474,99066815,3,61686600,1994,16,0.71,39.8434737,-105.2106739,1860.15,32.516002655,289.986419678,1.20700001717,1
1521997671.78133082,99266701,3,61686800,1994,15,0.66,39.8434937,-105.2107456,1859.9,32.5040016174,289.935577393,1.89600014687,1
1521997672.00135493,99486725,3,61687000,1994,15,0.71,39.8435135,-105.2108175,1859.59,32.6900024414,289.600158691,2.04200005531,1
1521997672.18156695,99666937,3,61687200,1994,15,0.71,39.843533,-105.2108901,1859.36,32.7790031433,288.742126465,1.10000002384,1
1521997672.38151979,99866890,3,61687400,1994,16,0.66,39.8435514,-105.2109634,1859.32,32.986000061,287.885986328,0.919000029564,1
1521997672.58141994,100066790,3,61687600,1994,16,0.66,39.8435696,-105.2110371,1859.22,32.8940010071,288.173400879,1.21600008011,1
1521997672.78156495,100266935,3,61687800,1994,16,0.66,39.8435879,-105.2111105,1859.06,32.9700012207,288.031494141,1.09400010109,1
1521997672.98164177,100467012,3,61688000,1994,16,0.66,39.8436061,-105.2111845,1859.02,33.3100013733,287.761779785,0.136000007391,1
1521997673.18136978,100666740,3,61688200,1994,15,0.66,39.8436244,-105.2112583,1858.99,32.9870033264,287.679351807,0.587999999523,1
1521997673.40122294,100886593,3,61688400,1994,15,0.71,39.8436424,-105.2113317,1858.91,33.0550003052,287.622711182,0.315000027418,1
1521997673.58135581,101066726,3,61688600,1994,15,0.71,39.8436608,-105.2114052,1858.84,33.0320014954,288.292724609,0.752000033855,1
1521997673.78150892,101266879,3,61688800,1994,15,0.71,39.8436795,-105.2114785,1858.71,33.1470031738,288.404876709,0.913000047207,1
