timestamp,TimeUS,Roll,Pitch,Yaw,VN,VE,VD,dPD,PN,PE,PD,GX,GY,GZ,OH
1521997579.02336192,6508732,2.49,-0.71,0.0,0.0,0.0,0.0,0.0,0.0,0.0,0.0,0.0,0.0,0.0,0.0
1521997579.06064677,6546017,2.49,-0.71,0.0,0.0,0.0,0.0,0.0,0.0,0.0,0.0,0.0,0.0,0.0,0.0
1521997579.10050678,6585877,2.49,-0.71,0.0,0.0,0.0,0.0,0.0,0.0,0.0,0.0,0.0,0.0,0.0,0.0
1521997579.14059877,6625969,2.49,-0.71,0.0,0.0,0.0,0.0,0.0,0.0,0.0,0.0,0.0,0.0,0.0,0.0
1521997579.18058181,6665952,2.49,-0.71,0.0,0.0,0.0,0.0,0.0,0.0,0.0,0.0,0.0,0.0,0.0,0.0
1521997579.22118878,6706559,2.49,-0.71,0.0,0.0,0.0,0.0,0.0,0.0,0.0,0.0,0.0,0.0,0.0,0.0
1521997579.26046276,6745833,2.49,-0.71,0.0,0.0,0.0,0.0,0.0,0.0,0.0,0.0,0.0,0.0,0.0,0.0
1521997579.30017281,6785543,2.49,-0.71,0.0,0.0,0.0,0.0,0.0,0.0,0.0,0.0,0.0,0.0,0.0,0.0
1521997579.34046674,6825837,2.49,-0.71,0.0,0.0,0.0,0.0,0.0,0.0,0.0,0.0,0.0,0.0,0.0,0.0
1521997579.38056874,6865939,2.49,-0.71,0.0,0.0,0.0,0.0,0.0,0.0,0.0,0.0,0.0,0.0,0.0,0.0
1521997579.42050195,6905872,2.49,-0.71,0.0,0.0,0.0,0.0,0.0,0.0,0.0,0.0,0.0,0.0,0.0,0.0
1521997579.46029782,6945668,2.49,-0.71,0.0,0.0,0.0,0.0,0.0,0.0,0.0,0.0,0.0,0.0,0.0,0.0
1521997579.50010180,6985472,2.49,-0.71,0.0,0.0,0.0,0.0,0.0,0.0,0.0,0.0,0.0,0.0,0.0,0.0
1521997579.54044485,7025815,2.49,-0.71,0.0,0.0,0.0,0.0,0.0,0.0,0.0,0.0,0.0,0.0,0.0,0.0
1521997579.58061290,7065983,2.49,-0.71,0.0,0.0,0.0,0.0,0.0,0.0,0.0,0.0,0.0,0.0,0.0,0.0
1521997579.62062383,7105994,2.49,-0.71,0.0,0.0,0.0,0.0,0.0,0.0,0.0,0.0,0.0,0.0,0.0,0.0
1521997579.66051674,7145887,2.49,-0.71,0.0,0.0,0.0,0.0,0.0,0.0,0.0,0.0,0.0,0.0,0.0,0.0
1521997579.70025682,7185627,2.49,-0.71,0.0,0.0,0.0,0.0,0.0,0.0,0.0,0.0,0.0,0.0,0.0,0.0
1521997579.74031782,7225688,2.49,-0.71,0.0,0.0,0.0,0.0,0.0,0.0,0.0,0.0,0.0,0.0,0.0,0.0
1521997579.78047395,7265844,2.49,-0.71,0.0,0.0,0.0,0.0,0.0,0.0,0.0,0.0,0.0,0.0,0.0,0.0
1521997579.82043791,7305808,2.49,-0.71,0.0,0.0,0.0,0.0,0.0,0.0,0.0,0.0,0.0,0.0,0.0,0.0
1521997579.86032176,7345692,2.49,-0.71,0.0,0.0,0.0,0.0,0.0,0.0,0.0,0.0,0.0,0.0,0.0,0.0
1521997579.90010381,7385474,2.49,-0.71,0.0,0.0,0.0,0.0,0.0,0.0,0.0,0.0,0.0,0.0,0.0,0.0
1521997579.94030476,7425675,2.49,-0.71,0.0,0.0,0.0,0.0,0.0,0.0,0.0,0.0,0.0,0.0,0.0,0.0
1521997579.98066688,7466037,2.49,-0.71,0.0,0.0,0.0,0.0,0.0,0.0,0.0,0.0,0.0,0.0,0.0,0.0
1521997580.02101994,7506390,2.49,-0.71,0.0,0.0,0.0,0.0,0.0,0.0,0.0,0.0,0.0,0.0,0.0,0.0
1521997580.06042981,7545800,2.49,-0.71,0.0,0.0,0.0,0.0,0.0,0.0,0.0,0.0,0.0,0.0,0.0,0.0
1521997580.10053277,7585903,2.49,-0.71,0.0,0.0,0.0,0.0,0.0,0.0,0.0,0.0,0.0,0.0,0.0,0.0
1521997580.14044094,7625811,2.49,-0.71,0.0,0.0,0.0,0.0,0.0,0.0,0.0,0.0,0.0,0.0,0.0,0.0
1521997580.18081784,7666188,2.49,-0.71,0.0,0.0,0.0,0.0,0.0,0.0,0.0,0.0,0.0,0.0,0.0,0.0
1521997580.22048593,7705856,2.49,-0.71,0.0,0.0,0.0,0.0,0.0,0.0,0.0,0.0,0.0,0.0,0.0,0.0
1521997580.26052785,7745898,2.49,-0.71,0.0,0.0,0.0,0.0,0.0,0.0,0.0,0.0,0.0,0.0,0.0,0.0
1521997580.30061173,7785982,2.49,-0.71,0.0,0.0,0.0,0.0,0.0,0.0,0.0,0.0,0.0,0.0,0.0,0.0
1521997580.34058976,7825960,2.49,-0.71,0.0,0.0,0.0,0.0,0.0,0.0,0.0,0.0,0.0,0.0,0.0,0.0
1521997580.38025093,7865621,2.49,-0.71,0.0,0.0,0.0,0.0,0.0,0.0,0.0,0.0,0.0,0.0,0.0,0.0
1521997580.42046785,7905838,2.49,-0.71,0.0,0.0,0.0,0.0,0.0,0.0,0.0,0.0,0.0,0.0,0.0,0.0
1521997580.46067476,7946045,2.49,-0.71,0.0,0.0,0.0,0.0,0.0,0.0,0.0,0.0,0.0,0.0,0.0,0.0
1521997580.50038886,7985759,2.49,-0.71,0.0,0.0,0.0,0.0,0.0,0.0,0.0,0.0,0.0,0.0,0.0,0.0
1521997580.54056382,8025934,2.49,-0.71,0.0,0.0,0.0,0.0,0.0,0.0,0.0,0.0,0.0,0.0,0.0,0.0
1521997580.58077884,8066149,2.49,-0.71,0.0,0.0,0.0,0.0,0.0,0.0,0.0,0.0,0.0,0.0,0.0,0.0
1521997580.62309980,8108470,1.63,6.14,359.99,-0.000242167894612,0.000105790597445,0.0102639971301,0.0,0.0,0.0,0.000107733045297,0.0,0.0,0.0,0.0
1521997580.66269183,8148062,1.63,6.11,1.13,-0.00473338924348,-0.00253657298163,0.0281062182039,0.0,0.0,0.0,0.376218914986,0.0,0.0,0.0,0.0
1521997580.70122290,8186593,1.65,6.09,1.24,-0.00885445810854,-0.00614559045061,0.045513741672,0.0,0.0,0.0,0.789439082146,0.0,0.0,0.0,0.0
1521997580.74108076,8226451,1.63,6.08,1.3,-0.00316664064303,-0.0075238822028,0.0645555481315,0.0,0.0,0.0,1.1836656332,0.0,0.0,0.0,0.0
1521997580.78158092,8266951,1.62,6.04,1.34,-0.0105899404734,-0.0102338418365,0.07984688133,0.0,0.0,0.0,1.55915939808,0.0,0.0,0.0,0.0
1521997580.82170677,8307077,1.66,6.01,1.36,-0.0141047360376,-0.0107020875439,0.0996569097042,0.0,0.0,0.0,1.91393065453,0.0,0.0,0.0,0.0
1521997580.86096072,8346331,1.68,6.0,1.37,-0.00630594464019,-0.0145788015798,0.110787056386,0.0,0.0,0.0,2.24920558929,0.0,0.0,0.0,0.0
1521997580.90195179,8387322,1.66,5.97,1.4,-0.00734103331342,-0.0180726926774,0.12987960875,0.0,0.0,0.0,2.59689116478,0.0,0.0,0.0,0.0
1521997580.94154882,8426919,1.66,5.94,1.44,-0.0089259641245,-0.020526137203,0.142646163702,0.0,0.0,0.0,2.95371341705,0.0,0.0,0.0,0.0
1521997580.98164988,8467020,1.67,5.94,1.48,-0.00844914093614,-0.0213254559785,0.157820180058,0.0,0.0,0.0,3.28608250618,0.0,0.0,0.0,0.0
1521997581.02231574,8507686,1.7,5.9,1.52,-0.0080481832847,-0.0247876085341,0.177793577313,0.0,0.0,0.0,3.64086079597,0.0,0.0,0.0,0.0
1521997581.06143284,8546803,1.68,5.9,1.6,-0.00207384093665,-0.0249850973487,0.191680267453,0.0,0.0,0.0,3.96972966194,0.0,0.0,0.0,0.0
1521997581.10239387,8587764,1.67,5.88,1.67,-0.00675052311271,-0.0285093188286,0.208896294236,0.0,0.0,0.0,4.2895655632,0.0,0.0,0.0,0.0
1521997581.14193487,8627305,1.69,5.87,1.73,-0.00983421131968,-0.0281412806362,0.222051650286,0.0,0.0,0.0,4.60032749176,0.0,0.0,0.0,0.0
1521997581.18189979,8667270,1.72,5.87,1.79,-0.0107931634411,-0.031955178827,0.239156961441,0.0,0.0,0.0,4.88686180115,0.0,0.0,0.0,0.0
1521997581.22211289,8707483,1.7,5.87,1.86,-0.0081283878535,-0.0330701097846,0.254149138927,0.0,0.0,0.0,5.17256402969,0.0,0.0,0.0,0.0
1521997581.26136994,8746740,1.69,5.88,1.93,-0.000186414545169,-0.0356744639575,0.27204361558,0.0,0.0,0.0,5.43484640121,0.0,0.0,0.0,0.0
1521997581.30246282,8787833,1.71,5.86,1.99,0.00155866658315,-0.0363200046122,0.285769730806,0.0,0.0,0.0,5.68170261383,0.0,0.0,0.0,0.0
1521997581.34137177,8826742,1.72,5.85,2.05,-0.00466614682227,-0.0398135073483,0.29843968153,0.0,0.0,0.0,5.91480398178,0.0,0.0,0.0,0.0
1521997581.38203478,8867405,1.7,5.86,2.11,-0.0036906148307,-0.0391406789422,0.312312275171,0.0,0.0,0.0,6.12751293182,0.0,0.0,0.0,0.0
1521997581.42249990,8907870,1.72,5.85,2.16,0.00130039849319,-0.0388721674681,0.328074872494,0.0,0.0,0.0,6.33091640472,0.0,0.0,0.0,0.0
1521997581.46101379,8946384,1.76,5.84,2.22,-0.000531860103365,-0.0400604829192,0.339940905571,0.0,0.0,0.0,6.51699018478,0.0,0.0,0.0,0.0
1521997581.50228477,8987655,1.77,5.84,2.27,0.00154372688849,-0.0420618914068,0.352537095547,0.0,0.0,0.0,6.68875789642,0.0,0.0,0.0,0.0
1521997581.54135394,9026724,1.76,5.83,2.36,0.00621873699129,-0.0411787293851,0.366704344749,0.0,0.0,0.0,6.84727287292,0.0,0.0,-0.01,0.0
1521997581.58193684,9067307,1.8,5.82,2.47,0.0101229269058,-0.0412464775145,0.375588923693,0.0,0.0,0.0,6.99140501022,0.0,0.0,-0.01,0.0
1521997581.62204194,9107412,1.83,5.82,2.57,0.0108049344271,-0.0411970205605,0.384228140116,0.0,0.0,0.0,7.12488031387,0.0,0.0,-0.02,0.0
1521997581.66099977,9146370,1.84,5.8,2.73,0.00937988609076,-0.0407873541117,0.394900590181,0.0,0.0,0.0,7.24599981308,0.0,0.0,-0.02,0.0
1521997581.70223093,9187601,1.84,5.8,2.88,0.00566330412403,-0.041268158704,0.401579260826,0.0,0.0,0.0,7.35600614548,0.0,0.0,-0.02,0.0
1521997581.74139094,9226761,1.86,5.79,3.05,0.00395802268758,-0.0387141816318,0.408654391766,0.0,0.0,0.0,7.45733785629,0.0,0.0,-0.03,0.0
1521997581.78170586,9267076,1.88,5.8,3.23,0.00221035676077,-0.0400886163116,0.414817720652,0.0,0.0,0.0,7.54867553711,0.0,0.0,-0.03,0.0
1521997581.82189584,9307266,1.87,5.81,3.41,0.00521527044475,-0.0384059548378,0.421137571335,0.0,0.0,0.0,7.6296210289,0.0,0.0,-0.04,0.0
1521997581.86102486,9346395,1.86,5.81,3.62,0.013413824141,-0.0379435308278,0.428726732731,0.0,0.0,0.0,7.70389080048,0.0,0.0,-0.04,0.0
1521997581.90235186,9387722,1.87,5.8,3.82,0.00299876253121,-0.0358102433383,0.42786154151,0.0,0.0,0.0,7.76967763901,0.0,0.0,-0.04,0.0
1521997581.94115591,9426526,1.88,5.82,4.01,-0.00199769902974,-0.0337928645313,0.432106554508,0.0,0.0,0.0,7.82816028595,0.0,0.0,-0.05,0.0
1521997581.98141980,9466790,1.9,5.82,4.23,0.00621417257935,-0.0309351086617,0.438266307116,0.0,0.0,0.0,7.8812122345,0.0,0.0,-0.05,0.0
1521997582.02258372,9507954,1.9,5.81,4.41,0.0150809064507,-0.0298113171011,0.438152343035,0.0,0.0,0.0,7.92755270004,0.0,0.0,-0.06,0.0
1521997582.06155276,9546923,1.95,5.81,4.61,0.0150847304612,-0.0272547751665,0.441431760788,0.0,0.0,0.0,7.96994304657,0.0,0.0,-0.06,0.0
1521997582.10206389,9587434,1.98,5.79,4.79,0.0111213885248,-0.0274630412459,0.441763520241,0.0,0.0,0.0,8.00835704803,0.0,0.0,-0.06,0.0
1521997582.14152479,9626895,1.96,5.79,4.98,0.00561510492116,-0.0273913815618,0.442741900682,0.0,0.0,0.0,8.04322433472,0.0,0.0,-0.07,0.0
1521997582.18197775,9667348,1.96,5.81,5.18,0.0155736356974,-0.0232236497104,0.445418596268,0.0,0.0,0.0,8.07496261597,0.0,0.0,-0.07,0.0
1521997582.22205186,9707422,2.0,5.8,5.34,0.0216446798295,-0.019611813128,0.4502800107,0.0,0.0,0.0,8.10616111755,0.0,0.0,-0.08,0.0
1521997582.26149392,9746864,2.05,5.76,5.51,0.0160504374653,-0.0187679491937,0.45138373971,0.0,0.0,0.0,8.13464355469,0.0,0.0,-0.08,0.0
1521997582.30231786,9787688,2.04,5.75,5.68,0.00955873075873,-0.0187608189881,0.450826883316,0.0,0.0,0.0,8.16080093384,0.0,0.0,-0.08,0.0
1521997582.34126282,9826633,2.02,5.76,5.84,0.0103801740333,-0.016883764416,0.450953185558,0.0,0.0,0.0,8.18479347229,0.01,0.0,-0.09,0.0
1521997582.38209891,9867469,2.04,5.78,5.98,0.035396873951,-0.0100261783227,0.456892192364,0.0,0.0,0.0,8.20706176758,0.01,0.0,-0.09,0.0
1521997582.42196679,9907337,2.07,5.75,6.11,0.0319536961615,-0.0129504315555,0.451180160046,0.0,0.0,0.0,8.22386837006,0.01,0.0,-0.1,0.0
1521997582.46141291,9946783,2.03,5.72,6.25,0.0108169093728,-0.0128763988614,0.455158978701,0.0,0.0,0.0,8.23937034607,0.01,0.0,-0.1,0.0
1521997582.50236773,9987738,2.02,5.75,6.38,0.0110326688737,-0.00928693730384,0.448875635862,0.0,0.0,0.0,8.25320625305,0.01,0.0,-0.1,0.0
1521997582.54174590,10027116,2.04,5.74,6.49,0.0224083531648,-0.00707489438355,0.453799188137,0.0,0.0,0.0,8.26549625397,0.01,0.0,-0.11,0.0
1521997582.58163977,10067010,2.08,5.72,6.6,0.0230010785162,-0.0048262597993,0.449940562248,0.0,0.0,0.0,8.27717971802,0.01,0.0,-0.1,0.0
1521997582.62210679,10107477,2.06,5.75,6.7,0.0209366716444,-0.000929718255065,0.454397886992,0.0,0.0,0.0,8.28646469116,0.01,0.0,-0.11,0.0
1521997582.66107392,10146444,2.09,5.72,6.8,0.0214502830058,-0.00410447316244,0.4446593225,0.0,0.0,0.0,8.29528713226,0.01,0.0,-0.11,0.0
1521997582.70208979,10187460,2.12,5.72,6.89,0.0161181241274,-0.00357815530151,0.443355172873,0.0,0.0,0.0,8.30442523956,0.01,0.0,-0.11,0.0
1521997582.74122691,10226597,2.09,5.71,6.98,0.0132739227265,-0.00291864946485,0.441849261522,0.0,0.0,0.0,8.31399345398,0.01,0.0,-0.12,0.0
1521997582.78169680,10267067,2.06,5.73,7.08,0.0137725556269,-0.0036584243644,0.44189363718,0.0,0.0,0.0,8.3237285614,0.01,0.0,-0.12,0.0
1521997582.82177973,10307150,2.06,5.73,7.16,0.0195727515966,0.00603733072057,0.446547657251,0.0,0.0,0.0,8.33560276031,0.01,0.0,-0.13,0.0
1521997582.86136889,10346739,2.11,5.72,7.23,0.0220984462649,0.00462982384488,0.450413435698,0.0,0.0,0.0,8.34804344177,0.01,0.0,-0.13,0.0
1521997582.90221095,10387581,2.16,5.69,7.31,0.0197217948735,0.00338410330005,0.448764204979,0.0,0.0,0.0,8.36011695862,0.01,0.0,-0.13,0.0
1521997582.94131780,10426688,2.08,5.73,7.4,0.0224897637963,0.00441821338609,0.45446112752,0.0,0.0,0.0,8.37340164185,0.01,0.0,-0.14,0.0
1521997582.98173881,10467109,2.05,5.71,7.5,0.0208315644413,0.00410049781203,0.453968405724,0.0,0.0,0.0,8.38664150238,0.01,0.0,-0.14,0.0
1521997583.02256775,10507938,2.07,5.74,7.57,0.0244933255017,0.0137053895742,0.45648881793,0.0,0.0,0.0,8.40121269226,0.01,0.0,-0.15,0.0
1521997583.06139183,10546762,2.11,5.72,7.64,0.025065343827,0.00452949944884,0.461895436049,0.0,0.0,0.0,8.41615486145,0.01,0.0,-0.15,0.0
1521997583.10216594,10587536,2.03,5.76,7.74,0.0252243988216,0.0140152405947,0.463394969702,0.0,0.0,0.0,8.43088245392,0.01,0.0,-0.15,0.0
1521997583.14168382,10627054,2.04,5.72,7.8,0.0191980674863,0.0100315334275,0.471252948046,0.0,0.0,0.0,8.44658756256,0.01,0.0,-0.16,0.0
1521997583.18224978,10667620,2.19,5.82,7.86,0.0321237966418,0.0220362823457,0.469675689936,0.0,0.0,0.0,8.46209716797,0.01,0.0,-0.16,0.0
1521997583.22212672,10707497,2.19,5.7,7.92,0.0327503606677,0.0143143814057,0.478064328432,0.0,0.0,0.0,8.47605514526,0.01,0.0,-0.17,0.0
1521997583.26126790,10746638,2.1,5.71,8.0,0.0112738003954,0.00882896967232,0.470245659351,0.0,0.0,0.0,8.49011802673,0.01,0.0,-0.17,0.0
1521997583.30251384,10787884,2.09,5.74,8.1,-0.00159899273422,0.0121646719053,0.467219382524,0.0,0.0,0.0,8.50205898285,0.01,0.0,-0.17,0.0
1521997583.34141994,10826790,2.15,5.76,8.16,0.00736167607829,0.0203819740564,0.481011658907,0.0,0.0,0.0,8.51404190063,0.01,0.0,-0.18,0.0
1521997583.38200879,10867379,2.2,5.76,8.21,0.031561370939,0.0185473896563,0.477391213179,0.0,0.0,0.0,8.52600193024,0.01,0.0,-0.18,0.0
1521997583.42228484,10907655,2.19,5.74,8.28,0.029422769323,0.0203866511583,0.488096833229,0.0,0.0,0.0,8.53976917267,0.02,0.0,-0.19,0.0
1521997583.46141982,10946790,2.16,5.72,8.35,0.0219947677106,0.0174562595785,0.482780247927,0.0,0.0,0.0,8.55274868011,0.02,0.0,-0.19,0.0
1521997583.50255084,10987921,2.19,5.73,8.41,0.0221990719438,0.0240440890193,0.485521793365,0.0,0.0,0.0,8.56458759308,0.02,0.0,-0.19,0.0
1521997583.54146981,11026840,2.25,5.71,8.46,0.0294047463685,0.0227615274489,0.488280177116,0.0,0.0,0.0,8.57699966431,0.02,0.0,-0.2,0.0
1521997583.58194280,11067313,2.22,5.71,8.52,0.0288321375847,0.0231029037386,0.487217158079,0.0,0.0,0.0,8.58840370178,0.02,0.0,-0.2,0.0
1521997583.62205386,11107424,2.19,5.72,8.59,0.0266519151628,0.0230781491846,0.484462678432,0.0,0.0,0.0,8.59578704834,0.02,0.0,-0.22,0.0
1521997583.66107488,11146445,2.29,5.72,8.63,0.0374173596501,0.0379895754158,0.485506564379,0.0,0.0,0.0,8.60411834717,0.02,0.0,-0.22,0.0
1521997583.70204186,11187412,2.37,5.71,8.64,0.0332463048398,0.0212723650038,0.477015554905,0.0,0.0,0.0,8.61048316956,0.02,0.0,-0.22,0.0
1521997583.74132681,11226697,2.25,5.71,8.73,0.0237748902291,0.025370888412,0.480086117983,0.0,0.0,0.0,8.6155538559,0.02,0.0,-0.23,0.0
1521997583.78170085,11267071,2.17,5.73,8.85,0.029125098139,0.0263880398124,0.476416319609,0.0,0.0,0.0,8.6213092804,0.02,0.0,-0.23,0.0
1521997583.82231784,11307688,2.27,5.72,8.89,0.0319892205298,0.0351517423987,0.472475528717,0.0,0.0,0.0,8.62464237213,0.02,0.0,-0.24,0.0
1521997583.86121988,11346590,2.35,5.71,8.92,0.0348205752671,0.0329443514347,0.471320152283,0.0,0.0,0.0,8.62967681885,0.02,0.0,-0.24,0.0
1521997583.90233278,11387703,2.29,5.71,9.0,0.0322828069329,0.0288717579097,0.468209058046,0.0,0.0,0.0,8.63146018982,0.02,0.0,-0.24,0.0
1521997583.94137573,11426746,2.23,5.71,9.09,0.0345654003322,0.0348697192967,0.46459788084,0.0,0.0,0.0,8.63230800629,0.02,0.0,-0.25,0.0
1521997583.98173094,11467101,2.29,5.71,9.14,0.045324165374,0.0321888849139,0.459371626377,0.0,0.0,0.0,8.63369369507,0.02,0.0,-0.25,0.0
1521997584.02253079,11507901,2.34,5.67,9.2,0.0346738211811,0.0391652025282,0.453913211823,0.0,0.0,0.0,8.63664054871,0.03,0.0,-0.26,0.0
1521997584.06148291,11546853,2.28,5.68,9.26,0.0282410755754,0.0333188474178,0.448309063911,0.0,0.0,0.0,8.63976764679,0.03,0.0,-0.26,0.0
1521997584.10224581,11587616,2.27,5.7,9.34,0.0272475369275,0.0329681932926,0.441136598587,0.0,0.0,0.0,8.64274120331,0.03,0.0,-0.26,0.0
1521997584.14160776,11626978,2.28,5.72,9.4,0.0339004062116,0.0427559986711,0.444521188736,0.0,0.0,0.0,8.64409351349,0.03,0.0,-0.27,0.0
1521997584.18203187,11667402,2.29,5.71,9.45,0.043158698827,0.0359406173229,0.437554091215,0.0,0.0,0.0,8.64681434631,0.03,0.0,-0.27,0.0
1521997584.22210288,11707473,2.3,5.71,9.5,0.0379846207798,0.0430700182915,0.436340302229,0.0,0.0,0.0,8.64770889282,0.03,-0.01,-0.28,0.0
1521997584.26122189,11746592,2.31,5.7,9.55,0.031944103539,0.038701929152,0.429872632027,0.0,0.0,0.0,8.6494808197,0.03,-0.01,-0.28,0.0
1521997584.30226088,11787631,2.36,5.7,9.58,0.0372866727412,0.0444697327912,0.432194471359,0.0,0.0,0.0,8.6509552002,0.03,-0.01,-0.28,0.0
1521997584.34144187,11826812,2.32,5.7,9.64,0.0394932664931,0.0399665720761,0.422195225954,0.0,0.0,0.0,8.65139198303,0.03,-0.01,-0.29,0.0
1521997584.38175678,11867127,2.25,5.68,9.71,0.0246370770037,0.0364943966269,0.420339733362,0.0,0.0,0.0,8.65264415741,0.03,-0.01,-0.29,0.0
1521997584.42218280,11907553,2.31,5.7,9.76,0.0305419638753,0.0468786135316,0.409360289574,0.0,0.0,0.0,8.65079784393,0.03,-0.01,-0.29,0.0
1521997584.46143293,11946803,2.39,5.71,9.78,0.0445108227432,0.0399325676262,0.413209348917,0.0,0.0,0.0,8.6503200531,0.03,-0.01,-0.29,0.0
1521997584.50216389,11987534,2.3,5.7,9.83,0.0505102612078,0.0528044588864,0.406894266605,0.0,0.0,0.0,8.64759159088,0.04,-0.01,-0.29,0.0
1521997584.54161096,12026981,2.28,5.69,9.89,0.0417378135026,0.0452237911522,0.396368324757,0.0,0.0,0.0,8.64281845093,0.04,-0.01,-0.3,0.0
1521997584.58196187,12067332,2.36,5.63,9.91,0.0327295362949,0.0401010550559,0.400954604149,0.0,0.0,0.0,8.63949203491,0.04,-0.01,-0.3,0.0
1521997584.62176895,12107139,2.27,5.6,9.97,0.0457265377045,0.0516266673803,0.370736449957,0.0,0.0,0.0,8.63262557983,0.04,-0.01,-0.31,0.0
1521997584.66146874,12146839,2.22,5.69,10.01,0.0444801598787,0.0468301549554,0.38293492794,0.0,0.0,0.0,8.62760639191,0.04,-0.01,-0.31,0.0
1521997584.70208788,12187458,2.32,5.65,10.05,0.0356446318328,0.0454494133592,0.364661425352,0.0,0.0,0.0,8.62127494812,0.04,-0.02,-0.31,0.0
1521997584.74118590,12226556,2.32,5.66,10.09,0.0215898528695,0.0479650497437,0.355865478516,0.0,0.0,0.0,8.61385440826,0.04,-0.02,-0.32,0.0
1521997584.78213382,12267504,2.28,5.67,10.14,0.0185999143869,0.041074257344,0.344875693321,0.0,0.0,0.0,8.60782241821,0.04,-0.02,-0.32,0.0
1521997584.82195187,12307322,2.29,5.72,10.19,0.0322030596435,0.052615839988,0.344951689243,0.0,0.0,0.0,8.59303855896,0.05,-0.02,-0.32,0.0
1521997584.86133790,12346708,2.33,5.72,10.22,0.0540680922568,0.0542628131807,0.327422231436,0.0,0.0,0.0,8.5806646347,0.05,-0.02,-0.32,0.0
1521997584.90220785,12387578,2.32,5.72,10.24,0.0436405166984,0.0500540025532,0.319866001606,0.0,0.0,0.0,8.56715106964,0.05,-0.02,-0.32,0.0
1521997584.94142795,12426798,2.31,5.72,10.29,0.0309354364872,0.0520684011281,0.305940330029,0.0,0.0,0.0,8.55294895172,0.05,-0.02,-0.33,0.0
1521997584.98194480,12467315,2.29,5.74,10.32,0.0370815321803,0.0502263121307,0.298160731792,0.0,0.0,0.0,8.54023361206,0.05,-0.02,-0.33,0.0
1521997585.02253675,12507907,2.34,5.73,10.36,0.0410800352693,0.0558778978884,0.288267493248,0.0,0.0,0.0,8.5213060379,0.05,-0.03,-0.34,0.0
1521997585.06153679,12546907,2.32,5.72,10.39,0.0354116968811,0.050771817565,0.274330109358,0.0,0.0,0.0,8.50488948822,0.05,-0.03,-0.34,0.0
1521997585.10235095,12587721,2.3,5.73,10.44,0.030221927911,0.052816465497,0.265240132809,0.0,0.0,0.0,8.48750686646,0.05,-0.03,-0.34,0.0
1521997585.14158392,12626954,2.31,5.72,10.47,0.0359605588019,0.0531865432858,0.253410875797,0.0,0.0,0.0,8.46997642517,0.06,-0.03,-0.35,0.0
1521997585.18185973,12667230,2.33,5.71,10.5,0.0339745655656,0.0546986758709,0.244747281075,0.0,0.0,0.0,8.45498561859,0.06,-0.03,-0.35,0.0
1521997585.22197485,12707345,2.32,5.71,10.54,0.0310611799359,0.0516055449843,0.2307728827,0.0,0.0,0.0,8.4357585907,0.06,-0.03,-0.35,0.0
1521997585.26163292,12747003,2.3,5.72,10.57,0.0337834581733,0.0537662729621,0.221425384283,0.0,0.0,0.0,8.41913127899,0.06,-0.03,-0.35,0.0
1521997585.30232787,12787698,2.31,5.71,10.6,0.0348482653499,0.0533868297935,0.211389183998,0.0,0.0,0.0,8.40250587463,0.06,-0.03,-0.35,0.0
1521997585.34138775,12826758,2.32,5.71,10.62,0.031716350466,0.0538493767381,0.199925884604,0.0,0.0,0.0,8.38633155823,0.06,-0.03,-0.35,0.0
1521997585.38166976,12867040,2.31,5.72,10.66,0.0333424843848,0.0522321090102,0.1923212111,0.0,0.0,0.0,8.37238788605,0.06,-0.03,-0.35,0.0
1521997585.42221594,12907586,2.3,5.72,10.69,0.0349339619279,0.0539765134454,0.182746872306,0.0,0.0,0.0,8.35530757904,0.06,-0.04,-0.35,0.0
1521997585.46176386,12947134,2.32,5.74,10.71,0.0357588790357,0.0543726272881,0.174408793449,0.0,0.0,0.0,8.34074783325,0.06,-0.04,-0.35,0.0
1521997585.50233483,12987705,2.33,5.72,10.73,0.031531881541,0.0515007376671,0.159916460514,0.0,0.0,0.0,8.32455253601,0.07,-0.04,-0.35,0.0
1521997585.54132485,13026695,2.27,5.75,10.76,0.0315423980355,0.0516114979982,0.154509305954,0.0,0.0,0.0,8.30820655823,0.07,-0.04,-0.36,0.0
1521997585.58157277,13066943,2.29,5.73,10.79,0.0361401624978,0.0524950437248,0.146720156074,0.0,0.0,0.0,8.29353046417,0.07,-0.04,-0.36,0.0
1521997585.62225795,13107628,2.32,5.73,10.8,0.0325701497495,0.0534046515822,0.135588154197,0.0,0.0,0.0,8.2781791687,0.07,-0.04,-0.36,0.0
1521997585.66125679,13146627,2.29,5.74,10.83,0.0308661106974,0.0502768680453,0.13167835772,0.0,0.0,0.0,8.26466369629,0.07,-0.04,-0.36,0.0
1521997585.70224786,13187618,2.25,5.76,10.87,0.034006562084,0.0510309524834,0.123746432364,0.0,0.0,0.0,8.25192642212,0.07,-0.04,-0.36,0.0
1521997585.74153495,13226905,2.23,5.74,10.89,0.0354528687894,0.0505602993071,0.116895347834,0.0,0.0,0.0,8.24018573761,0.07,-0.04,-0.37,0.0
1521997585.78163791,13267008,2.26,5.75,10.91,0.0333157368004,0.0526752695441,0.112873375416,0.0,0.0,0.0,8.22974205017,0.07,-0.04,-0.37,0.0
1521997585.82197690,13307347,2.24,5.75,10.94,0.0321000292897,0.0481149666011,0.101306378841,0.0,0.0,0.0,8.21371173859,0.08,-0.05,-0.38,0.0
1521997585.86131096,13346681,2.18,5.77,10.98,0.0316566340625,0.0498982816935,0.0947252959013,0.0,0.0,0.0,8.19954109192,0.08,-0.05,-0.38,0.0
1521997585.90249276,13387863,2.17,5.76,11.02,0.0254665445536,0.0473125390708,0.0796688497066,0.0,0.0,0.0,8.18447208405,0.08,-0.05,-0.38,0.0
1521997585.94141078,13426781,2.18,5.77,11.03,0.0339034199715,0.0485864654183,0.0741247907281,0.0,0.0,0.0,8.16852760315,0.08,-0.05,-0.38,0.0
1521997585.98164988,13467020,2.14,5.77,11.08,0.0305999647826,0.0488375462592,0.0678842440248,0.0,0.0,0.0,8.15454864502,0.08,-0.05,-0.38,0.0
1521997586.02240872,13507779,2.1,5.78,11.11,0.0262133479118,0.0485569536686,0.0521411523223,0.0,0.0,0.0,8.13782501221,0.09,-0.05,-0.39,0.0
1521997586.06156492,13546935,2.17,5.77,11.13,0.0258906353265,0.0477070845664,0.047601480037,0.0,0.0,0.0,8.12273979187,0.09,-0.05,-0.39,0.0
1521997586.10212684,13587497,2.18,5.78,11.16,0.0298941340297,0.0513256080449,0.0411244742572,0.0,0.0,0.0,8.10792541504,0.09,-0.05,-0.39,0.0
1521997586.14143586,13626806,2.17,5.77,11.18,0.0291744675487,0.0461768247187,0.0323990322649,0.0,0.0,0.0,8.09328746796,0.09,-0.05,-0.4,0.0
1521997586.18209195,13667462,2.17,5.78,11.23,0.0230430923402,0.044215478003,0.0244983844459,0.0,0.0,0.0,8.08007049561,0.09,-0.05,-0.4,0.0
1521997586.22237086,13707741,2.11,5.79,11.27,0.0207339525223,0.0490350835025,0.0203014221042,0.0,0.0,0.0,8.06699562073,0.09,-0.06,-0.41,0.0
1521997586.26122594,13746596,2.18,5.76,11.29,0.0300638861954,0.0405122749507,0.0140582146123,0.0,0.0,0.0,8.05515003204,0.09,-0.06,-0.41,0.0
1521997586.30249286,13787863,2.17,5.75,11.33,0.0229040049016,0.0470514371991,0.00722504407167,0.0,0.0,0.0,8.04389095306,0.1,-0.06,-0.41,0.0
1521997586.34131980,13826690,2.12,5.76,11.37,0.0155152603984,0.0412332341075,0.00190024066251,0.0,0.0,0.0,8.0332365036,0.1,-0.06,-0.42,0.0
1521997586.38166881,13867039,2.17,5.77,11.41,0.0198046416044,0.0411857105792,-0.00611876975745,0.0,0.0,0.0,8.02345466614,0.1,-0.06,-0.42,0.0
1521997586.42179680,13907167,2.16,5.77,11.43,0.0223876740783,0.0431868880987,-0.00790544971824,0.0,0.0,0.0,8.01352405548,0.1,-0.06,-0.43,0.0
1521997586.46124077,13946611,2.13,5.77,11.48,0.01856270805,0.0388200357556,-0.0120456470177,0.0,0.0,0.0,8.00455188751,0.1,-0.06,-0.43,0.0
1521997586.50245380,13987824,2.16,5.78,11.52,0.0181730464101,0.0407995991409,-0.0209114030004,0.0,0.0,0.0,7.99476194382,0.1,-0.06,-0.43,0.0
1521997586.54182482,14027195,2.17,5.78,11.55,0.0172185804695,0.0379851236939,-0.0218499358743,0.0,0.0,0.0,7.98441457748,0.1,-0.06,-0.43,0.0
1521997586.58170390,14067074,2.14,5.79,11.6,0.0203606337309,0.0365972109139,-0.0286966208369,0.0,0.0,0.0,7.97498655319,0.1,-0.06,-0.43,0.0
1521997586.62206483,14107435,2.1,5.79,11.63,0.0197657998651,0.0367135182023,-0.0295989997685,0.0,0.0,0.0,7.96711540222,0.1,-0.07,-0.43,0.0
1521997586.66153884,14146909,2.12,5.78,11.67,0.0191162340343,0.0348435938358,-0.0343041680753,0.0,0.0,0.0,7.95985174179,0.1,-0.07,-0.43,0.0
1521997586.70210075,14187471,2.11,5.8,11.7,0.0130669530481,0.0356826335192,-0.0403502397239,0.0,0.0,0.0,7.95172786713,0.11,-0.07,-0.43,0.0
1521997586.74161077,14226981,2.13,5.79,11.73,0.0138222053647,0.033991061151,-0.042046315968,0.0,0.0,0.0,7.94289779663,0.11,-0.07,-0.44,0.0
1521997586.78166485,14267035,2.17,5.81,11.75,0.0133993905038,0.0342980585992,-0.0472902543843,0.0,0.0,0.0,7.93478775024,0.11,-0.07,-0.44,0.0
1521997586.82196975,14307340,2.16,5.81,11.78,0.015838464722,0.0313014611602,-0.0505832359195,0.0,0.0,0.0,7.92884635925,0.11,-0.07,-0.45,0.0
1521997586.86122274,14346593,2.13,5.82,11.82,0.0151625508443,0.0321472510695,-0.0512746237218,0.0,0.0,0.0,7.92331361771,0.11,-0.07,-0.45,0.0
1521997586.90223575,14387606,2.14,5.82,11.85,0.0176232382655,0.0297649428248,-0.0548013374209,0.0,0.0,0.0,7.91690587997,0.11,-0.07,-0.45,0.0
1521997586.94130874,14426679,2.11,5.83,11.88,0.0138859665021,0.030962696299,-0.0570712946355,0.0,0.0,0.0,7.90980958939,0.11,-0.07,-0.45,0.0
1521997586.98194981,14467320,2.11,5.84,11.92,0.01399591472,0.0304820332676,-0.060942016542,0.0,0.0,0.0,7.90324544907,0.11,-0.07,-0.45,0.0
1521997587.02255774,14507928,2.15,5.85,11.94,0.0288291499019,0.0336434878409,-0.0567363649607,0.0,0.0,0.0,7.89855623245,0.12,-0.07,-0.46,0.0
1521997587.06166792,14547038,2.16,5.83,11.96,0.0254800505936,0.0318590626121,-0.0590536296368,0.0,0.0,0.0,7.8941950798,0.12,-0.07,-0.46,0.0
1521997587.10207391,14587444,2.09,5.83,12.0,0.0297184810042,0.026761520654,-0.0698724836111,0.0,0.0,0.0,7.89112949371,0.12,-0.07,-0.46,0.0
1521997587.14136291,14626733,2.08,5.8,12.04,0.0199019405991,0.0290818009526,-0.0668395385146,0.0,0.0,0.0,7.88919448853,0.12,-0.07,-0.46,0.0
1521997587.18191886,14667289,2.09,5.83,12.06,-0.000102136691567,0.0227728690952,-0.0743339434266,0.0,0.0,0.0,7.88719081879,0.12,-0.07,-0.46,0.0
1521997587.22207284,14707443,2.12,5.82,12.09,-0.0152593422681,0.0228555649519,-0.0871817320585,0.0,0.0,0.0,7.88417720795,0.12,-0.07,-0.45,0.0
1521997587.26142788,14746798,2.2,5.83,12.1,-0.0278392806649,0.0144732212648,-0.0965738892555,0.0,0.0,0.0,7.88079357147,0.12,-0.07,-0.45,0.0
1521997587.30220580,14787576,2.14,5.83,12.12,-0.00772164948285,0.0210413336754,-0.0726750567555,0.0,0.0,0.0,7.87808656693,0.12,-0.08,-0.45,0.0
1521997587.34155083,14826921,2.13,5.9,12.15,0.0302813854069,0.0293793454766,-0.0764428004622,0.0,0.0,0.0,7.87659311295,0.12,-0.08,-0.45,0.0
1521997587.38210583,14867476,2.2,5.81,12.15,0.0229285918176,0.0209473408759,-0.0742078498006,0.0,0.0,0.0,7.87467432022,0.12,-0.08,-0.45,0.0
1521997587.42192888,14907299,2.18,5.81,12.15,0.00147997960448,0.0226785410196,-0.0804794728756,0.0,0.0,0.0,7.87198495865,0.12,-0.08,-0.45,0.0
1521997587.46134186,14946712,2.14,5.83,12.18,-0.0004641074338,0.0149562545121,-0.0831013917923,0.0,0.0,0.0,7.86904239655,0.12,-0.08,-0.45,0.0
1521997587.50234485,14987715,2.15,5.85,12.2,0.0123678343371,0.0242163725197,-0.0822133719921,0.0,0.0,0.0,7.86657190323,0.12,-0.08,-0.45,0.0
1521997587.54170489,15027075,2.18,5.83,12.19,0.0137182613835,0.0184454564005,-0.0823977589607,0.0,0.0,0.0,7.86446762085,0.12,-0.08,-0.44,0.0
1521997587.58227682,15067647,2.17,5.83,12.21,0.00450311880559,0.0176388155669,-0.0875593349338,0.0,0.0,0.0,7.86212062836,0.12,-0.08,-0.44,0.0
1521997587.62193584,15107306,2.13,5.85,12.22,0.00526134716347,0.0167478229851,-0.0891473069787,0.0,0.0,0.0,7.858522892,0.12,-0.08,-0.44,0.0
1521997587.66128778,15146658,2.14,5.85,12.23,0.0111980475485,0.0186135601252,-0.088474355638,0.0,0.0,0.0,7.85490894318,0.12,-0.08,-0.44,0.0
1521997587.70233083,15187701,2.17,5.85,12.23,0.00797891058028,0.0169286448509,-0.0928056910634,0.0,0.0,0.0,7.85050535202,0.12,-0.08,-0.44,0.0
1521997587.74157977,15226950,2.15,5.85,12.23,0.00463255913928,0.0143550066277,-0.0957875400782,0.0,0.0,0.0,7.84531116486,0.12,-0.08,-0.44,0.0
1521997587.78208375,15267454,2.13,5.86,12.25,0.0086475033313,0.0155414566398,-0.0976509600878,0.0,0.0,0.0,7.84012460709,0.12,-0.08,-0.44,0.0
1521997587.82196784,15307338,2.14,5.85,12.25,0.00814667437226,0.0152136068791,-0.100177749991,0.0,0.0,0.0,7.83497667313,0.12,-0.08,-0.44,0.0
1521997587.86125588,15346626,2.16,5.85,12.25,0.00473922397941,0.0128857661039,-0.103370539844,0.0,0.0,0.0,7.8297700882,0.12,-0.08,-0.44,0.0
1521997587.90229082,15387661,2.14,5.86,12.26,0.0061101722531,0.0123967658728,-0.105514615774,0.0,0.0,0.0,7.82493925095,0.12,-0.08,-0.44,0.0
1521997587.94099283,15426363,2.12,5.86,12.27,0.00695218518376,0.0124033931643,-0.107251822948,0.0,0.0,0.0,7.8203458786,0.12,-0.08,-0.43,0.0
1521997587.98171282,15467083,2.14,5.86,12.27,0.00437402212992,0.0122012011707,-0.11061501503,0.0,0.0,0.0,7.81576776505,0.12,-0.08,-0.43,0.0
1521997588.02278376,15508154,2.15,5.86,12.27,0.00481057493016,0.0111275883391,-0.112326905131,0.0,0.0,0.0,7.81062507629,0.12,-0.08,-0.43,0.0
1521997588.06152081,15546891,2.13,5.86,12.28,0.0068586692214,0.0106280101463,-0.113320052624,0.0,0.0,0.0,7.80531406403,0.12,-0.08,-0.43,0.0
1521997588.10219288,15587563,2.12,5.86,12.28,0.00435788277537,0.0106196869165,-0.117081791162,0.0,0.0,0.0,7.79948806763,0.12,-0.08,-0.43,0.0
1521997588.14138293,15626753,2.14,5.86,12.28,0.00382363586687,0.00952658243477,-0.119954846799,0.0,0.0,0.0,7.79275798798,0.12,-0.08,-0.43,0.0
1521997588.18164372,15667014,2.14,5.86,12.29,0.00542226713151,0.00913195312023,-0.121740207076,0.0,0.0,0.0,7.78641176224,0.12,-0.08,-0.43,0.0
1521997588.22197676,15707347,2.12,5.86,12.3,0.00479958066717,0.00821378547698,-0.124768249691,0.0,0.0,0.0,7.77843332291,0.12,-0.08,-0.43,0.0
1521997588.26142693,15746797,2.13,5.87,12.31,0.00301728211343,0.00841344334185,-0.128724783659,0.0,0.0,0.0,7.77055454254,0.12,-0.08,-0.43,0.0
1521997588.30229187,15787662,2.14,5.87,12.32,0.00426703086123,0.00792527571321,-0.131721809506,0.0,0.0,0.0,7.76234817505,0.13,-0.08,-0.43,0.0
1521997588.34147286,15826843,2.13,5.87,12.33,0.00442323507741,0.00679801870137,-0.134940728545,0.0,0.0,0.0,7.75390911102,0.13,-0.08,-0.43,0.0
1521997588.38200092,15867371,2.12,5.87,12.34,0.00318912626244,0.00672300718725,-0.138770386577,0.0,0.0,0.0,7.74557209015,0.13,-0.08,-0.43,0.0
1521997588.42192078,15907291,2.12,5.87,12.35,0.00369860581122,0.00682645197958,-0.140910610557,0.0,0.0,0.0,7.73810052872,0.13,-0.08,-0.43,0.0
1521997588.46116686,15946537,2.13,5.87,12.37,0.00384323834442,0.00604506209493,-0.14402872324,0.0,0.0,0.0,7.73073911667,0.13,-0.08,-0.43,0.0
1521997588.50212193,15987492,2.12,5.87,12.38,0.0031161531806,0.00508213788271,-0.145956918597,0.0,0.0,0.0,7.72508621216,0.13,-0.08,-0.43,0.0
1521997588.54154778,16026918,2.11,5.87,12.4,0.0034693647176,0.00487150531262,-0.147230163217,0.0,0.0,0.0,7.7212767601,0.13,-0.08,-0.43,0.0
1521997588.58217573,16067546,2.12,5.87,12.41,0.00423523178324,0.00517429504544,-0.148397579789,0.0,0.0,0.0,7.7168841362,0.13,-0.08,-0.43,0.0
1521997588.62226391,16107634,2.12,5.87,12.42,0.00328002963215,0.00391655554995,-0.149711981416,0.0,0.0,0.0,7.71218109131,0.13,-0.08,-0.43,0.0
1521997588.66151381,16146884,2.11,5.88,12.43,0.00343086360954,0.00395906949416,-0.151615172625,0.0,0.0,0.0,7.70727205276,0.13,-0.08,-0.43,0.0
1521997588.70226479,16187635,2.11,5.88,12.45,0.00351225910708,0.00389557261951,-0.153916746378,0.0,0.0,0.0,7.70075511932,0.13,-0.08,-0.43,0.0
1521997588.74138474,16226755,2.12,5.88,12.46,0.00283546955325,0.00373777048662,-0.156955838203,0.0,0.0,0.0,7.69287204742,0.13,-0.08,-0.43,0.0
1521997588.78177595,16267146,2.12,5.88,12.47,0.00320390681736,0.00338083319366,-0.159718066454,0.0,0.0,0.0,7.685110569,0.13,-0.08,-0.43,0.0
1521997588.82241774,16307788,2.11,5.88,12.49,0.00345687265508,0.00315365684219,-0.161199763417,0.0,0.0,0.0,7.67995929718,0.13,-0.08,-0.43,0.0
1521997588.86124492,16346615,2.11,5.88,12.5,0.00241097039543,0.00330940587446,-0.163447007537,0.0,0.0,0.0,7.67458152771,0.13,-0.08,-0.43,0.0
1521997588.90201187,16387382,2.12,5.88,12.51,0.00216409331188,0.00277944095433,-0.164838284254,0.0,0.0,0.0,7.66891241074,0.13,-0.08,-0.43,0.0
1521997588.94131279,16426683,2.11,5.88,12.52,0.00265652057715,0.00241771200672,-0.166768208146,0.0,0.0,0.0,7.66299343109,0.13,-0.08,-0.42,0.0
1521997588.98179579,16467166,2.1,5.88,12.53,0.00197976874188,0.002268407261,-0.168745115399,0.0,0.0,0.0,7.65692138672,0.13,-0.08,-0.42,0.0
1521997589.02254176,16507912,2.11,5.88,12.54,0.00180850527249,0.00237891101278,-0.170584470034,0.0,0.0,0.0,7.65104579926,0.13,-0.08,-0.41,0.0
1521997589.06138992,16546760,2.11,5.88,12.54,0.00250081648119,0.00205181282945,-0.172510966659,0.0,0.0,0.0,7.64500141144,0.13,-0.08,-0.41,0.0
1521997589.10192490,16587295,2.11,5.88,12.54,0.00252413004637,0.00140058936086,-0.174496501684,0.0,0.0,0.0,7.63820934296,0.13,-0.08,-0.41,0.0
1521997589.14123988,16626610,2.1,5.89,12.54,0.00213566119783,0.00130230968352,-0.17690770328,0.0,0.0,0.0,7.63078117371,0.12,-0.08,-0.4,0.0
1521997589.18161893,16666989,2.11,5.89,12.54,0.00231524161063,0.00139958201908,-0.179216563702,0.0,0.0,0.0,7.62331771851,0.12,-0.08,-0.4,0.0
1521997589.22241974,16707790,2.11,5.89,12.54,0.00221755960956,0.00115798856132,-0.180445119739,0.0,0.0,0.0,7.61862134933,0.12,-0.09,-0.4,0.0
1521997589.26145196,16746822,2.1,5.89,12.53,0.00227612163872,0.000612690462731,-0.181513726711,0.0,0.0,0.0,7.61357736588,0.12,-0.09,-0.4,0.0
1521997589.30246377,16787834,2.1,5.89,12.53,0.00186885753646,0.000539160217158,-0.183043628931,0.0,0.0,0.0,7.60902357101,0.12,-0.09,-0.4,0.0
1521997589.34126782,16826638,2.1,5.89,12.52,0.00171443377621,0.000493738567457,-0.183762699366,0.0,0.0,0.0,7.60485982895,0.12,-0.09,-0.4,0.0
1521997589.38164783,16867018,2.1,5.89,12.52,0.00150254473556,0.000105394457933,-0.184507220984,0.0,0.0,0.0,7.60028553009,0.12,-0.09,-0.4,0.0
1521997589.42238474,16907755,2.09,5.89,12.51,0.00148460653145,-0.000172477215528,-0.186370760202,0.0,0.0,0.0,7.5937666893,0.12,-0.09,-0.4,0.0
1521997589.46131873,16946689,2.09,5.89,12.51,0.00124266452622,-0.000301370833768,-0.188635140657,0.0,0.0,0.0,7.58708238602,0.12,-0.09,-0.4,0.0
1521997589.50217175,16987542,2.1,5.89,12.51,0.000858713116031,-0.000418223935412,-0.190021365881,0.0,0.0,0.0,7.58122587204,0.12,-0.09,-0.4,0.0
1521997589.54137373,17026744,2.09,5.89,12.51,0.0012196105672,-0.000754421111196,-0.191258087754,0.0,0.0,0.0,7.57604169846,0.12,-0.09,-0.4,0.0
1521997589.58173180,17067102,2.09,5.89,12.52,0.000896894256584,-0.000802276248578,-0.19300557673,0.0,0.0,0.0,7.57050943375,0.12,-0.09,-0.4,0.0
1521997589.62246275,17107833,2.09,5.89,12.52,0.000989760272205,-0.000682319223415,-0.193826004863,0.0,0.0,0.0,7.56509542465,0.13,-0.09,-0.4,0.0
1521997589.66145992,17146830,2.09,5.89,12.52,0.00108500674833,-0.00066748377867,-0.194886192679,0.0,0.0,0.0,7.55936717987,0.13,-0.09,-0.4,0.0
1521997589.70240474,17187775,2.09,5.89,12.53,0.00099296704866,-0.00127755966969,-0.196114525199,0.0,0.0,0.0,7.55503416061,0.13,-0.09,-0.4,0.0
1521997589.74138474,17226755,2.09,5.9,12.54,0.000799997185823,-0.00143899850082,-0.196308121085,0.0,0.0,0.0,7.5518283844,0.12,-0.09,-0.39,0.0
1521997589.78169680,17267067,2.09,5.9,12.55,0.00118569668848,-0.00159690901637,-0.197028085589,0.0,0.0,0.0,7.54804468155,0.12,-0.09,-0.39,0.0
1521997589.82181478,17307185,2.09,5.9,12.56,0.00144972035196,-0.00213062344119,-0.196518197656,0.0,0.0,0.0,7.54626846313,0.12,-0.09,-0.39,0.0
1521997589.86154580,17346916,2.08,5.9,12.56,0.00178923795465,-0.0025351732038,-0.196518674493,0.0,0.0,0.0,7.54412698746,0.12,-0.09,-0.39,0.0
1521997589.90239978,17387770,2.08,5.9,12.57,0.00172749254853,-0.00259501370601,-0.196459025145,0.0,0.0,0.0,7.54194927216,0.12,-0.09,-0.39,0.0
1521997589.94140482,17426775,2.09,5.9,12.57,0.00194790377282,-0.00291099445894,-0.196028664708,0.0,0.0,0.0,7.54023647308,0.12,-0.09,-0.38,0.0
1521997589.98170686,17467077,2.09,5.9,12.58,0.00193900323939,-0.00331140193157,-0.196033135056,0.0,0.0,0.0,7.53798913956,0.12,-0.09,-0.39,0.0
1521997590.02243376,17507804,2.08,5.9,12.58,0.00188491959125,-0.00369454966858,-0.195462495089,0.0,0.0,0.0,7.53736400604,0.12,-0.09,-0.39,0.0
1521997590.06152177,17546892,2.08,5.9,12.59,0.00226936815307,-0.00404335325584,-0.195126190782,0.0,0.0,0.0,7.53625631332,0.12,-0.09,-0.39,0.0
1521997590.10213494,17587505,2.08,5.9,12.59,0.00226690480486,-0.00441899616271,-0.194929808378,0.0,0.0,0.0,7.53545618057,0.12,-0.09,-0.39,0.0
1521997590.14129376,17626664,2.08,5.9,12.6,0.00249063037336,-0.00477742450312,-0.193854629993,0.0,0.0,0.0,7.53556585312,0.12,-0.09,-0.38,0.0
1521997590.18180275,17667173,2.08,5.9,12.6,0.00196637981571,-0.0047961762175,-0.19331112504,0.0,0.0,0.0,7.53439760208,0.12,-0.09,-0.38,0.0
1521997590.22195888,17707329,2.08,5.91,12.61,0.00179340492468,-0.00495199719444,-0.192456826568,0.0,0.0,0.0,7.53506088257,0.12,-0.09,-0.38,0.0
1521997590.26145291,17746823,2.08,5.91,12.62,0.00152520870324,-0.00554836215451,-0.191783949733,0.0,0.0,0.0,7.53456926346,0.12,-0.09,-0.38,0.0
1521997590.30253077,17787901,2.08,5.91,12.62,0.00138367025647,-0.00614925799891,-0.191546157002,0.0,0.0,0.0,7.53334379196,0.12,-0.09,-0.38,0.0
1521997590.34134078,17826711,2.07,5.91,12.63,0.001518362551,-0.00645167194307,-0.191393569112,0.0,0.0,0.0,7.53129482269,0.12,-0.09,-0.38,0.0
1521997590.38186574,17867236,2.07,5.91,12.63,0.00122315855697,-0.00675668055192,-0.191248491406,0.0,0.0,0.0,7.52892017365,0.12,-0.09,-0.38,0.0
1521997590.42200875,17907379,2.08,5.91,12.64,0.00156635837629,-0.00705815944821,-0.190893083811,0.0,0.0,0.0,7.52604722977,0.12,-0.09,-0.38,0.0
1521997590.46144986,17946820,2.07,5.91,12.65,0.00151236751117,-0.00695518683642,-0.19156524539,0.0,0.0,0.0,7.52293682098,0.12,-0.09,-0.38,0.0
1521997590.50214076,17987511,2.07,5.91,12.65,0.00156059348956,-0.00705714477226,-0.191914722323,0.0,0.0,0.0,7.51982784271,0.12,-0.09,-0.38,0.0
1521997590.54146695,18026837,2.07,5.91,12.66,0.00124865572434,-0.00727601954713,-0.191849380732,0.0,0.0,0.0,7.51704502106,0.12,-0.09,-0.38,0.0
1521997590.58187675,18067247,2.07,5.91,12.66,0.00172341591679,-0.00758399954066,-0.192350968719,0.0,0.0,0.0,7.5134563446,0.12,-0.09,-0.38,0.0
1521997590.62186289,18107233,2.07,5.91,12.67,0.00163609057199,-0.00796633027494,-0.192365929484,0.0,0.0,0.0,7.51125717163,0.12,-0.09,-0.38,0.0
1521997590.66152692,18146897,2.07,5.91,12.68,0.00120388751384,-0.00828290358186,-0.192723765969,0.0,0.0,0.0,7.50870037079,0.12,-0.09,-0.38,0.0
1521997590.70249891,18187869,2.07,5.91,12.68,0.00120458239689,-0.00878868997097,-0.19341288507,0.0,0.0,0.0,7.50539970398,0.12,-0.09,-0.38,0.0
1521997590.74125385,18226624,2.07,5.91,12.69,0.000888433423825,-0.00915724691004,-0.194221943617,0.0,0.0,0.0,7.50195407867,0.12,-0.09,-0.37,0.0
1521997590.78167391,18267044,2.06,5.91,12.69,0.000942380342167,-0.00930177047849,-0.19456474483,0.0,0.0,0.0,7.49811553955,0.12,-0.09,-0.37,0.0
1521997590.82204580,18307416,2.06,5.91,12.7,0.000760992232244,-0.00927919335663,-0.19499604404,0.0,0.0,0.0,7.49398756027,0.12,-0.09,-0.37,0.0
1521997590.86134481,18346715,2.06,5.91,12.71,0.000630487746093,-0.00961238145828,-0.196234881878,0.0,0.0,0.0,7.48934984207,0.12,-0.09,-0.37,0.0
1521997590.90207195,18387442,2.06,5.91,12.71,0.0006349546602,-0.0099955284968,-0.196730256081,0.0,0.0,0.0,7.48526000977,0.12,-0.09,-0.37,0.0
1521997590.94153881,18426909,2.06,5.91,12.72,0.000607025169302,-0.0100090606138,-0.197378322482,0.0,0.0,0.0,7.48105430603,0.12,-0.09,-0.37,0.0
1521997590.98195696,18467327,2.06,5.92,12.72,0.000735360430554,-0.0105870394036,-0.198225438595,0.0,0.0,0.0,7.47669696808,0.12,-0.09,-0.37,0.0
1521997591.02261496,18507985,2.06,5.92,12.72,0.00102939386852,-0.0112942382693,-0.198199853301,0.0,0.0,0.0,7.47433757782,0.12,-0.09,-0.36,0.0
1521997591.06143689,18546807,2.06,5.92,12.73,0.000813644030131,-0.0114663951099,-0.198471322656,0.0,0.0,0.0,7.47141361237,0.12,-0.09,-0.36,0.0
1521997591.10207772,18587448,2.05,5.92,12.73,0.000506229698658,-0.0118422405794,-0.197895720601,0.0,0.0,0.0,7.46933317184,0.12,-0.09,-0.36,0.0
1521997591.14117789,18626548,2.06,5.92,12.73,0.000709512911271,-0.0120555227622,-0.197416394949,0.0,0.0,0.0,7.46791934967,0.12,-0.09,-0.36,0.0
1521997591.18187284,18667243,2.06,5.92,12.74,0.000744920456782,-0.0126093151048,-0.197262451053,0.0,0.0,0.0,7.46568441391,0.12,-0.09,-0.36,0.0
1521997591.22197580,18707346,2.05,5.92,12.74,0.000670643465128,-0.0128424139693,-0.196182176471,0.0,0.0,0.0,7.46542310715,0.12,-0.09,-0.36,0.0
1521997591.26146293,18746833,2.05,5.92,12.74,0.000450968858786,-0.0130555927753,-0.19590356946,0.0,0.0,0.0,7.46385526657,0.12,-0.09,-0.36,0.0
1521997591.30244589,18787816,2.06,5.92,12.75,0.000788751698565,-0.0136616080999,-0.194511502981,0.0,0.0,0.0,7.46391820908,0.12,-0.09,-0.36,0.0
1521997591.34136486,18826735,2.05,5.92,12.75,0.000979037489742,-0.014094080776,-0.192702278495,0.0,0.0,0.0,7.46513557434,0.12,-0.09,-0.36,0.0
1521997591.38178682,18867157,2.05,5.92,12.76,0.00102088181302,-0.0143666965887,-0.191814050078,0.0,0.0,0.0,7.46526145935,0.12,-0.09,-0.36,0.0
1521997591.42230272,18907673,2.06,5.92,12.76,0.00103902071714,-0.0145951043814,-0.190700918436,0.0,0.0,0.0,7.46716833115,0.12,-0.09,-0.36,1815.02
1521997591.46129990,18946670,2.05,5.92,12.77,0.00092006882187,-0.015072635375,-0.189082607627,0.0,0.0,0.0,7.46774625778,0.12,-0.09,-0.36,1815.02
1521997591.50221777,18987588,2.05,5.92,12.77,0.000831906625535,-0.01516886428,-0.187918514013,0.0,0.0,0.0,7.46858119965,0.12,-0.09,-0.36,1815.02
1521997591.54147077,19026841,2.05,5.92,12.78,0.000992134679109,-0.0152687439695,-0.18677534163,0.0,0.0,0.0,7.4695763588,0.12,-0.09,-0.36,1815.02
1521997591.58170176,19067072,2.05,5.92,12.79,0.000852255092468,-0.0156691353768,-0.185514509678,0.0,0.0111318845302,-0.0170944221318,7.46953868866,0.12,-0.09,-0.36,1815.02
1521997591.62201977,19107390,2.05,5.92,12.8,0.000619469385128,-0.0155713455752,-0.18453168869,0.0,0.0111318845302,-0.0170944221318,7.46973371506,0.12,-0.09,-0.36,1815.02
1521997591.66098976,19146360,2.05,5.92,12.81,0.000309229537379,-0.0156183000654,-0.183667704463,0.0,0.0111318845302,-0.0170944221318,7.46897983551,0.12,-0.09,-0.36,1815.02
1521997591.70234680,19187717,2.05,5.93,12.82,0.000301559950458,-0.015523981303,-0.182796612382,0.0,0.0111318845302,-0.0170944221318,7.46855688095,0.12,-0.09,-0.36,1815.02
1521997591.74133992,19226710,2.05,5.93,12.84,0.000202611641726,-0.0160492938012,-0.181862667203,0.0,0.0111318845302,-0.0170944221318,7.46836280823,0.12,-0.09,-0.36,1815.02
1521997591.78203177,19267402,2.05,5.93,12.85,0.000252417579759,-0.0159755311906,-0.181578502059,0.0,0.0111318845302,-0.0341888442636,7.46726560593,0.12,-0.09,-0.36,1815.02
1521997591.82209682,19307467,2.05,5.93,12.86,0.000404316786444,-0.016084080562,-0.180724143982,0.0,0.0111318845302,-0.0341888442636,7.46775770187,0.12,-0.09,-0.36,1815.02
1521997591.86127782,19346648,2.05,5.93,12.88,0.000147994869621,-0.0158181898296,-0.180716276169,0.0,0.0111318845302,-0.0341888442636,7.46707057953,0.12,-0.09,-0.36,1815.02
1521997591.90237784,19387748,2.05,5.93,12.89,0.000289356306894,-0.0157723426819,-0.179860010743,0.0,0.0111318845302,-0.0341888442636,7.46696043015,0.12,-0.09,-0.36,1815.02
1521997591.94133878,19426709,2.05,5.93,12.9,-0.000150178064359,-0.0158489495516,-0.178747653961,0.0,0.0111318845302,-0.0341888442636,7.4668264389,0.12,-0.09,-0.36,1815.02
1521997591.98217082,19467541,2.05,5.93,12.92,-9.52853370109e-05,-0.0156571231782,-0.177883058786,0.0,0.0222637690604,-0.0512832701206,7.46580028534,0.12,-0.09,-0.36,1815.02
1521997592.02257180,19507942,2.05,5.93,12.93,-0.000279518542811,-0.0153947593644,-0.177026584744,0.0,0.0222637690604,-0.0512832701206,7.46638584137,0.12,-0.09,-0.36,1815.02
1521997592.06180477,19547175,2.05,5.93,12.94,-0.000149950792547,-0.0157003905624,-0.176745608449,0.0,0.0222637690604,-0.0512832701206,7.4659781456,0.12,-0.09,-0.36,1815.02
1521997592.10218191,19587552,2.05,5.93,12.95,-4.97509572597e-05,-0.0160327218473,-0.176346898079,0.0,0.0222637690604,-0.0512832701206,7.46637964249,0.12,-0.09,-0.36,1815.02
1521997592.14145279,19626823,2.05,5.93,12.96,-0.000248463300522,-0.0160773694515,-0.175168201327,0.0,0.0222637690604,-0.0512832701206,7.46740484238,0.12,-0.09,-0.36,1815.02
1521997592.18187881,19667249,2.05,5.93,12.96,-0.000302718253806,-0.016526825726,-0.174189135432,0.0,0.0445275381207,-0.0512832701206,7.46739864349,0.12,-0.09,-0.36,1815.02
1521997592.22188187,19707252,2.05,5.93,12.97,-7.93736035121e-05,-0.0163882616907,-0.172960907221,0.0,0.0445275381207,-0.0512832701206,7.46830844879,0.12,-0.09,-0.36,1815.02
1521997592.26138282,19746753,2.05,5.93,12.98,-0.000372810900444,-0.0163248013705,-0.17227897048,0.0,0.0445275381207,-0.0512832701206,7.46805143356,0.12,-0.09,-0.36,1815.02
1521997592.30218983,19787560,2.05,5.93,12.99,-0.00028635354829,-0.0162282120436,-0.171601831913,0.0,0.0445275381207,-0.0512832701206,7.46793413162,0.12,-0.09,-0.36,1815.02
1521997592.34164882,19827019,2.05,5.94,12.99,-8.30292265164e-05,-0.0164182353765,-0.170829638839,0.0,0.0445275381207,-0.0512832701206,7.4680390358,0.12,-0.09,-0.36,1815.02
1521997592.38174486,19867115,2.05,5.94,13.0,0.000271401368082,-0.0163135733455,-0.170525968075,0.0,0.0445275381207,-0.0512832701206,7.46724653244,0.12,-0.09,-0.36,1815.02
1521997592.42185283,19907223,2.05,5.94,13.01,0.000303536333377,-0.0162839144468,-0.169954180717,0.0,0.0445275381207,-0.0512832701206,7.46636867523,0.12,-0.09,-0.35,1815.02
1521997592.46136284,19946733,2.05,5.93,13.01,0.000162099400768,-0.0160335972905,-0.169588506222,0.0,0.0445275381207,-0.0512832701206,7.46500635147,0.12,-0.09,-0.35,1815.02
1521997592.50248289,19987853,2.05,5.93,13.02,4.46521953563e-05,-0.0160343274474,-0.169043809175,0.0,0.0445275381207,-0.0512832701206,7.46390771866,0.12,-0.09,-0.35,1815.02
1521997592.54141784,20026788,2.04,5.93,13.03,-0.000277385261143,-0.016102982685,-0.168439164758,0.0,0.0445275381207,-0.0512832701206,7.46342563629,0.12,-0.09,-0.35,1815.02
1521997592.58174586,20067116,2.04,5.93,13.03,-0.000302557396935,-0.0162941142917,-0.168174386024,0.0,0.0222637690604,-0.0427360534668,7.46225833893,0.12,-0.09,-0.35,1815.02
1521997592.62209177,20107462,2.04,5.93,13.04,-0.000328591675498,-0.0164608489722,-0.16735444963,0.0,0.0222637690604,-0.0427360534668,7.46312189102,0.12,-0.09,-0.35,1815.02
1521997592.66101980,20146390,2.04,5.93,13.04,-0.000390484638046,-0.0167518276721,-0.16661965847,0.0,0.0222637690604,-0.0427360534668,7.46298027039,0.12,-0.09,-0.35,1815.02
1521997592.70211196,20187482,2.04,5.93,13.05,-0.000212394210394,-0.0165742859244,-0.165882736444,0.0,0.0222637690604,-0.0427360534668,7.46352481842,0.12,-0.09,-0.35,1815.02
1521997592.74162078,20226991,2.04,5.94,13.05,-0.000103448386653,-0.0164937023073,-0.16515827179,0.0,0.0222637690604,-0.0427360534668,7.464407444,0.12,-0.09,-0.35,1815.02
1521997592.78201580,20267386,2.04,5.93,13.05,-0.000322928768583,-0.0167598687112,-0.164587780833,0.0,0.0222637690604,-0.0341888442636,7.46460676193,0.12,-0.09,-0.35,1815.02
1521997592.82192087,20307291,2.04,5.94,13.06,-9.44509665715e-05,-0.0169913265854,-0.162867963314,0.0,0.0222637690604,-0.0341888442636,7.46790885925,0.12,-0.09,-0.34,1815.02
1521997592.86146283,20346833,2.04,5.94,13.06,1.9088269255e-05,-0.0159408710897,-0.160981908441,0.0,0.0222637690604,-0.0341888442636,7.46981954575,0.12,-0.09,-0.34,1815.02
1521997592.90214086,20387511,2.04,5.93,13.06,0.000719610485248,-0.0173119194806,-0.160146802664,0.0,0.0222637690604,-0.0341888442636,7.47156715393,0.12,-0.09,-0.34,1815.02
1521997592.94122386,20426594,2.04,5.93,13.06,-0.00101339712273,-0.0177212655544,-0.160142466426,0.0,0.0222637690604,-0.0341888442636,7.47265577316,0.12,-0.09,-0.34,1815.02
1521997592.98169875,20467069,2.05,5.93,13.06,-0.000764885800891,-0.0166705455631,-0.158206403255,0.0,0.0,-0.0427360534668,7.47277784348,0.12,-0.09,-0.34,1815.02
1521997593.02310681,20508477,2.04,5.93,13.06,0.00184797612019,-0.0164187382907,-0.157647043467,0.0,0.0,-0.0427360534668,7.47377300262,0.12,-0.09,-0.34,1815.02
1521997593.06181574,20547186,2.04,5.93,13.07,0.00381710589863,-0.0135165313259,-0.157632008195,0.0,0.0,-0.0427360534668,7.47366905212,0.12,-0.09,-0.34,1815.02
1521997593.10240293,20587773,2.04,5.94,13.07,0.000618553371169,-0.0185428448021,-0.156508997083,0.0,0.0,-0.0427360534668,7.47299528122,0.12,-0.09,-0.34,1815.02
1521997593.14149189,20626862,2.04,5.94,13.07,0.00384241505526,-0.0151969958097,-0.154581293464,0.0,0.0,-0.0427360534668,7.47203731537,0.11,-0.09,-0.33,1815.02
1521997593.18171883,20667089,2.03,5.94,13.07,0.00429962389171,-0.0202055368572,-0.155377075076,0.0,-0.0445275381207,-0.0769248977304,7.47050619125,0.12,-0.09,-0.33,1815.02
1521997593.22206783,20707438,2.04,5.93,13.06,-0.000960030127317,-0.0172936581075,-0.155213788152,0.0,-0.0445275381207,-0.0769248977304,7.47215986252,0.11,-0.09,-0.33,1815.02
1521997593.26103878,20746409,2.05,5.94,13.07,0.000434405839769,-0.0162424817681,-0.153964921832,0.0,-0.0445275381207,-0.0769248977304,7.47309875488,0.11,-0.09,-0.33,1815.02
1521997593.30231977,20787690,2.04,5.94,13.06,0.00287427962758,-0.0184106510133,-0.15075750649,0.0,-0.0445275381207,-0.0769248977304,7.47418832779,0.11,-0.09,-0.33,1815.02
1521997593.34157872,20826949,2.03,5.93,13.07,0.00105417682789,-0.0202385541052,-0.1516931355,0.0,-0.0445275381207,-0.0769248977304,7.47547292709,0.11,-0.09,-0.33,1815.02
1521997593.38169193,20867062,2.03,5.94,13.06,-0.00230571604334,-0.0213172361255,-0.15096886456,0.0,-0.0667913109064,-0.0854721069336,7.47588157654,0.11,-0.09,-0.33,1815.02
1521997593.42186093,20907231,2.05,5.94,13.06,-0.000651219510473,-0.0177009534091,-0.150144070387,0.0,-0.0667913109064,-0.0854721069336,7.47695398331,0.11,-0.09,-0.33,1815.02
1521997593.46132684,20946697,2.05,5.95,13.06,0.00390965444967,-0.022183785215,-0.148789539933,0.0,-0.0667913109064,-0.0854721069336,7.47724866867,0.11,-0.09,-0.33,1815.02
1521997593.50204277,20987413,2.06,5.95,13.05,0.00519555993378,-0.0238764993846,-0.146298885345,0.0,-0.0667913109064,-0.0854721069336,7.47780323029,0.11,-0.09,-0.33,1815.02
1521997593.54167795,21027048,2.06,5.96,13.03,0.00440345564857,-0.0240402035415,-0.149419918656,0.0,-0.0667913109064,-0.0854721069336,7.47807836533,0.11,-0.09,-0.33,1815.02
1521997593.58198977,21067360,2.06,5.96,13.03,0.00192837894429,-0.0209913421422,-0.147791013122,0.0,-0.077923193574,-0.111113749444,7.47755861282,0.11,-0.09,-0.33,1815.02
1521997593.62197995,21107350,2.06,5.96,13.03,0.000943971099332,-0.0229503009468,-0.146186113358,0.0,-0.077923193574,-0.111113749444,7.48007917404,0.11,-0.09,-0.33,1815.02
1521997593.66101193,21146382,2.06,5.96,13.02,0.00116526952479,-0.0215948168188,-0.143114313483,0.0,-0.077923193574,-0.111113749444,7.48152208328,0.11,-0.09,-0.33,1815.02
1521997593.70204687,21187417,2.05,5.96,13.03,0.00421117292717,-0.0185242798179,-0.142294496298,0.0,-0.077923193574,-0.111113749444,7.48367786407,0.11,-0.09,-0.33,1815.02
1521997593.74148083,21226851,2.04,5.96,13.03,0.00257912022062,-0.0180435534567,-0.140634328127,0.0,-0.077923193574,-0.111113749444,7.48634386063,0.11,-0.09,-0.32,1815.02
1521997593.78205681,21267427,2.04,5.95,13.04,0.000635349773802,-0.0176348816603,-0.138885900378,0.0,-0.0890550762415,-0.111113749444,7.48790836334,0.11,-0.09,-0.32,1815.02
1521997593.82195783,21307328,2.04,5.95,13.05,0.00232004001737,-0.0140826925635,-0.133770942688,0.0,-0.0890550762415,-0.111113749444,7.49087953568,0.11,-0.09,-0.32,1815.02
1521997593.86147380,21346844,1.99,5.98,13.06,0.00357992504723,-0.0100316600874,-0.133887574077,0.0,-0.0890550762415,-0.111113749444,7.49291801453,0.11,-0.09,-0.32,1815.02
1521997593.90214086,21387511,1.99,5.92,13.08,-0.00157187937293,-0.0174350570887,-0.136415988207,0.0,-0.0890550762415,-0.111113749444,7.49483537674,0.11,-0.09,-0.32,1815.02
1521997593.94131184,21426682,2.03,5.94,13.08,-0.00430750055239,-0.0199351795018,-0.13472867012,0.0,-0.0890550762415,-0.111113749444,7.49702596664,0.11,-0.09,-0.32,1815.02
1521997593.98197079,21467341,2.03,5.94,13.08,0.000171079009306,-0.0191095713526,-0.133070141077,0.0,-0.100186958909,-0.145302593708,7.4979839325,0.11,-0.09,-0.32,1815.02
1521997594.02260685,21507977,2.01,5.93,13.1,-0.00156181002967,-0.0224667359143,-0.131944194436,0.0,-0.100186958909,-0.145302593708,7.50019598007,0.11,-0.09,-0.32,1815.02
1521997594.06156087,21546931,2.03,5.93,13.1,0.00253303791396,-0.0183229446411,-0.133654341102,0.0,-0.100186958909,-0.145302593708,7.50134515762,0.11,-0.09,-0.32,1815.02
1521997594.10248375,21587854,2.06,5.95,13.09,0.00288296234794,-0.023989835754,-0.130710706115,0.0,-0.100186958909,-0.145302593708,7.50318431854,0.11,-0.09,-0.32,1815.02
1521997594.14140773,21626778,2.04,5.95,13.08,-0.00382735347375,-0.0270253829658,-0.130777806044,0.0,-0.100186958909,-0.145302593708,7.50540685654,0.11,-0.09,-0.32,1815.02
1521997594.18209696,21667467,2.01,5.97,13.09,-0.00192093814258,-0.0225915554911,-0.130369752645,0.0,-0.0667913109064,-0.153849795461,7.50671768188,0.11,-0.09,-0.32,1815.02
1521997594.22193074,21707301,2.04,5.96,13.09,0.00256214244291,-0.0202257875353,-0.126650452614,0.0,-0.0667913109064,-0.153849795461,7.50800561905,0.11,-0.09,-0.32,1815.02
1521997594.26133084,21746701,2.06,5.95,13.09,-0.00500263413414,-0.0204169824719,-0.127584040165,0.0,-0.0667913109064,-0.153849795461,7.50831222534,0.11,-0.09,-0.32,1815.02
1521997594.30207491,21787445,2.05,5.95,13.11,-0.0056399027817,-0.0180106461048,-0.122974038124,0.0,-0.0667913109064,-0.153849795461,7.50928926468,0.11,-0.09,-0.32,1815.02
1521997594.34134173,21826712,2.01,5.96,13.11,0.000317262602039,-0.021211380139,-0.127846971154,0.0,-0.0667913109064,-0.153849795461,7.51078891754,0.11,-0.09,-0.31,1815.02
1521997594.38201380,21867384,2.05,5.95,13.11,-0.00365895684808,-0.0223294179887,-0.125344365835,0.0,-0.077923193574,-0.136755377054,7.51124334335,0.11,-0.09,-0.31,1815.02
1521997594.42190194,21907272,2.08,5.96,13.1,-0.00191200012341,-0.0206165648997,-0.123280987144,0.0,-0.077923193574,-0.136755377054,7.51224565506,0.11,-0.09,-0.31,1815.02
1521997594.46134281,21946713,2.05,5.96,13.1,0.00475604599342,-0.0241666492075,-0.122833929956,0.0,-0.077923193574,-0.136755377054,7.51243686676,0.11,-0.09,-0.31,1815.02
1521997594.50211382,21987484,2.02,5.96,13.11,0.00105546682607,-0.0204463955015,-0.122933998704,0.0,-0.077923193574,-0.136755377054,7.5133895874,0.11,-0.09,-0.31,1815.02
1521997594.54153085,22026901,2.03,5.96,13.12,0.000460242677946,-0.00889046024531,-0.116274110973,0.0,-0.077923193574,-0.136755377054,7.51506710052,0.11,-0.09,-0.31,1815.02
1521997594.58171391,22067084,2.05,5.95,13.14,0.0053795594722,-0.017415991053,-0.124353557825,0.0,-0.100186958909,-0.119660958648,7.51573991776,0.11,-0.09,-0.31,1815.02
1521997594.62211275,22107483,2.03,5.95,13.14,-0.00549747236073,-0.0248457565904,-0.119984783232,0.0,-0.100186958909,-0.119660958648,7.51732158661,0.11,-0.09,-0.31,1815.02
1521997594.66132283,22146693,2.0,5.92,13.15,-0.000224135219469,-0.0144928311929,-0.117933154106,0.0,-0.100186958909,-0.119660958648,7.51792240143,0.11,-0.09,-0.31,1815.02
1521997594.70203185,22187402,2.01,5.98,13.17,0.00840545259416,-0.0221311226487,-0.12545338273,0.0,-0.100186958909,-0.119660958648,7.51947069168,0.11,-0.09,-0.31,1815.02
1521997594.74122190,22226592,2.02,5.98,13.18,-0.00115292705595,-0.0191745273769,-0.115433230996,0.0,-0.100186958909,-0.119660958648,7.5219078064,0.11,-0.09,-0.31,1815.02
1521997594.78215885,22267529,2.0,5.95,13.18,-8.17802356323e-05,-0.0210154298693,-0.11478048563,0.0,-0.155846387148,-0.102566540241,7.52316904068,0.11,-0.09,-0.31,1815.02
1521997594.82191277,22307283,1.99,5.95,13.2,-0.000156822585268,-0.0191055238247,-0.115127570927,0.0,-0.155846387148,-0.102566540241,7.52665090561,0.11,-0.09,-0.31,1815.02
1521997594.86151075,22346881,2.0,5.94,13.21,-0.000479329057271,-0.0197610389441,-0.114311113954,0.0,-0.155846387148,-0.102566540241,7.528901577,0.11,-0.09,-0.31,1815.02
1521997594.90217781,22387548,2.03,5.95,13.21,0.00274437386543,-0.0221508983523,-0.114429444075,0.0,-0.155846387148,-0.102566540241,7.53065872192,0.11,-0.09,-0.31,1815.02
1521997594.94138074,22426751,2.03,5.95,13.22,0.00134490255732,-0.020511738956,-0.112504370511,0.0,-0.155846387148,-0.102566540241,7.53191566467,0.11,-0.09,-0.31,1815.02
1521997594.98175073,22467121,2.02,5.95,13.23,0.00254064123146,-0.0182991046458,-0.111294977367,0.0,-0.178110152483,-0.0940193235874,7.53229427338,0.11,-0.09,-0.31,1815.02
1521997595.02251887,22507889,2.02,5.95,13.24,-0.000293913879432,-0.0202433653176,-0.112244941294,0.0,-0.178110152483,-0.0940193235874,7.53514719009,0.11,-0.09,-0.31,1815.02
1521997595.06153893,22546909,2.02,5.96,13.24,-0.00118196371477,-0.0200274996459,-0.109705582261,0.0,-0.178110152483,-0.0940193235874,7.53706359863,0.11,-0.09,-0.31,1815.02
1521997595.10228181,22587652,2.02,5.96,13.24,0.00392178958282,-0.0207060948014,-0.105771914124,0.0,-0.178110152483,-0.0940193235874,7.53894138336,0.11,-0.09,-0.31,1815.02
1521997595.14156985,22626940,2.01,5.96,13.24,0.00280218478292,-0.0193503089249,-0.106435284019,0.0,-0.178110152483,-0.0940193235874,7.54065513611,0.11,-0.09,-0.3,1815.02
1521997595.18184996,22667220,2.02,5.95,13.25,0.00105537881609,-0.0189916528761,-0.105940684676,0.0,-0.178110152483,-0.0940193235874,7.54163980484,0.11,-0.09,-0.3,1815.02
1521997595.22220278,22707573,2.03,5.96,13.24,-0.00157927966211,-0.0224484093487,-0.106657631695,0.0,-0.178110152483,-0.0940193235874,7.54460906982,0.11,-0.09,-0.3,1815.02
1521997595.26104379,22746414,2.03,5.95,13.24,0.00176963629201,-0.019578365609,-0.102789372206,0.0,-0.178110152483,-0.0940193235874,7.54639101028,0.11,-0.09,-0.3,1815.02
1521997595.30213380,22787504,2.03,5.95,13.24,0.00298621505499,-0.0200717113912,-0.103660590947,0.0,-0.178110152483,-0.0940193235874,7.54684114456,0.11,-0.09,-0.3,1815.02
1521997595.34152079,22826891,2.02,5.95,13.23,-0.00433654151857,-0.019452387467,-0.104759223759,0.0,-0.178110152483,-0.0940193235874,7.54555463791,0.11,-0.09,-0.3,1815.02
1521997595.38200092,22867371,2.04,5.96,13.23,-0.000183552401722,-0.0184216164052,-0.103636354208,0.0,-0.200373917818,-0.0940193235874,7.54400730133,0.11,-0.09,-0.3,1815.02
1521997595.42200494,22907375,2.02,5.94,13.22,0.001098142704,-0.0195580422878,-0.102335453033,0.0,-0.200373917818,-0.0940193235874,7.54365921021,0.11,-0.09,-0.29,1815.02
1521997595.46169877,22947069,2.03,5.95,13.22,-0.00397455971688,-0.020698281005,-0.104980707169,0.0,-0.200373917818,-0.0940193235874,7.54290246964,0.11,-0.09,-0.29,1815.02
1521997595.50210476,22987475,2.03,5.95,13.21,-0.000841323111672,-0.0171911772341,-0.104342311621,0.0,-0.200373917818,-0.0940193235874,7.54245710373,0.11,-0.09,-0.29,1815.02
1521997595.54140377,23026774,2.03,5.95,13.2,0.00272670923732,-0.0218005795032,-0.101727589965,0.0,-0.200373917818,-0.0940193235874,7.54233455658,0.11,-0.09,-0.29,1815.02
1521997595.58171082,23067081,2.03,5.95,13.2,-0.00260352599435,-0.017215481028,-0.104674138129,0.0,-0.244901463389,-0.102566540241,7.54173803329,0.11,-0.09,-0.29,1815.02
1521997595.62208796,23107458,2.02,5.96,13.2,-0.00129835493863,-0.0204101242125,-0.103569753468,0.0,-0.244901463389,-0.102566540241,7.54228210449,0.11,-0.09,-0.29,1815.02
1521997595.66130686,23146677,2.03,5.95,13.19,0.00416781427339,-0.0190355218947,-0.100495509803,0.0,-0.244901463389,-0.102566540241,7.54206609726,0.11,-0.09,-0.29,1815.02
1521997595.70217085,23187541,2.02,5.95,13.18,-0.000392988644307,-0.0189120657742,-0.103715613484,0.0,-0.244901463389,-0.102566540241,7.54169082642,0.11,-0.09,-0.29,1815.02
1521997595.74142385,23226794,2.02,5.96,13.18,-0.00250991107896,-0.0185334105045,-0.102242209017,0.0,-0.244901463389,-0.102566540241,7.54098844528,0.1,-0.09,-0.28,1815.02
1521997595.78175879,23267129,2.02,5.96,13.17,-0.000533927464858,-0.0190140623599,-0.101493574679,0.0,-0.278297126293,-0.0940193235874,7.5398607254,0.1,-0.09,-0.28,1815.02
1521997595.82237887,23307749,2.02,5.95,13.16,0.00288971466944,-0.0182299278677,-0.101197145879,0.0,-0.278297126293,-0.0940193235874,7.53945922852,0.1,-0.09,-0.28,1815.02
