timestamp,TimeUS,DesRoll,Roll,DesPitch,Pitch,DesYaw,Yaw,ErrRP,ErrYaw
1521997578.14066982,5626040,0.0,1.84,0.0,5.72,0.0,4.75,1.0,0.51
1521997578.18020177,5665572,0.0,1.83,0.0,5.71,0.0,4.7,1.0,0.51
1521997578.22036290,5705733,0.0,1.83,0.0,5.71,0.0,4.65,0.8,0.51
1521997578.26001787,5745388,0.0,1.85,0.0,5.71,0.0,4.67,0.8,0.41
1521997578.30006981,5785440,0.0,1.86,0.0,5.72,0.0,4.76,0.8,0.41
1521997578.34001184,5825382,0.0,1.88,0.0,5.72,0.0,4.84,0.8,0.33
1521997578.38029575,5865666,0.0,1.9,0.0,5.73,0.0,4.9,0.8,0.33
1521997578.42030478,5905675,0.0,1.91,0.0,5.73,0.0,4.95,0.8,0.33
1521997578.46017981,5945550,0.0,1.91,0.0,5.73,0.0,4.97,0.64,0.27
1521997578.50017476,5985545,0.0,1.91,0.0,5.73,0.0,4.94,0.64,0.27
1521997578.54036593,6025736,0.0,1.92,0.0,5.74,0.0,4.91,0.64,0.21
1521997578.58020091,6065571,0.0,1.92,0.0,5.74,0.0,4.89,0.64,0.21
1521997578.62037492,6105745,0.0,1.92,0.0,5.74,0.0,4.86,0.64,0.21
1521997578.66003275,6145403,0.0,1.92,0.0,5.75,0.0,4.86,0.51,0.17
1521997578.70027876,6185649,0.0,1.94,0.0,5.76,0.0,4.89,0.51,0.17
1521997578.74022889,6225599,0.0,1.95,0.0,5.76,0.0,4.92,0.51,0.14
1521997578.78030682,6265677,0.0,1.96,0.0,5.77,0.0,4.95,0.51,0.14
1521997578.82034183,6305712,0.0,1.97,0.0,5.78,0.0,4.97,0.51,0.14
1521997578.86018777,6345558,0.0,1.98,0.0,5.78,0.0,4.98,0.41,0.11
1521997578.90005684,6385427,0.0,1.98,0.0,5.79,0.0,4.98,0.41,0.11
1521997578.94022679,6425597,0.0,1.98,0.0,5.8,0.0,4.97,0.41,0.09
1521997578.98033595,6465706,0.0,1.98,0.0,5.8,0.0,4.94,0.41,0.09
1521997579.02329493,6508665,0.0,1.98,0.0,5.81,0.0,4.91,0.41,0.09
1521997579.06057978,6545950,0.0,1.97,0.0,5.81,0.0,4.86,0.32,0.07
1521997579.10043883,6585809,0.0,1.97,0.0,5.82,0.0,4.81,0.32,0.07
1521997579.14043283,6625803,0.0,1.97,0.0,5.82,0.0,4.76,0.32,0.06
1521997579.18051386,6665884,0.0,1.98,0.0,5.83,0.0,4.76,0.32,0.06
1521997579.22106695,6706437,0.0,1.97,0.0,5.83,0.0,4.77,0.32,0.06
1521997579.26030374,6745674,0.0,1.98,0.0,5.83,0.0,4.76,0.26,0.05
1521997579.30010486,6785475,0.0,1.98,0.0,5.83,0.0,4.71,0.26,0.05
1521997579.34039092,6825761,0.0,1.97,0.0,5.84,0.0,4.68,0.26,0.04
1521997579.38050079,6865871,0.0,1.96,0.0,5.84,0.0,4.62,0.26,0.04
1521997579.42034173,6905712,0.0,1.96,0.0,5.84,0.0,4.57,0.26,0.04
1521997579.46021295,6945583,0.0,1.96,0.0,5.84,0.0,4.52,0.21,0.03
1521997579.50003481,6985405,0.0,1.95,0.0,5.84,0.0,4.48,0.21,0.03
1521997579.54027390,7025644,0.0,1.94,0.0,5.84,0.0,4.44,0.21,0.03
1521997579.58054590,7065916,0.0,1.94,0.0,5.85,0.0,4.43,0.21,0.03
1521997579.62054777,7105918,0.0,1.95,0.0,5.85,0.0,4.41,0.21,0.03
1521997579.66032076,7145691,0.0,1.95,0.0,5.82,0.0,4.38,0.16,0.02
1521997579.70016694,7185537,0.0,1.94,0.0,5.8,0.0,4.33,0.16,0.02
1521997579.74010181,7225472,0.0,1.94,0.0,5.84,0.0,4.29,0.16,0.02
1521997579.78040576,7265776,0.0,1.94,0.0,5.84,0.0,4.25,0.16,0.02
1521997579.82037091,7305741,0.0,1.95,0.0,5.83,0.0,4.22,0.16,0.02
1521997579.86011982,7345490,0.0,1.93,0.0,5.8,0.0,4.16,0.16,0.02
1521997579.90003586,7385406,0.0,1.94,0.0,5.83,0.0,4.07,0.13,0.02
1521997579.94009876,7425469,0.0,1.94,0.0,5.83,0.0,3.98,0.13,0.02
1521997579.98058677,7465957,0.0,1.94,0.0,5.83,0.0,3.99,0.13,0.02
1521997580.02085781,7506228,0.0,1.93,0.0,5.86,0.0,4.0,0.13,0.02
1521997580.06036186,7545732,0.0,1.95,0.0,5.87,0.0,3.98,0.13,0.01
1521997580.10046577,7585836,0.0,1.96,0.0,5.89,0.0,3.95,0.1,0.01
1521997580.14037395,7625744,0.0,1.94,0.0,5.87,0.0,3.92,0.1,0.01
1521997580.18064690,7666017,0.0,1.92,0.0,5.86,0.0,3.86,0.1,0.01
1521997580.22032690,7705697,0.0,1.94,0.0,5.85,0.0,3.8,0.1,0.01
1521997580.26038480,7745755,0.0,1.95,0.0,5.82,0.0,3.77,0.1,0.01
1521997580.30054474,7785915,0.0,1.95,0.0,5.79,0.0,3.79,0.1,0.01
1521997580.34052277,7825893,0.0,1.96,0.0,5.77,0.0,3.81,0.08,0.01
1521997580.38018394,7865554,0.0,1.98,0.0,5.76,0.0,3.82,0.08,0.01
1521997580.42040086,7905771,0.0,1.98,0.0,5.78,0.0,3.84,0.08,0.01
1521997580.46044683,7945817,0.0,1.98,0.0,5.81,0.0,3.86,0.08,0.01
1521997580.50022984,7985600,0.0,2.01,0.0,5.81,0.0,3.86,0.08,0.01
1521997580.54049587,8025866,0.0,2.02,0.0,5.79,0.0,3.85,0.07,0.01
1521997580.58056593,8065936,0.0,2.02,0.0,5.79,0.0,3.77,0.07,0.01
1521997580.62303185,8108402,0.0,2.02,0.0,5.79,0.0,3.7,0.05,0.01
1521997580.66261172,8147982,0.0,2.02,0.0,5.8,0.0,3.66,0.05,0.01
1521997580.70101094,8186381,0.0,2.03,0.0,5.81,0.0,3.66,0.05,0.01
1521997580.74101281,8226383,0.0,2.01,0.0,5.83,0.0,3.67,0.05,0.01
1521997580.78142190,8266792,0.0,2.01,0.0,5.82,0.0,3.76,0.05,0.01
1521997580.82163191,8307002,0.0,2.06,0.0,5.82,0.0,3.83,0.05,0.01
1521997580.86082077,8346191,0.0,2.15,0.0,5.72,0.0,3.93,0.05,0.01
1521997580.90188479,8387255,0.0,2.21,0.0,5.61,0.0,4.02,0.05,0.01
1521997580.94138885,8426759,0.0,2.28,0.0,5.48,0.0,4.11,0.05,0.01
1521997580.98158193,8466952,0.0,2.37,0.0,5.38,0.0,4.16,0.05,0.01
1521997581.02209973,8507470,0.0,2.55,0.0,5.26,0.0,4.21,0.05,0.01
1521997581.06126976,8546640,0.0,2.79,0.0,5.17,0.0,4.32,0.05,0.02
1521997581.10232592,8587696,0.0,3.02,0.0,5.05,0.0,4.46,0.05,0.02
1521997581.14186788,8627238,0.0,3.3,0.0,4.95,0.0,4.57,0.05,0.03
1521997581.18168592,8667056,0.0,3.59,0.0,4.85,0.0,4.81,0.05,0.03
1521997581.22204185,8707412,0.0,3.67,0.0,4.85,0.0,5.02,0.05,0.03
1521997581.26130176,8746672,0.0,3.61,0.0,4.94,0.0,5.28,0.05,0.04
1521997581.30239296,8787763,0.0,3.59,0.0,5.0,0.0,5.55,0.05,0.04
1521997581.34130383,8826674,0.0,3.55,0.0,5.08,0.0,5.82,0.05,0.04
1521997581.38189077,8867261,0.0,3.47,0.0,5.17,0.0,6.02,0.05,0.04
1521997581.42243195,8907802,0.0,3.35,0.0,5.18,0.0,6.19,0.05,0.04
1521997581.46094584,8946316,0.0,3.19,0.0,5.12,0.0,6.53,0.05,0.07
1521997581.50221777,8987588,0.0,3.0,0.0,5.07,0.0,7.03,0.05,0.07
1521997581.54128575,9026656,0.0,2.79,0.0,5.01,0.0,7.51,0.05,0.08
1521997581.58186889,9067239,0.0,2.62,0.0,4.95,0.0,7.82,0.05,0.08
1521997581.62184978,9107220,0.0,2.52,0.0,4.96,0.0,8.11,0.04,0.08
1521997581.66093183,9146302,0.0,2.47,0.0,5.02,0.0,8.38,0.04,0.08
1521997581.70216393,9187534,0.0,2.42,0.0,5.11,0.0,8.62,0.04,0.08
1521997581.74132395,9226694,0.0,2.38,0.0,5.18,0.0,8.83,0.04,0.08
1521997581.78162980,9267000,0.0,2.33,0.0,5.27,0.0,9.06,0.04,0.08
1521997581.82171392,9307084,0.0,2.27,0.0,5.33,0.0,9.28,0.04,0.08
1521997581.86088395,9346254,0.0,2.21,0.0,5.33,0.0,9.46,0.04,0.07
1521997581.90219092,9387561,0.0,2.17,0.0,5.33,0.0,9.58,0.04,0.07
1521997581.94096589,9426336,0.0,2.12,0.0,5.36,0.0,9.69,0.04,0.06
1521997581.98135281,9466723,0.0,2.09,0.0,5.37,0.0,9.85,0.04,0.06
1521997582.02238774,9507758,0.0,2.03,0.0,5.37,0.0,10.0,0.04,0.06
1521997582.06138587,9546756,0.0,2.16,0.0,5.46,0.0,10.11,0.04,0.06
1521997582.10199380,9587364,0.0,2.27,0.0,5.54,0.0,10.19,0.04,0.06
1521997582.14145279,9626823,0.0,2.33,0.0,5.63,0.0,10.27,0.04,0.05
1521997582.18190575,9667276,0.0,2.42,0.0,5.74,0.0,10.41,0.04,0.05
1521997582.22198391,9707354,0.0,2.36,0.0,5.92,0.0,10.49,0.05,0.05
1521997582.26142573,9746796,0.0,2.12,0.0,6.19,0.0,10.51,0.05,0.04
1521997582.30224991,9787620,0.0,1.81,0.0,6.49,0.0,10.49,0.05,0.04
1521997582.34100795,9826378,0.0,1.5,0.0,6.8,0.0,10.47,0.05,0.03
1521997582.38203073,9867401,0.0,1.22,0.0,7.12,0.0,10.38,0.05,0.03
1521997582.42189884,9907269,0.0,1.18,0.0,7.17,0.0,10.32,0.05,0.03
1521997582.46134090,9946711,0.0,1.32,0.0,6.98,0.0,10.25,0.05,0.04
1521997582.50213981,9987510,0.0,1.47,0.0,6.87,0.0,10.16,0.05,0.04
1521997582.54167795,10027048,0.0,1.66,0.0,6.71,0.0,10.05,0.05,0.03
1521997582.58137679,10066747,0.0,1.88,0.0,6.54,0.0,10.09,0.05,0.03
1521997582.62194681,10107317,0.0,2.05,0.0,6.42,0.0,10.15,0.05,0.03
1521997582.66086578,10146236,0.0,2.02,0.0,6.27,0.0,10.2,0.05,0.03
1521997582.70202184,10187392,0.0,2.0,0.0,6.15,0.0,10.28,0.05,0.03
1521997582.74115872,10226529,0.0,1.93,0.0,6.04,0.0,10.36,0.05,0.03
1521997582.78162193,10266992,0.0,1.84,0.0,5.94,0.0,10.43,0.05,0.03
1521997582.82171178,10307082,0.0,1.86,0.0,6.04,0.0,10.5,0.06,0.03
1521997582.86117172,10346542,0.0,1.99,0.0,6.37,0.0,10.53,0.06,0.02
1521997582.90204883,10387419,0.0,2.11,0.0,6.67,0.0,10.57,0.06,0.02
1521997582.94117689,10426547,0.0,2.12,0.0,7.03,0.0,10.62,0.06,0.02
1521997582.98167181,10467042,0.0,2.17,0.0,7.35,0.0,10.72,0.06,0.02
1521997583.02250075,10507871,0.0,2.23,0.0,7.41,0.0,10.8,0.06,0.02
1521997583.06131673,10546687,0.0,2.24,0.0,7.13,0.0,10.85,0.06,0.02
1521997583.10209775,10587468,0.0,2.13,0.0,6.92,0.0,10.94,0.06,0.02
1521997583.14160585,10626976,0.0,2.11,0.0,6.62,0.0,11.0,0.06,0.02
1521997583.18208885,10667459,0.0,2.22,0.0,6.46,0.0,10.99,0.06,0.02
1521997583.22196078,10707331,0.0,2.23,0.0,6.3,0.0,11.0,0.06,0.02
1521997583.26098490,10746355,0.0,2.17,0.0,6.49,0.0,11.05,0.06,0.02
1521997583.30237174,10787742,0.0,2.2,0.0,6.7,0.0,11.12,0.06,0.02
1521997583.34134793,10826718,0.0,2.3,0.0,6.91,0.0,11.15,0.06,0.02
1521997583.38189292,10867263,0.0,2.4,0.0,7.09,0.0,11.23,0.06,0.02
1521997583.42208886,10907459,0.0,2.42,0.0,7.04,0.0,11.33,0.06,0.02
1521997583.46135283,10946723,0.0,2.42,0.0,6.8,0.0,11.44,0.06,0.02
1521997583.50248289,10987853,0.0,2.48,0.0,6.6,0.0,11.57,0.06,0.02
1521997583.54129195,11026662,0.0,2.58,0.0,6.36,0.0,11.67,0.06,0.03
1521997583.58187485,11067245,0.0,2.58,0.0,6.13,0.0,11.83,0.06,0.03
1521997583.62189579,11107266,0.0,2.53,0.0,6.06,0.0,11.99,0.05,0.03
1521997583.66100693,11146377,0.0,2.53,0.0,6.13,0.0,12.09,0.05,0.03
1521997583.70197392,11187344,0.0,2.51,0.0,6.17,0.0,12.16,0.05,0.03
1521997583.74107575,11226446,0.0,2.3,0.0,6.23,0.0,12.3,0.05,0.02
1521997583.78155184,11266922,0.0,2.1,0.0,6.31,0.0,12.36,0.05,0.02
1521997583.82220674,11307577,0.0,2.13,0.0,6.37,0.0,12.34,0.04,0.02
1521997583.86102796,11346398,0.0,2.17,0.0,6.46,0.0,12.29,0.04,0.02
1521997583.90226483,11387635,0.0,2.08,0.0,6.56,0.0,12.29,0.04,0.02
1521997583.94130778,11426678,0.0,1.99,0.0,6.66,0.0,12.3,0.04,0.02
1521997583.98166394,11467034,0.0,1.99,0.0,6.76,0.0,12.16,0.04,0.02
1521997584.02246284,11507833,0.0,2.03,0.0,6.67,0.0,12.05,0.05,0.02
1521997584.06140995,11546780,0.0,2.0,0.0,6.5,0.0,11.99,0.05,0.02
1521997584.10217786,11587548,0.0,2.02,0.0,6.32,0.0,11.99,0.05,0.02
1521997584.14140987,11626780,0.0,2.06,0.0,6.15,0.0,11.99,0.05,0.01
1521997584.18196487,11667335,0.0,2.1,0.0,5.95,0.0,11.96,0.05,0.01
1521997584.22203588,11707406,0.0,2.18,0.0,5.81,0.0,11.95,0.04,0.01
1521997584.26103592,11746406,0.0,2.28,0.0,5.71,0.0,11.95,0.04,0.01
1521997584.30210185,11787472,0.0,2.43,0.0,5.62,0.0,11.95,0.04,0.01
1521997584.34132791,11826698,0.0,2.49,0.0,5.52,0.0,11.98,0.04,0.01
1521997584.38168883,11867059,0.0,2.52,0.0,5.41,0.0,12.04,0.04,0.01
1521997584.42211580,11907486,0.0,2.6,0.0,5.43,0.0,12.07,0.04,0.01
1521997584.46136475,11946735,0.0,2.6,0.0,5.55,0.0,12.1,0.04,0.01
1521997584.50203085,11987401,0.0,2.44,0.0,5.63,0.0,12.2,0.04,0.01
1521997584.54146576,12026836,0.0,2.34,0.0,5.74,0.0,12.3,0.04,0.01
1521997584.58184981,12067220,0.0,2.34,0.0,5.77,0.0,12.24,0.04,0.01
1521997584.62170196,12107072,0.0,2.22,0.0,5.76,0.0,12.22,0.04,0.01
1521997584.66139889,12146769,0.0,2.18,0.0,5.76,0.0,12.2,0.04,0.01
1521997584.70202088,12187391,0.0,2.29,0.0,5.64,0.0,12.18,0.04,0.01
1521997584.74106693,12226437,0.0,2.3,0.0,5.57,0.0,12.15,0.04,0.01
1521997584.78197384,12267344,0.0,2.27,0.0,5.5,0.0,12.24,0.04,0.01
1521997584.82176995,12307140,0.0,2.27,0.0,5.64,0.0,12.32,0.04,0.01
1521997584.86126685,12346637,0.0,2.24,0.0,5.91,0.0,12.33,0.04,0.01
1521997584.90214086,12387511,0.0,2.15,0.0,6.19,0.0,12.3,0.04,0.01
1521997584.94123173,12426602,0.0,2.06,0.0,6.46,0.0,12.29,0.04,0.01
1521997584.98182988,12467200,0.0,1.96,0.0,6.76,0.0,12.22,0.04,0.01
1521997585.02246881,12507839,0.0,1.96,0.0,6.71,0.0,12.15,0.05,0.01
1521997585.06133676,12546707,0.0,1.93,0.0,6.38,0.0,12.06,0.05,0.01
1521997585.10228276,12587653,0.0,1.88,0.0,6.05,0.0,11.97,0.05,0.01
1521997585.14151573,12626886,0.0,1.87,0.0,5.72,0.0,11.88,0.05,0.01
1521997585.18175793,12667128,0.0,1.88,0.0,5.38,0.0,11.83,0.05,0.01
1521997585.22190785,12707278,0.0,1.82,0.0,5.36,0.0,11.78,0.06,0.01
1521997585.26140976,12746780,0.0,1.7,0.0,5.65,0.0,11.68,0.06,0.02
1521997585.30216694,12787537,0.0,1.61,0.0,5.94,0.0,11.52,0.06,0.02
1521997585.34131980,12826690,0.0,1.52,0.0,6.23,0.0,11.36,0.06,0.02
1521997585.38150096,12866871,0.0,1.41,0.0,6.52,0.0,11.23,0.06,0.02
1521997585.42214894,12907519,0.0,1.26,0.0,6.63,0.0,11.09,0.05,0.02
1521997585.46169591,12947066,0.0,1.11,0.0,6.56,0.0,10.94,0.05,0.03
1521997585.50217581,12987546,0.0,0.94,0.0,6.46,0.0,10.8,0.05,0.03
1521997585.54125786,13026628,0.0,0.72,0.0,6.41,0.0,10.67,0.05,0.03
1521997585.58137679,13066747,0.0,0.56,0.0,6.31,0.0,10.49,0.05,0.03
1521997585.62211490,13107485,0.0,0.6,0.0,6.17,0.0,10.32,0.06,0.03
1521997585.66107082,13146441,0.0,0.79,0.0,6.01,0.0,10.21,0.06,0.03
1521997585.70218086,13187551,0.0,0.96,0.0,5.85,0.0,10.12,0.06,0.03
1521997585.74137592,13226746,0.0,1.16,0.0,5.65,0.0,10.02,0.06,0.03
1521997585.78156996,13266940,0.0,1.42,0.0,5.49,0.0,10.01,0.06,0.03
1521997585.82186484,13307235,0.0,1.49,0.0,5.56,0.0,10.01,0.06,0.03
1521997585.86124277,13346613,0.0,1.39,0.0,5.89,0.0,10.04,0.06,0.02
1521997585.90242481,13387795,0.0,1.34,0.0,6.2,0.0,10.11,0.06,0.02
1521997585.94134378,13426714,0.0,1.31,0.0,6.51,0.0,10.16,0.06,0.02
1521997585.98158288,13466953,0.0,1.24,0.0,6.82,0.0,10.18,0.06,0.02
1521997586.02234077,13507711,0.0,1.24,0.0,6.91,0.0,10.2,0.06,0.02
1521997586.06149673,13546867,0.0,1.43,0.0,6.76,0.0,10.22,0.06,0.02
1521997586.10205793,13587428,0.0,1.56,0.0,6.62,0.0,10.26,0.06,0.02
1521997586.14136887,13626739,0.0,1.67,0.0,6.46,0.0,10.28,0.06,0.02
1521997586.18189573,13667266,0.0,1.79,0.0,6.32,0.0,10.37,0.06,0.02
1521997586.22216082,13707531,0.0,1.81,0.0,6.26,0.0,10.44,0.05,0.02
1521997586.26115894,13746529,0.0,1.9,0.0,6.22,0.0,10.53,0.05,0.02
1521997586.30232882,13787699,0.0,1.92,0.0,6.19,0.0,10.67,0.05,0.02
1521997586.34125185,13826622,0.0,1.9,0.0,6.19,0.0,10.79,0.05,0.02
1521997586.38159394,13866964,0.0,1.97,0.0,6.19,0.0,10.89,0.05,0.02
1521997586.42172980,13907100,0.0,1.99,0.0,6.13,0.0,10.96,0.04,0.02
1521997586.46117282,13946543,0.0,2.0,0.0,6.06,0.0,11.01,0.04,0.02
1521997586.50238585,13987756,0.0,2.06,0.0,5.98,0.0,11.01,0.04,0.02
1521997586.54175282,14027123,0.0,2.1,0.0,5.9,0.0,11.0,0.04,0.02
1521997586.58155775,14066928,0.0,2.12,0.0,5.82,0.0,11.12,0.04,0.02
1521997586.62190676,14107277,0.0,2.17,0.0,5.85,0.0,11.22,0.04,0.02
1521997586.66147184,14146842,0.0,2.35,0.0,5.97,0.0,11.36,0.04,0.02
1521997586.70203280,14187403,0.0,2.5,0.0,6.12,0.0,11.54,0.04,0.02
1521997586.74145079,14226821,0.0,2.68,0.0,6.24,0.0,11.7,0.04,0.03
1521997586.78158879,14266959,0.0,2.89,0.0,6.39,0.0,11.89,0.04,0.03
1521997586.82176876,14307139,0.0,2.87,0.0,6.45,0.0,12.06,0.04,0.03
1521997586.86103082,14346401,0.0,2.67,0.0,6.44,0.0,12.2,0.04,0.03
1521997586.90207481,14387445,0.0,2.49,0.0,6.43,0.0,12.32,0.04,0.03
1521997586.94124079,14426611,0.0,2.28,0.0,6.43,0.0,12.44,0.04,0.03
1521997586.98170686,14467077,0.0,2.08,0.0,6.43,0.0,12.45,0.04,0.03
1521997587.02248979,14507860,0.0,2.04,0.0,6.37,0.0,12.46,0.04,0.03
1521997587.06151986,14546890,0.0,2.05,0.0,6.22,0.0,12.44,0.04,0.03
1521997587.10200596,14587376,0.0,1.99,0.0,6.09,0.0,12.37,0.04,0.03
1521997587.14129496,14626665,0.0,1.99,0.0,5.93,0.0,12.31,0.04,0.02
1521997587.18185091,14667221,0.0,2.0,0.0,5.82,0.0,12.25,0.04,0.02
1521997587.22200584,14707376,0.0,2.03,0.0,5.68,0.0,12.19,0.04,0.02
1521997587.26136088,14746731,0.0,2.08,0.0,5.57,0.0,12.13,0.04,0.02
1521997587.30213785,14787508,0.0,2.0,0.0,5.45,0.0,12.07,0.04,0.02
1521997587.34147573,14826846,0.0,1.98,0.0,5.4,0.0,12.03,0.04,0.02
1521997587.38190293,14867273,0.0,2.02,0.0,5.19,0.0,11.95,0.04,0.02
1521997587.42186093,14907231,0.0,1.96,0.0,5.19,0.0,11.88,0.04,0.02
1521997587.46103477,14946405,0.0,1.85,0.0,5.34,0.0,11.84,0.04,0.02
1521997587.50220585,14987576,0.0,1.79,0.0,5.48,0.0,11.77,0.04,0.02
1521997587.54155374,15026924,0.0,1.74,0.0,5.59,0.0,11.69,0.04,0.02
1521997587.58211780,15067488,0.0,1.66,0.0,5.72,0.0,11.63,0.04,0.02
1521997587.62186790,15107238,0.0,1.67,0.0,5.83,0.0,11.58,0.04,0.02
1521997587.66122079,15146591,0.0,1.85,0.0,5.89,0.0,11.54,0.04,0.02
1521997587.70226288,15187633,0.0,2.05,0.0,5.96,0.0,11.51,0.04,0.02
1521997587.74150681,15226877,0.0,2.19,0.0,6.02,0.0,11.48,0.04,0.02
1521997587.78194475,15267315,0.0,2.34,0.0,6.1,0.0,11.45,0.04,0.02
1521997587.82182884,15307199,0.0,2.36,0.0,6.1,0.0,11.39,0.04,0.02
1521997587.86118793,15346558,0.0,2.25,0.0,6.06,0.0,11.38,0.04,0.02
1521997587.90222287,15387593,0.0,2.1,0.0,6.02,0.0,11.43,0.04,0.02
1521997587.94092584,15426296,0.0,1.96,0.0,5.97,0.0,11.48,0.04,0.01
1521997587.98163795,15467008,0.0,1.85,0.0,5.93,0.0,11.49,0.04,0.01
1521997588.02271676,15508087,0.0,1.93,0.0,5.9,0.0,11.53,0.04,0.01
1521997588.06135988,15546730,0.0,2.21,0.0,5.89,0.0,11.6,0.04,0.01
1521997588.10212588,15587496,0.0,2.49,0.0,5.88,0.0,11.67,0.04,0.01
1521997588.14118576,15626556,0.0,2.8,0.0,5.87,0.0,11.73,0.04,0.02
1521997588.18157673,15666947,0.0,3.11,0.0,5.85,0.0,11.93,0.04,0.02
1521997588.22186494,15707235,0.0,3.26,0.0,6.02,0.0,12.1,0.05,0.02
1521997588.26135993,15746730,0.0,3.31,0.0,6.36,0.0,12.27,0.05,0.03
1521997588.30222487,15787595,0.0,3.36,0.0,6.71,0.0,12.44,0.05,0.03
1521997588.34140587,15826776,0.0,3.4,0.0,7.05,0.0,12.61,0.05,0.03
1521997588.38193274,15867303,0.0,3.43,0.0,7.4,0.0,12.75,0.05,0.03
1521997588.42185283,15907223,0.0,3.42,0.0,7.49,0.0,12.87,0.05,0.03
1521997588.46104693,15946417,0.0,3.35,0.0,7.33,0.0,13.0,0.05,0.03
1521997588.50205493,15987425,0.0,3.27,0.0,7.18,0.0,13.14,0.05,0.03
1521997588.54148078,16026851,0.0,3.19,0.0,7.02,0.0,13.28,0.05,0.03
1521997588.58201385,16067384,0.0,3.13,0.0,6.87,0.0,13.41,0.05,0.03
1521997588.62215281,16107523,0.0,2.94,0.0,6.75,0.0,13.51,0.06,0.03
1521997588.66144586,16146816,0.0,2.59,0.0,6.68,0.0,13.52,0.06,0.03
1521997588.70210576,16187476,0.0,2.24,0.0,6.61,0.0,13.45,0.06,0.03
1521997588.74131680,16226687,0.0,1.91,0.0,6.53,0.0,13.38,0.06,0.03
1521997588.78170776,16267078,0.0,1.55,0.0,6.46,0.0,13.16,0.06,0.03
1521997588.82217574,16307546,0.0,1.35,0.0,6.45,0.0,12.98,0.05,0.03
1521997588.86105680,16346427,0.0,1.31,0.0,6.51,0.0,12.76,0.05,0.04
1521997588.90187383,16387244,0.0,1.27,0.0,6.57,0.0,12.49,0.05,0.04
1521997588.94120193,16426572,0.0,1.23,0.0,6.63,0.0,12.23,0.05,0.05
1521997588.98172784,16467098,0.0,1.17,0.0,6.69,0.0,11.96,0.05,0.05
1521997589.02240276,16507773,0.0,1.11,0.0,6.53,0.0,11.7,0.06,0.05
1521997589.06132174,16546692,0.0,1.03,0.0,6.14,0.0,11.47,0.06,0.05
1521997589.10185790,16587228,0.0,0.95,0.0,5.77,0.0,11.26,0.06,0.05
1521997589.14099193,16626362,0.0,0.87,0.0,5.39,0.0,11.06,0.06,0.05
1521997589.18154478,16666915,0.0,0.8,0.0,5.01,0.0,10.88,0.06,0.05
1521997589.22225881,16707629,0.0,0.82,0.0,4.95,0.0,10.72,0.06,0.05
1521997589.26138377,16746754,0.0,0.93,0.0,5.23,0.0,10.59,0.06,0.05
1521997589.30235195,16787722,0.0,1.04,0.0,5.5,0.0,10.5,0.06,0.05
1521997589.34107685,16826447,0.0,1.16,0.0,5.77,0.0,10.41,0.06,0.04
1521997589.38157988,16866950,0.0,1.29,0.0,6.04,0.0,10.39,0.06,0.04
1521997589.42222595,16907596,0.0,1.43,0.0,6.1,0.0,10.38,0.06,0.04
1521997589.46116090,16946531,0.0,1.63,0.0,5.94,0.0,10.4,0.06,0.03
1521997589.50210476,16987475,0.0,1.83,0.0,5.79,0.0,10.43,0.06,0.03
1521997589.54123473,17026605,0.0,2.02,0.0,5.63,0.0,10.47,0.06,0.03
1521997589.58166385,17067034,0.0,2.2,0.0,5.47,0.0,10.51,0.06,0.03
1521997589.62239480,17107765,0.0,2.38,0.0,5.49,0.0,10.55,0.06,0.03
1521997589.66139174,17146762,0.0,2.53,0.0,5.67,0.0,10.62,0.06,0.03
1521997589.70233679,17187707,0.0,2.68,0.0,5.85,0.0,10.72,0.06,0.03
1521997589.74124479,17226615,0.0,2.83,0.0,6.04,0.0,10.81,0.06,0.03
1521997589.78154993,17266920,0.0,2.99,0.0,6.22,0.0,11.0,0.06,0.03
1521997589.82174683,17307117,0.0,3.05,0.0,6.33,0.0,11.18,0.05,0.03
1521997589.86147785,17346848,0.0,3.01,0.0,6.37,0.0,11.37,0.05,0.04
1521997589.90233183,17387702,0.0,2.97,0.0,6.41,0.0,11.58,0.05,0.04
1521997589.94133687,17426707,0.0,2.94,0.0,6.45,0.0,11.78,0.05,0.04
1521997589.98163080,17467001,0.0,2.9,0.0,6.49,0.0,11.94,0.05,0.04
1521997590.02236676,17507737,0.0,2.8,0.0,6.48,0.0,12.08,0.05,0.04
1521997590.06145096,17546821,0.0,2.67,0.0,6.43,0.0,12.17,0.05,0.04
1521997590.10199594,17587366,0.0,2.53,0.0,6.38,0.0,12.22,0.05,0.04
1521997590.14122677,17626597,0.0,2.39,0.0,6.34,0.0,12.27,0.05,0.03
1521997590.18163586,17667006,0.0,2.25,0.0,6.29,0.0,12.33,0.05,0.03
1521997590.22189093,17707261,0.0,2.09,0.0,6.27,0.0,12.39,0.05,0.03
1521997590.26138282,17746753,0.0,1.91,0.0,6.28,0.0,12.37,0.05,0.03
1521997590.30246377,17787834,0.0,1.71,0.0,6.28,0.0,12.3,0.05,0.03
1521997590.34127283,17826643,0.0,1.52,0.0,6.29,0.0,12.23,0.05,0.03
1521997590.38179874,17867169,0.0,1.32,0.0,6.29,0.0,12.1,0.05,0.03
1521997590.42183089,17907201,0.0,1.27,0.0,6.19,0.0,11.99,0.05,0.03
1521997590.46127772,17946648,0.0,1.34,0.0,5.99,0.0,11.89,0.05,0.03
1521997590.50207376,17987444,0.0,1.42,0.0,5.78,0.0,11.78,0.05,0.03
1521997590.54139876,18026769,0.0,1.5,0.0,5.58,0.0,11.68,0.05,0.03
1521997590.58163476,18067005,0.0,1.58,0.0,5.37,0.0,11.58,0.05,0.03
1521997590.62179494,18107165,0.0,1.54,0.0,5.33,0.0,11.47,0.05,0.03
1521997590.66138887,18146759,0.0,1.4,0.0,5.46,0.0,11.37,0.05,0.03
1521997590.70235276,18187723,0.0,1.26,0.0,5.59,0.0,11.28,0.05,0.03
1521997590.74118590,18226556,0.0,1.12,0.0,5.71,0.0,11.19,0.05,0.03
1521997590.78159785,18266968,0.0,0.97,0.0,5.84,0.0,11.04,0.05,0.03
1521997590.82197881,18307349,0.0,0.86,0.0,5.81,0.0,10.89,0.05,0.03
1521997590.86118388,18346554,0.0,0.79,0.0,5.61,0.0,10.73,0.05,0.03
1521997590.90200377,18387374,0.0,0.71,0.0,5.42,0.0,10.56,0.05,0.03
1521997590.94147182,18426842,0.0,0.64,0.0,5.23,0.0,10.39,0.05,0.04
1521997590.98188972,18467260,0.0,0.57,0.0,5.03,0.0,10.25,0.05,0.04
1521997591.02245378,18507824,0.0,0.56,0.0,5.03,0.0,10.13,0.05,0.04
1521997591.06132579,18546696,0.0,0.61,0.0,5.22,0.0,9.99,0.05,0.04
1521997591.10201073,18587381,0.0,0.66,0.0,5.42,0.0,9.82,0.05,0.04
1521997591.14105773,18626428,0.0,0.71,0.0,5.61,0.0,9.67,0.05,0.03
1521997591.18167591,18667046,0.0,0.77,0.0,5.8,0.0,9.62,0.05,0.03
1521997591.22186494,18707235,0.0,0.89,0.0,5.81,0.0,9.59,0.05,0.03
1521997591.26130390,18746674,0.0,1.07,0.0,5.64,0.0,9.57,0.05,0.03
1521997591.30237794,18787748,0.0,1.26,0.0,5.46,0.0,9.55,0.05,0.03
1521997591.34107995,18826450,0.0,1.44,0.0,5.29,0.0,9.54,0.05,0.03
1521997591.38171887,18867089,0.0,1.64,0.0,5.12,0.0,9.63,0.05,0.03
1521997591.42209482,18907465,0.0,1.81,0.0,5.1,0.0,9.72,0.05,0.03
1521997591.46123290,18946603,0.0,1.95,0.0,5.22,0.0,9.85,0.05,0.03
1521997591.50214982,18987520,0.0,2.1,0.0,5.35,0.0,10.02,0.05,0.03
1521997591.54132795,19026698,0.0,2.24,0.0,5.48,0.0,10.18,0.05,0.04
1521997591.58162594,19066996,0.0,2.4,0.0,5.6,0.0,10.41,0.05,0.04
1521997591.62186193,19107232,0.0,2.56,0.0,5.74,0.0,10.62,0.05,0.04
1521997591.66092181,19146292,0.0,2.73,0.0,5.9,0.0,10.84,0.05,0.04
1521997591.70227981,19187650,0.0,2.9,0.0,6.05,0.0,11.05,0.05,0.04
1521997591.74122596,19226596,0.0,3.08,0.0,6.21,0.0,11.25,0.05,0.04
1521997591.78183579,19267206,0.0,3.25,0.0,6.36,0.0,11.47,0.05,0.04
1521997591.82202888,19307399,0.0,3.4,0.0,6.49,0.0,11.67,0.05,0.04
1521997591.86113882,19346509,0.0,3.53,0.0,6.6,0.0,11.92,0.05,0.05
1521997591.90230989,19387680,0.0,3.66,0.0,6.7,0.0,12.22,0.05,0.05
1521997591.94127178,19426642,0.0,3.79,0.0,6.81,0.0,12.51,0.05,0.06
1521997591.98210287,19467473,0.0,3.92,0.0,6.92,0.0,12.76,0.05,0.06
1521997592.02249980,19507870,0.0,3.96,0.0,6.89,0.0,12.99,0.05,0.06
1521997592.06173682,19547107,0.0,3.92,0.0,6.75,0.0,13.22,0.05,0.06
1521997592.10211492,19587485,0.0,3.88,0.0,6.6,0.0,13.47,0.05,0.06
1521997592.14129281,19626663,0.0,3.83,0.0,6.45,0.0,13.7,0.05,0.07
1521997592.18176484,19667135,0.0,3.79,0.0,6.31,0.0,13.93,0.05,0.07
1521997592.22181392,19707184,0.0,3.68,0.0,6.22,0.0,14.13,0.05,0.07
1521997592.26128173,19746652,0.0,3.5,0.0,6.2,0.0,14.3,0.05,0.06
1521997592.30212188,19787492,0.0,3.32,0.0,6.19,0.0,14.42,0.05,0.06
1521997592.34158182,19826952,0.0,3.14,0.0,6.17,0.0,14.53,0.05,0.05
1521997592.38167787,19867048,0.0,2.96,0.0,6.15,0.0,14.6,0.05,0.05
1521997592.42168975,19907060,0.0,2.97,0.0,6.24,0.0,14.68,0.05,0.05
1521997592.46129489,19946665,0.0,3.18,0.0,6.43,0.0,14.74,0.05,0.04
1521997592.50238085,19987751,0.0,3.38,0.0,6.62,0.0,14.76,0.05,0.04
1521997592.54135084,20026721,0.0,3.58,0.0,6.81,0.0,14.79,0.05,0.04
1521997592.58157182,20066942,0.0,3.79,0.0,6.99,0.0,14.91,0.05,0.04
1521997592.62193274,20107303,0.0,3.82,0.0,7.06,0.0,15.01,0.05,0.04
1521997592.66095281,20146323,0.0,3.66,0.0,7.01,0.0,15.07,0.05,0.04
1521997592.70204473,20187415,0.0,3.49,0.0,6.96,0.0,15.14,0.05,0.04
1521997592.74135876,20226729,0.0,3.33,0.0,6.91,0.0,15.2,0.05,0.03
1521997592.78194785,20267318,0.0,3.15,0.0,6.85,0.0,15.19,0.05,0.03
1521997592.82185388,20307224,0.0,2.96,0.0,6.72,0.0,15.18,0.06,0.03
1521997592.86130190,20346672,0.0,2.75,0.0,6.5,0.0,15.14,0.06,0.02
1521997592.90198278,20387353,0.0,2.54,0.0,6.27,0.0,15.08,0.06,0.02
1521997592.94115591,20426526,0.0,2.33,0.0,6.05,0.0,15.02,0.06,0.03
1521997592.98162293,20466993,0.0,2.11,0.0,5.83,0.0,14.86,0.06,0.03
1521997593.02294874,20508319,0.0,1.92,0.0,5.83,0.0,14.72,0.06,0.03
1521997593.06160688,20546977,0.0,1.74,0.0,6.04,0.0,14.54,0.06,0.03
1521997593.10233474,20587705,0.0,1.57,0.0,6.26,0.0,14.32,0.06,0.03
1521997593.14142394,20626794,0.0,1.39,0.0,6.47,0.0,14.12,0.06,0.04
1521997593.18164277,20667013,0.0,1.21,0.0,6.68,0.0,13.92,0.06,0.04
1521997593.22187090,20707241,0.0,1.13,0.0,6.77,0.0,13.73,0.05,0.04
1521997593.26097178,20746342,0.0,1.15,0.0,6.78,0.0,13.55,0.05,0.04
1521997593.30218077,20787551,0.0,1.15,0.0,6.76,0.0,13.36,0.05,0.04
1521997593.34137988,20826750,0.0,1.15,0.0,6.75,0.0,13.18,0.05,0.04
1521997593.38161588,20866986,0.0,1.16,0.0,6.74,0.0,13.0,0.05,0.04
1521997593.42174888,20907119,0.0,1.17,0.0,6.56,0.0,12.83,0.06,0.04
1521997593.46125889,20946629,0.0,1.14,0.0,6.2,0.0,12.64,0.06,0.05
1521997593.50197482,20987345,0.0,1.11,0.0,5.83,0.0,12.43,0.06,0.05
1521997593.54160190,21026972,0.0,1.08,0.0,5.47,0.0,12.23,0.06,0.05
1521997593.58179379,21067164,0.0,1.05,0.0,5.1,0.0,12.02,0.06,0.05
1521997593.62178183,21107152,0.0,1.02,0.0,4.96,0.0,11.84,0.05,0.05
1521997593.66094494,21146315,0.0,0.98,0.0,5.04,0.0,11.64,0.05,0.05
1521997593.70190787,21187278,0.0,0.94,0.0,5.13,0.0,11.48,0.05,0.05
1521997593.74141288,21226783,0.0,0.89,0.0,5.21,0.0,11.32,0.05,0.05
1521997593.78189182,21267262,0.0,0.87,0.0,5.29,0.0,11.22,0.05,0.05
1521997593.82184672,21307217,0.0,0.96,0.0,5.35,0.0,11.16,0.05,0.05
1521997593.86127496,21346645,0.0,1.13,0.0,5.43,0.0,11.11,0.05,0.04
1521997593.90207386,21387444,0.0,1.35,0.0,5.43,0.0,11.09,0.05,0.04
1521997593.94124389,21426614,0.0,1.62,0.0,5.49,0.0,11.04,0.05,0.03
1521997593.98190379,21467274,0.0,1.85,0.0,5.54,0.0,11.11,0.05,0.03
1521997594.02246785,21507838,0.0,1.8,0.0,5.53,0.0,11.16,0.06,0.03
1521997594.06136394,21546734,0.0,1.52,0.0,5.47,0.0,11.13,0.06,0.03
1521997594.10241675,21587787,0.0,1.24,0.0,5.43,0.0,11.05,0.06,0.03
1521997594.14126492,21626635,0.0,0.91,0.0,5.37,0.0,10.97,0.06,0.03
1521997594.18202877,21667399,0.0,0.56,0.0,5.33,0.0,10.79,0.06,0.03
1521997594.22186279,21707233,0.0,0.67,0.0,5.34,0.0,10.65,0.07,0.03
1521997594.26126385,21746634,0.0,1.2,0.0,5.46,0.0,10.6,0.07,0.03
1521997594.30200696,21787377,0.0,1.68,0.0,5.58,0.0,10.61,0.07,0.03
1521997594.34127474,21826645,0.0,2.15,0.0,5.72,0.0,10.62,0.07,0.03
1521997594.38194585,21867316,0.0,2.71,0.0,5.83,0.0,10.82,0.07,0.03
1521997594.42176890,21907139,0.0,3.11,0.0,5.98,0.0,10.99,0.07,0.03
1521997594.46103883,21946409,0.0,3.3,0.0,6.14,0.0,11.24,0.07,0.05
1521997594.50204587,21987416,0.0,3.5,0.0,6.28,0.0,11.59,0.07,0.05
1521997594.54146290,22026833,0.0,3.73,0.0,6.44,0.0,11.92,0.07,0.06
1521997594.58163881,22067009,0.0,3.98,0.0,6.58,0.0,12.27,0.07,0.06
1521997594.62186694,22107237,0.0,4.01,0.0,6.66,0.0,12.56,0.07,0.06
1521997594.66125584,22146626,0.0,3.84,0.0,6.67,0.0,12.81,0.07,0.06
1521997594.70196390,22187334,0.0,3.7,0.0,6.75,0.0,13.05,0.07,0.06
1521997594.74115491,22226525,0.0,3.56,0.0,6.77,0.0,13.27,0.07,0.06
1521997594.78201985,22267390,0.0,3.39,0.0,6.77,0.0,13.43,0.07,0.06
1521997594.82184577,22307216,0.0,3.34,0.0,6.79,0.0,13.61,0.05,0.06
1521997594.86131287,22346683,0.0,3.43,0.0,6.79,0.0,13.73,0.05,0.05
1521997594.90211082,22387481,0.0,3.53,0.0,6.81,0.0,13.78,0.05,0.05
1521997594.94131374,22426684,0.0,3.61,0.0,6.82,0.0,13.84,0.05,0.05
1521997594.98168373,22467054,0.0,3.68,0.0,6.82,0.0,13.97,0.05,0.05
1521997595.02244782,22507818,0.0,3.59,0.0,6.63,0.0,14.07,0.07,0.05
1521997595.06139874,22546769,0.0,3.34,0.0,6.25,0.0,14.14,0.07,0.04
1521997595.10212183,22587492,0.0,3.08,0.0,5.87,0.0,14.2,0.07,0.04
1521997595.14150190,22626872,0.0,2.81,0.0,5.48,0.0,14.26,0.07,0.04
1521997595.18169093,22667061,0.0,2.55,0.0,5.08,0.0,14.27,0.07,0.04
1521997595.22204375,22707414,0.0,2.28,0.0,4.98,0.0,14.26,0.07,0.04
1521997595.26097679,22746347,0.0,1.97,0.0,5.11,0.0,14.18,0.07,0.04
1521997595.30206585,22787436,0.0,1.65,0.0,5.26,0.0,14.03,0.07,0.04
1521997595.34132290,22826693,0.0,1.33,0.0,5.39,0.0,13.87,0.07,0.04
1521997595.38179994,22867170,0.0,1.01,0.0,5.54,0.0,13.6,0.07,0.04
1521997595.42193675,22907307,0.0,0.97,0.0,5.69,0.0,13.36,0.08,0.04
1521997595.46161485,22946985,0.0,1.26,0.0,5.89,0.0,13.16,0.08,0.05
1521997595.50203681,22987407,0.0,1.56,0.0,6.09,0.0,12.96,0.08,0.05
1521997595.54133582,23026706,0.0,1.85,0.0,6.28,0.0,12.78,0.08,0.05
1521997595.58163595,23067006,0.0,2.14,0.0,6.48,0.0,12.69,0.08,0.05
1521997595.62201977,23107390,0.0,2.28,0.0,6.61,0.0,12.59,0.06,0.05
1521997595.66104984,23146420,0.0,2.29,0.0,6.64,0.0,12.5,0.06,0.04
1521997595.70210385,23187474,0.0,2.28,0.0,6.68,0.0,12.45,0.06,0.04
1521997595.74118185,23226552,0.0,2.29,0.0,6.73,0.0,12.41,0.06,0.04
1521997595.78169084,23267061,0.0,2.29,0.0,6.77,0.0,12.35,0.06,0.04
1521997595.82217789,23307548,0.0,2.27,0.0,6.74,0.0,12.29,0.05,0.04
1521997595.86086082,23346231,0.0,2.24,0.0,6.64,0.0,12.25,0.05,0.03
1521997595.90202785,23387398,0.0,2.21,0.0,6.55,0.0,12.23,0.05,0.03
1521997595.94144487,23426815,0.0,2.18,0.0,6.46,0.0,12.21,0.05,0.02
1521997595.98158979,23466960,0.0,2.16,0.0,6.37,0.0,12.22,0.05,0.02
1521997596.02246785,23507838,0.0,2.14,0.0,6.28,0.0,12.22,0.05,0.02
1521997596.06129289,23546663,0.0,2.11,0.0,6.22,0.0,12.23,0.05,0.02
1521997596.10208678,23587457,0.0,2.07,0.0,6.17,0.0,12.25,0.05,0.02
1521997596.14096379,23626334,0.0,2.02,0.0,6.09,0.0,12.26,0.05,0.01
1521997596.18157983,23666950,0.0,1.98,0.0,6.05,0.0,12.27,0.05,0.01
1521997596.22207689,23707447,0.0,2.07,0.0,6.11,0.0,12.3,0.05,0.01
1521997596.26097894,23746349,0.0,2.23,0.0,6.31,0.0,12.33,0.05,0.01
1521997596.30232382,23787694,0.0,2.41,0.0,6.5,0.0,12.37,0.05,0.01
1521997596.34106994,23826440,0.0,2.59,0.0,6.7,0.0,12.4,0.05,0.02
1521997596.38185191,23867222,0.0,2.79,0.0,6.91,0.0,12.59,0.05,0.02
1521997596.42209077,23907461,0.0,2.85,0.0,6.99,0.0,12.74,0.06,0.02
1521997596.46125388,23946624,0.0,2.86,0.0,6.95,0.0,12.81,0.06,0.02
1521997596.50198579,23987356,0.0,2.85,0.0,6.96,0.0,12.81,0.06,0.02
1521997596.54132390,24026694,0.0,2.83,0.0,6.97,0.0,12.83,0.06,0.02
1521997596.58168983,24067060,0.0,2.78,0.0,6.9,0.0,12.84,0.06,0.02
1521997596.62206984,24107440,0.0,2.73,0.0,6.9,0.0,12.83,0.05,0.02
1521997596.66115689,24146527,0.0,2.76,0.0,6.89,0.0,12.89,0.05,0.02
1521997596.70221376,24187584,0.0,2.76,0.0,6.78,0.0,12.92,0.05,0.02
1521997596.74117684,24226547,0.0,2.74,0.0,6.84,0.0,12.91,0.05,0.01
1521997596.78159285,24266963,0.0,2.76,0.0,6.77,0.0,12.92,0.05,0.01
1521997596.82201791,24307388,0.0,2.75,0.0,6.75,0.0,12.89,0.05,0.01
1521997596.86136794,24346738,0.0,2.73,0.0,6.7,0.0,12.88,0.05,0.02
1521997596.90207577,24387446,0.0,2.72,0.0,6.71,0.0,12.9,0.05,0.02
1521997596.94154978,24426920,0.0,2.7,0.0,6.69,0.0,12.9,0.05,0.02
1521997596.98179889,24467169,0.0,2.69,0.0,6.7,0.0,12.92,0.05,0.02
1521997597.02249289,24507863,0.0,2.67,0.0,6.68,0.0,12.93,0.05,0.02
1521997597.06129885,24546669,0.0,2.65,0.0,6.69,0.0,12.94,0.05,0.02
1521997597.10212684,24587497,0.0,2.63,0.0,6.7,0.0,12.95,0.05,0.02
1521997597.14124179,24626612,0.0,2.61,0.0,6.69,0.0,12.95,0.05,0.02
1521997597.18160582,24666976,0.0,2.61,0.0,6.7,0.0,12.97,0.05,0.02
1521997597.22214985,24707520,0.0,2.59,0.0,6.7,0.0,12.97,0.04,0.02
1521997597.26102996,24746400,0.0,2.58,0.0,6.69,0.0,12.99,0.04,0.02
1521997597.30214596,24787516,0.0,2.56,0.0,6.69,0.0,13.0,0.04,0.02
1521997597.34163976,24827010,0.0,2.57,0.0,6.69,0.0,13.01,0.04,0.02
1521997597.38189387,24867264,0.0,2.57,0.0,6.68,0.0,13.03,0.04,0.02
1521997597.42205191,24907422,0.0,2.56,0.0,6.67,0.0,13.04,0.03,0.02
1521997597.46106291,24946433,0.0,2.57,0.0,6.67,0.0,13.06,0.03,0.02
1521997597.50236583,24987736,0.0,2.59,0.0,6.67,0.0,13.06,0.03,0.02
1521997597.54133177,25026702,0.0,2.61,0.0,6.66,0.0,13.08,0.03,0.03
1521997597.58174491,25067115,0.0,2.61,0.0,6.66,0.0,13.1,0.03,0.03
1521997597.62183595,25107206,0.0,2.63,0.0,6.66,0.0,13.12,0.04,0.03
1521997597.66124582,25146616,0.0,2.66,0.0,6.67,0.0,13.13,0.04,0.02
1521997597.70205975,25187430,0.0,2.69,0.0,6.69,0.0,13.14,0.04,0.02
1521997597.74125481,25226625,0.0,2.73,0.0,6.7,0.0,13.15,0.04,0.02
1521997597.78177595,25267146,0.0,2.76,0.0,6.72,0.0,13.16,0.04,0.02
1521997597.82187295,25307243,0.0,2.75,0.0,6.71,0.0,13.17,0.05,0.02
1521997597.86125588,25346626,0.0,2.73,0.0,6.68,0.0,13.17,0.05,0.02
1521997597.90238690,25387757,0.0,2.7,0.0,6.64,0.0,13.17,0.05,0.02
1521997597.94121575,25426586,0.0,2.66,0.0,6.61,0.0,13.17,0.05,0.01
1521997597.98188591,25467256,0.0,2.63,0.0,6.58,0.0,13.17,0.05,0.01
1521997598.02261686,25507987,0.0,2.61,0.0,6.55,0.0,13.17,0.05,0.01
1521997598.06107879,25546449,0.0,2.6,0.0,6.53,0.0,13.18,0.05,0.01
1521997598.10212088,25587491,0.0,2.59,0.0,6.51,0.0,13.18,0.05,0.01
1521997598.14147472,25626845,0.0,2.58,0.0,6.49,0.0,13.19,0.05,0.01
1521997598.18187284,25667243,0.0,2.58,0.0,6.47,0.0,13.19,0.05,0.01
1521997598.22176075,25707131,0.0,2.58,0.0,6.46,0.0,13.19,0.04,0.01
1521997598.26121092,25746581,0.0,2.59,0.0,6.46,0.0,13.2,0.04,0.01
1521997598.30236173,25787732,0.0,2.6,0.0,6.46,0.0,13.21,0.04,0.01
1521997598.34140491,25826775,0.0,2.61,0.0,6.46,0.0,13.21,0.04,0.01
1521997598.38200378,25867374,0.0,2.62,0.0,6.47,0.0,13.22,0.04,0.01
1521997598.42206693,25907437,0.0,2.61,0.0,6.47,0.0,13.23,0.04,0.01
1521997598.46154094,25946911,0.0,2.61,0.0,6.48,0.0,13.24,0.04,0.01
1521997598.50192285,25987293,0.0,2.62,0.0,6.49,0.0,13.25,0.04,0.01
1521997598.54137278,26026743,0.0,2.62,0.0,6.5,0.0,13.26,0.04,0.02
1521997598.58160186,26066972,0.0,2.62,0.0,6.51,0.0,13.27,0.04,0.02
1521997598.62197375,26107344,0.0,2.6,0.0,6.5,0.0,13.28,0.04,0.02
1521997598.66123676,26146607,0.0,2.57,0.0,6.48,0.0,13.29,0.04,0.02
1521997598.70224285,26187613,0.0,2.53,0.0,6.46,0.0,13.29,0.04,0.02
1521997598.74136686,26226737,0.0,2.49,0.0,6.44,0.0,13.3,0.04,0.02
1521997598.78168774,26267058,0.0,2.46,0.0,6.42,0.0,13.3,0.04,0.02
1521997598.82197094,26307341,0.0,2.46,0.0,6.41,0.0,13.31,0.04,0.02
1521997598.86085486,26346225,0.0,2.48,0.0,6.42,0.0,13.32,0.04,0.01
1521997598.90202785,26387398,0.0,2.49,0.0,6.42,0.0,13.33,0.04,0.01
1521997598.94163489,26427005,0.0,2.5,0.0,6.43,0.0,13.33,0.04,0.01
1521997598.98151493,26466885,0.0,2.51,0.0,6.43,0.0,13.33,0.04,0.01
1521997599.02261686,26507987,0.0,2.54,0.0,6.44,0.0,13.33,0.05,0.01
1521997599.06127787,26546648,0.0,2.57,0.0,6.45,0.0,13.33,0.05,0.01
1521997599.10190773,26587278,0.0,2.58,0.0,6.47,0.0,13.34,0.05,0.01
1521997599.14141083,26626781,0.0,2.6,0.0,6.49,0.0,13.35,0.05,0.01
1521997599.18168783,26667058,0.0,2.64,0.0,6.5,0.0,13.35,0.05,0.01
1521997599.22188187,26707252,0.0,2.63,0.0,6.49,0.0,13.36,0.06,0.01
1521997599.26098585,26746356,0.0,2.58,0.0,6.45,0.0,13.35,0.06,0.01
1521997599.30213594,26787506,0.0,2.53,0.0,6.41,0.0,13.35,0.06,0.01
1521997599.34141874,26826789,0.0,2.49,0.0,6.37,0.0,13.34,0.06,0.01
1521997599.38178873,26867159,0.0,2.44,0.0,6.33,0.0,13.33,0.06,0.01
1521997599.42233777,26907708,0.0,2.42,0.0,6.31,0.0,13.33,0.06,0.01
1521997599.46145082,26946821,0.0,2.44,0.0,6.31,0.0,13.32,0.06,0.01
1521997599.50214076,26987511,0.0,2.47,0.0,6.32,0.0,13.31,0.06,0.01
1521997599.54133987,27026710,0.0,2.49,0.0,6.32,0.0,13.3,0.06,0.01
1521997599.58178282,27067153,0.0,2.51,0.0,6.33,0.0,13.31,0.06,0.01
1521997599.62198591,27107356,0.0,2.53,0.0,6.33,0.0,13.31,0.05,0.01
1521997599.66127086,27146641,0.0,2.53,0.0,6.32,0.0,13.31,0.05,0.01
1521997599.70212483,27187495,0.0,2.52,0.0,6.31,0.0,13.31,0.05,0.01
1521997599.74128985,27226660,0.0,2.51,0.0,6.31,0.0,13.3,0.05,0.01
1521997599.78167772,27267048,0.0,2.51,0.0,6.3,0.0,13.3,0.05,0.01
1521997599.82187080,27307241,0.0,2.51,0.0,6.29,0.0,13.29,0.04,0.01
1521997599.86125994,27346630,0.0,2.5,0.0,6.29,0.0,13.29,0.04,0.01
1521997599.90201473,27387385,0.0,2.49,0.0,6.28,0.0,13.28,0.04,0.01
1521997599.94155073,27426921,0.0,2.49,0.0,6.27,0.0,13.28,0.04,0.01
1521997599.98166776,27467038,0.0,2.48,0.0,6.26,0.0,13.28,0.04,0.01
1521997600.02247286,27507843,0.0,2.46,0.0,6.26,0.0,13.28,0.05,0.01
1521997600.06134582,27546716,0.0,2.42,0.0,6.25,0.0,13.27,0.05,0.01
1521997600.10192180,27587292,0.0,2.39,0.0,6.24,0.0,13.26,0.05,0.01
1521997600.14133286,27626703,0.0,2.35,0.0,6.23,0.0,13.26,0.05,0.01
1521997600.18186688,27667237,0.0,2.31,0.0,6.23,0.0,13.25,0.05,0.01
1521997600.22192574,27707296,0.0,2.31,0.0,6.22,0.0,13.25,0.04,0.01
1521997600.26130676,27746677,0.0,2.32,0.0,6.22,0.0,13.25,0.04,0.01
1521997600.30222583,27787596,0.0,2.33,0.0,6.21,0.0,13.25,0.04,0.01
1521997600.34127378,27826644,0.0,2.35,0.0,6.21,0.0,13.25,0.04,0.0
1521997600.38207984,27867450,0.0,2.37,0.0,6.2,0.0,13.25,0.04,0.0
1521997600.42212296,27907493,0.0,2.38,0.0,6.2,0.0,13.25,0.04,0.0
1521997600.46144176,27946812,0.0,2.39,0.0,6.2,0.0,13.25,0.04,0.0
1521997600.50239778,27987768,0.0,2.4,0.0,6.21,0.0,13.25,0.04,0.0
1521997600.54145288,28026823,0.0,2.41,0.0,6.21,0.0,13.26,0.04,0.0
1521997600.58159184,28066962,0.0,2.41,0.0,6.22,0.0,13.26,0.04,0.0
1521997600.62183475,28107205,0.0,2.4,0.0,6.22,0.0,13.26,0.04,0.0
1521997600.66091990,28146290,0.0,2.4,0.0,6.22,0.0,13.27,0.04,0.0
1521997600.70202494,28187395,0.0,2.39,0.0,6.22,0.0,13.27,0.04,0.0
1521997600.74124575,28226616,0.0,2.38,0.0,6.23,0.0,13.28,0.04,0.01
1521997600.78170276,28267073,0.0,2.36,0.0,6.23,0.0,13.28,0.04,0.01
1521997600.82181287,28307183,0.0,2.35,0.0,6.22,0.0,13.29,0.05,0.01
1521997600.86108088,28346451,0.0,2.31,0.0,6.19,0.0,13.29,0.05,0.0
1521997600.90200186,28387372,0.0,2.28,0.0,6.17,0.0,13.29,0.05,0.0
1521997600.94118190,28426552,0.0,2.24,0.0,6.14,0.0,13.29,0.05,0.0
1521997600.98181176,28467182,0.0,2.21,0.0,6.11,0.0,13.28,0.05,0.0
1521997601.02243090,28507801,0.0,2.2,0.0,6.11,0.0,13.28,0.05,0.0
1521997601.06133795,28546708,0.0,2.22,0.0,6.14,0.0,13.29,0.05,0.0
1521997601.10239983,28587770,0.0,2.24,0.0,6.16,0.0,13.29,0.05,0.0
1521997601.14131474,28626685,0.0,2.26,0.0,6.19,0.0,13.29,0.05,0.0
1521997601.18158388,28666954,0.0,2.27,0.0,6.22,0.0,13.3,0.05,0.0
1521997601.22199678,28707367,0.0,2.3,0.0,6.21,0.0,13.32,0.06,0.0
1521997601.26107287,28746443,0.0,2.34,0.0,6.18,0.0,13.33,0.06,0.0
1521997601.30217695,28787547,0.0,2.37,0.0,6.15,0.0,13.33,0.06,0.0
1521997601.34122682,28826597,0.0,2.4,0.0,6.12,0.0,13.34,0.06,0.01
1521997601.38161993,28866990,0.0,2.44,0.0,6.09,0.0,13.35,0.06,0.01
1521997601.42211676,28907487,0.0,2.45,0.0,6.07,0.0,13.36,0.06,0.01
1521997601.46139884,28946769,0.0,2.42,0.0,6.08,0.0,13.37,0.06,0.01
1521997601.50256991,28987940,0.0,2.39,0.0,6.08,0.0,13.37,0.06,0.01
1521997601.54133987,29026710,0.0,2.37,0.0,6.08,0.0,13.38,0.06,0.01
1521997601.58157682,29066947,0.0,2.35,0.0,6.08,0.0,13.39,0.06,0.01
1521997601.62189889,29107269,0.0,2.32,0.0,6.08,0.0,13.4,0.06,0.01
1521997601.66094184,29146312,0.0,2.28,0.0,6.07,0.0,13.4,0.06,0.01
1521997601.70204878,29187419,0.0,2.24,0.0,6.07,0.0,13.4,0.06,0.01
1521997601.74162483,29226995,0.0,2.21,0.0,6.06,0.0,13.4,0.06,0.01
1521997601.78166080,29267031,0.0,2.17,0.0,6.05,0.0,13.4,0.06,0.01
1521997601.82179594,29307166,0.0,2.16,0.0,6.05,0.0,13.4,0.05,0.01
1521997601.86118484,29346555,0.0,2.17,0.0,6.05,0.0,13.39,0.05,0.01
1521997601.90192580,29387296,0.0,2.19,0.0,6.05,0.0,13.39,0.05,0.01
1521997601.94130683,29426677,0.0,2.2,0.0,6.05,0.0,13.39,0.05,0.01
1521997601.98193884,29467309,0.0,2.21,0.0,6.05,0.0,13.4,0.05,0.01
1521997602.02245474,29507825,0.0,2.22,0.0,6.05,0.0,13.39,0.04,0.01
1521997602.06134892,29546719,0.0,2.22,0.0,6.05,0.0,13.39,0.04,0.01
1521997602.10207176,29587442,0.0,2.22,0.0,6.05,0.0,13.38,0.04,0.01
1521997602.14098883,29626359,0.0,2.22,0.0,6.04,0.0,13.38,0.04,0.01
1521997602.18185186,29667222,0.0,2.22,0.0,6.03,0.0,13.37,0.04,0.01
1521997602.22185779,29707228,0.0,2.24,0.0,6.04,0.0,13.37,0.05,0.01
1521997602.26117373,29746544,0.0,2.27,0.0,6.05,0.0,13.37,0.05,0.01
1521997602.30206680,29787437,0.0,2.3,0.0,6.05,0.0,13.36,0.05,0.01
1521997602.34137774,29826748,0.0,2.33,0.0,6.06,0.0,13.35,0.05,0.01
1521997602.38164687,29867017,0.0,2.36,0.0,6.07,0.0,13.35,0.05,0.01
1521997602.42180395,29907174,0.0,2.37,0.0,6.08,0.0,13.34,0.05,0.01
1521997602.46159196,29946962,0.0,2.36,0.0,6.07,0.0,13.33,0.05,0.02
1521997602.50239682,29987767,0.0,2.34,0.0,6.06,0.0,13.31,0.05,0.02
1521997602.54139781,30026768,0.0,2.32,0.0,6.06,0.0,13.3,0.05,0.02
1521997602.58177686,30067147,0.0,2.3,0.0,6.05,0.0,13.28,0.05,0.02
1521997602.62192774,30107298,0.0,2.28,0.0,6.04,0.0,13.27,0.05,0.02
1521997602.66121674,30146587,0.0,2.27,0.0,6.02,0.0,13.26,0.05,0.02
1521997602.70208383,30187454,0.0,2.26,0.0,6.0,0.0,13.24,0.05,0.02
1521997602.74125290,30226623,0.0,2.24,0.0,5.98,0.0,13.23,0.05,0.02
1521997602.78191495,30267285,0.0,2.22,0.0,5.96,0.0,13.23,0.05,0.02
1521997602.82207084,30307441,0.0,2.22,0.0,5.95,0.0,13.23,0.05,0.02
1521997602.86093688,30346307,0.0,2.24,0.0,5.96,0.0,13.23,0.05,0.02
1521997602.90208387,30387454,0.0,2.27,0.0,5.97,0.0,13.23,0.05,0.02
1521997602.94144177,30426812,0.0,2.29,0.0,5.97,0.0,13.22,0.05,0.02
1521997602.98187876,30467249,0.0,2.32,0.0,5.98,0.0,13.22,0.05,0.02
1521997603.02280283,30508173,0.0,2.33,0.0,5.98,0.0,13.21,0.04,0.02
1521997603.06133485,30546705,0.0,2.32,0.0,5.99,0.0,13.21,0.04,0.01
1521997603.10216689,30587537,0.0,2.31,0.0,6.0,0.0,13.21,0.04,0.01
1521997603.14105773,30626428,0.0,2.31,0.0,6.01,0.0,13.2,0.04,0.02
1521997603.18166280,30667033,0.0,2.3,0.0,6.02,0.0,13.19,0.04,0.02
1521997603.22195482,30707325,0.0,2.29,0.0,6.02,0.0,13.18,0.04,0.02
1521997603.26105595,30746426,0.0,2.27,0.0,6.01,0.0,13.17,0.04,0.01
1521997603.30208373,30787454,0.0,2.25,0.0,5.99,0.0,13.16,0.04,0.01
1521997603.34136581,30826736,0.0,2.23,0.0,5.98,0.0,13.16,0.04,0.02
1521997603.38183188,30867202,0.0,2.21,0.0,5.97,0.0,13.15,0.04,0.02
1521997603.42216277,30907533,0.0,2.21,0.0,5.96,0.0,13.14,0.04,0.02
1521997603.46134496,30946715,0.0,2.23,0.0,5.96,0.0,13.13,0.04,0.02
1521997603.50238585,30987756,0.0,2.24,0.0,5.96,0.0,13.12,0.04,0.02
1521997603.54146981,31026840,0.0,2.26,0.0,5.95,0.0,13.12,0.04,0.02
1521997603.58170795,31067078,0.0,2.28,0.0,5.95,0.0,13.11,0.04,0.02
1521997603.62189794,31107268,0.0,2.27,0.0,5.95,0.0,13.11,0.04,0.02
1521997603.66134691,31146717,0.0,2.24,0.0,5.95,0.0,13.1,0.04,0.01
1521997603.70204782,31187418,0.0,2.2,0.0,5.94,0.0,13.09,0.04,0.01
1521997603.74128580,31226656,0.0,2.17,0.0,5.94,0.0,13.08,0.04,0.01
1521997603.78171086,31267081,0.0,2.13,0.0,5.93,0.0,13.07,0.04,0.01
1521997603.82211280,31307483,0.0,2.11,0.0,5.94,0.0,13.06,0.04,0.01
1521997603.86098886,31346359,0.0,2.11,0.0,5.95,0.0,13.06,0.04,0.02
1521997603.90204787,31387418,0.0,2.12,0.0,5.95,0.0,13.05,0.04,0.02
1521997603.94116473,31426535,0.0,2.13,0.0,5.96,0.0,13.04,0.04,0.01
1521997603.98168278,31467053,0.0,2.13,0.0,5.97,0.0,13.04,0.04,0.01
1521997604.02272296,31508093,0.0,2.13,0.0,5.97,0.0,13.04,0.04,0.01
1521997604.06138992,31546760,0.0,2.18,0.0,5.95,0.0,13.03,0.04,0.01
1521997604.10219479,31587565,0.0,2.21,0.0,5.94,0.0,13.03,0.04,0.01
1521997604.14117074,31626541,0.0,2.23,0.0,5.92,0.0,13.03,0.04,0.01
1521997604.18153596,31666906,0.0,2.25,0.0,5.91,0.0,13.03,0.04,0.01
1521997604.22201085,31707381,0.0,2.25,0.0,5.9,0.0,13.02,0.05,0.01
1521997604.26128983,31746660,0.0,2.23,0.0,5.89,0.0,13.02,0.05,0.01
1521997604.30205894,31787429,0.0,2.2,0.0,5.88,0.0,13.01,0.05,0.01
1521997604.34143090,31826801,0.0,2.18,0.0,5.88,0.0,13.0,0.05,0.01
1521997604.38161993,31866990,0.0,2.15,0.0,5.87,0.0,12.99,0.05,0.01
1521997604.42210674,31907477,0.0,2.13,0.0,5.87,0.0,12.98,0.04,0.01
1521997604.46134973,31946720,0.0,2.11,0.0,5.88,0.0,12.97,0.04,0.01
1521997604.50211382,31987484,0.0,2.1,0.0,5.89,0.0,12.96,0.04,0.01
1521997604.54157090,32026941,0.0,2.09,0.0,5.9,0.0,12.96,0.04,0.02
1521997604.58215785,32067528,0.0,2.07,0.0,5.92,0.0,12.94,0.04,0.02
1521997604.62201595,32107386,0.0,2.06,0.0,5.92,0.0,12.92,0.04,0.02
1521997604.66115093,32146521,0.0,2.06,0.0,5.9,0.0,12.9,0.04,0.03
1521997604.70237088,32187741,0.0,2.06,0.0,5.89,0.0,12.88,0.04,0.03
1521997604.74141884,32226789,0.0,2.06,0.0,5.88,0.0,12.86,0.04,0.02
1521997604.78181386,32267184,0.0,2.06,0.0,5.87,0.0,12.85,0.04,0.02
1521997604.82190394,32307274,0.0,2.08,0.0,5.88,0.0,12.85,0.04,0.02
1521997604.86099792,32346368,0.0,2.1,0.0,5.89,0.0,12.84,0.04,0.03
1521997604.90207291,32387443,0.0,2.13,0.0,5.91,0.0,12.83,0.04,0.03
1521997604.94093895,32426309,0.0,2.16,0.0,5.92,0.0,12.82,0.04,0.03
1521997604.98143291,32466803,0.0,2.19,0.0,5.93,0.0,12.81,0.04,0.03
1521997605.02241492,32507785,0.0,2.19,0.0,5.93,0.0,12.8,0.05,0.03
1521997605.06156683,32546937,0.0,2.15,0.0,5.92,0.0,12.78,0.05,0.03
1521997605.10223389,32587604,0.0,2.11,0.0,5.9,0.0,12.76,0.05,0.03
1521997605.14122486,32626595,0.0,2.07,0.0,5.89,0.0,12.75,0.05,0.03
1521997605.18167686,32667047,0.0,2.03,0.0,5.87,0.0,12.73,0.05,0.03
1521997605.22181773,32707188,0.0,2.0,0.0,5.87,0.0,12.71,0.05,0.03
1521997605.26130390,32746674,0.0,2.0,0.0,5.89,0.0,12.69,0.05,0.03
1521997605.30226493,32787635,0.0,1.98,0.0,5.9,0.0,12.67,0.05,0.03
1521997605.34107375,32826444,0.0,1.96,0.0,5.91,0.0,12.66,0.05,0.03
1521997605.38204885,32867419,0.0,1.94,0.0,5.93,0.0,12.64,0.05,0.03
1521997605.42199278,32907363,0.0,1.94,0.0,5.93,0.0,12.63,0.04,0.03
1521997605.46115875,32946529,0.0,1.94,0.0,5.92,0.0,12.62,0.04,0.03
1521997605.50211692,32987487,0.0,1.94,0.0,5.9,0.0,12.61,0.04,0.03
1521997605.54133272,33026703,0.0,1.93,0.0,5.89,0.0,12.6,0.04,0.03
1521997605.58203578,33067406,0.0,1.93,0.0,5.88,0.0,12.59,0.04,0.03
1521997605.62217879,33107549,0.0,1.95,0.0,5.87,0.0,12.58,0.04,0.03
1521997605.66114187,33146512,0.0,1.96,0.0,5.86,0.0,12.57,0.04,0.03
1521997605.70213079,33187501,0.0,1.98,0.0,5.85,0.0,12.55,0.04,0.03
1521997605.74106789,33226438,0.0,2.01,0.0,5.85,0.0,12.54,0.04,0.03
1521997605.78164172,33267012,0.0,2.03,0.0,5.84,0.0,12.52,0.04,0.03
1521997605.82177377,33307144,0.0,2.05,0.0,5.84,0.0,12.51,0.04,0.03
1521997605.86093473,33346305,0.0,2.06,0.0,5.85,0.0,12.49,0.04,0.04
1521997605.90211773,33387488,0.0,2.08,0.0,5.86,0.0,12.48,0.04,0.04
1521997605.94116688,33426537,0.0,2.09,0.0,5.87,0.0,12.46,0.04,0.04
1521997605.98161292,33466983,0.0,2.09,0.0,5.88,0.0,12.45,0.04,0.04
1521997606.02260590,33507976,0.0,2.06,0.0,5.87,0.0,12.43,0.04,0.04
1521997606.06121778,33546588,0.0,1.93,0.0,5.9,0.0,12.41,0.04,0.04
1521997606.10200691,33587377,0.0,1.65,0.0,5.9,0.0,12.42,0.04,0.04
1521997606.14138174,33626752,0.0,2.0,0.0,5.84,0.0,12.37,0.04,0.03
1521997606.18179893,33667169,0.0,2.03,0.0,5.8,0.0,12.29,0.04,0.03
1521997606.22181392,33707184,0.0,1.95,0.0,5.8,0.0,12.25,0.05,0.03
1521997606.26104379,33746414,0.0,1.91,0.0,5.79,0.0,12.27,0.05,0.03
1521997606.30195475,33787325,0.0,2.01,0.0,5.81,0.0,12.29,0.05,0.03
1521997606.34180284,33827173,0.0,2.12,0.0,5.85,0.0,12.27,0.05,0.02
1521997606.38173079,33867101,0.0,2.12,0.0,5.86,0.0,12.26,0.05,0.02
1521997606.42188072,33907251,0.0,2.06,0.0,5.89,0.0,12.29,0.04,0.02
1521997606.46126676,33946637,0.0,2.04,0.0,5.88,0.0,12.3,0.04,0.02
1521997606.50235677,33987727,0.0,2.06,0.0,5.87,0.0,12.28,0.04,0.02
1521997606.54146481,34026835,0.0,2.04,0.0,5.86,0.0,12.28,0.04,0.02
1521997606.58160186,34066972,0.0,2.01,0.0,5.84,0.0,12.29,0.04,0.02
1521997606.62235880,34107729,0.0,2.0,0.0,5.82,0.0,12.28,0.04,0.02
1521997606.66139984,34146770,0.0,2.01,0.0,5.81,0.0,12.27,0.04,0.02
1521997606.70199585,34187366,0.0,1.98,0.0,5.81,0.0,12.26,0.04,0.02
1521997606.74128985,34226660,0.0,1.95,0.0,5.81,0.0,12.25,0.04,0.02
1521997606.78164387,34267014,0.0,1.94,0.0,5.81,0.0,12.24,0.04,0.02
1521997606.82173896,34307109,0.0,1.93,0.0,5.81,0.0,12.24,0.04,0.02
1521997606.86133981,34346710,0.0,1.95,0.0,5.8,0.0,12.24,0.04,0.02
1521997606.90203190,34387402,0.0,1.99,0.0,5.79,0.0,12.23,0.04,0.02
1521997606.94101977,34426390,0.0,2.01,0.0,5.78,0.0,12.22,0.04,0.02
1521997606.98190880,34467279,0.0,2.02,0.0,5.77,0.0,12.22,0.04,0.02
1521997607.02254295,34507913,0.0,2.01,0.0,5.77,0.0,12.21,0.04,0.02
1521997607.06142187,34546792,0.0,2.0,0.0,5.76,0.0,12.2,0.04,0.02
1521997607.10192180,34587292,0.0,2.0,0.0,5.75,0.0,12.18,0.04,0.02
1521997607.14113688,34626507,0.0,1.97,0.0,5.75,0.0,12.17,0.04,0.02
1521997607.18207979,34667450,0.0,1.96,0.0,5.74,0.0,12.17,0.04,0.02
1521997607.22188878,34707259,0.0,1.97,0.0,5.73,0.0,12.16,0.03,0.02
1521997607.26121783,34746588,0.0,1.97,0.0,5.73,0.0,12.15,0.03,0.02
1521997607.30226088,34787631,0.0,1.79,0.0,5.75,0.0,12.14,0.03,0.02
1521997607.34107780,34826448,0.0,1.85,0.0,5.71,0.0,12.16,0.03,0.02
1521997607.38182187,34867192,0.0,2.0,0.0,5.71,0.0,12.12,0.03,0.02
1521997607.42195988,34907330,0.0,1.9,0.0,5.71,0.0,12.09,0.04,0.02
1521997607.46103477,34946405,0.0,1.84,0.0,5.74,0.0,12.1,0.04,0.03
1521997607.50238776,34987758,0.0,1.84,0.0,5.75,0.0,12.07,0.04,0.03
1521997607.54135990,35026730,0.0,1.82,0.0,5.77,0.0,12.05,0.04,0.02
1521997607.58163381,35067004,0.0,1.75,0.0,5.77,0.0,12.06,0.04,0.02
1521997607.62210989,35107480,0.0,1.77,0.0,5.77,0.0,12.04,0.04,0.02
1521997607.66131592,35146686,0.0,1.84,0.0,5.77,0.0,12.02,0.04,0.02
1521997607.70200682,35187377,0.0,1.85,0.0,5.75,0.0,12.01,0.04,0.02
1521997607.74124575,35226616,0.0,1.86,0.0,5.73,0.0,12.01,0.04,0.02
1521997607.78169894,35267069,0.0,1.91,0.0,5.72,0.0,11.99,0.04,0.02
1521997607.82183886,35307209,0.0,1.95,0.0,5.71,0.0,11.98,0.05,0.02
1521997607.86091590,35346286,0.0,1.99,0.0,5.7,0.0,11.96,0.05,0.02
1521997607.90237188,35387742,0.0,2.02,0.0,5.72,0.0,11.93,0.05,0.02
1521997607.94147778,35426848,0.0,1.98,0.0,5.74,0.0,11.92,0.05,0.02
1521997607.98176193,35467132,0.0,1.98,0.0,5.78,0.0,11.9,0.05,0.02
1521997608.02247477,35507845,0.0,2.04,0.0,5.8,0.0,11.91,0.05,0.02
1521997608.06142187,35546792,0.0,2.04,0.0,5.8,0.0,11.91,0.05,0.01
1521997608.10192180,35587292,0.0,1.97,0.0,5.84,0.0,11.91,0.05,0.01
1521997608.14137173,35626742,0.0,1.91,0.0,5.92,0.0,11.94,0.05,0.01
1521997608.18185091,35667221,0.0,1.8,0.0,5.97,0.0,11.96,0.05,0.01
1521997608.22230577,35707676,0.0,1.95,0.0,5.97,0.0,11.98,0.04,0.01
1521997608.26094174,35746312,0.0,2.09,0.0,5.9,0.0,12.01,0.04,0.01
1521997608.30211377,35787484,0.0,2.09,0.0,5.96,0.0,12.05,0.04,0.01
1521997608.34100795,35826378,0.0,1.97,0.0,6.08,0.0,12.07,0.04,0.01
1521997608.38176894,35867139,0.0,1.77,0.0,5.82,0.0,12.09,0.04,0.01
1521997608.42210293,35907473,0.0,1.57,0.0,5.8,0.0,12.15,0.04,0.01
1521997608.46129775,35946668,0.0,1.5,0.0,6.09,0.0,12.26,0.04,0.01
1521997608.50200391,35987374,0.0,1.63,0.0,5.86,0.0,12.38,0.04,0.01
1521997608.54146075,36026831,0.0,1.8,0.0,5.54,0.0,12.59,0.04,0.01
1521997608.58190680,36067277,0.0,1.91,0.0,5.83,0.0,12.88,0.04,0.01
1521997608.62185979,36107230,0.0,2.08,0.0,6.12,0.0,13.23,0.04,0.01
1521997608.66139078,36146761,0.0,2.29,0.0,5.73,0.0,13.51,0.04,0.01
1521997608.70233679,36187707,0.0,2.09,0.0,5.6,0.0,13.89,0.04,0.01
1521997608.74104691,36226417,0.0,1.49,0.0,5.67,0.0,14.37,0.04,0.01
1521997608.78176785,36267138,0.0,1.74,0.0,6.19,0.0,14.89,0.04,0.01
1521997608.82187986,36307250,0.0,2.04,0.0,5.95,0.0,15.22,0.04,0.01
1521997608.86094475,36346315,0.0,1.95,0.0,5.84,0.0,15.6,0.04,0.02
1521997608.90207076,36387441,0.0,1.78,0.0,5.93,0.0,16.07,0.04,0.02
1521997608.94140887,36426779,0.0,1.84,0.0,6.14,0.0,16.51,0.04,0.02
1521997608.98166895,36467039,0.0,1.82,0.0,5.8,0.0,16.81,0.04,0.02
1521997609.02247286,36507843,0.0,1.65,0.0,5.89,0.0,17.19,0.04,0.02
1521997609.06141376,36546784,0.0,1.81,0.0,6.16,0.0,17.66,0.04,0.03
1521997609.10200882,36587379,0.0,1.68,0.0,6.02,0.0,18.03,0.04,0.03
1521997609.14120889,36626579,0.0,1.69,0.0,5.8,0.0,18.38,0.04,0.03
1521997609.18171191,36667082,0.0,1.98,0.0,5.98,0.0,18.85,0.04,0.03
1521997609.22198176,36707352,0.0,2.03,0.0,6.35,0.0,19.39,0.04,0.03
1521997609.26135683,36746727,0.0,1.97,0.0,6.15,0.0,19.77,0.04,0.03
1521997609.30203295,36787403,0.0,1.85,0.0,5.99,0.0,20.09,0.04,0.03
1521997609.34127975,36826650,0.0,1.74,0.0,6.08,0.0,20.42,0.04,0.03
1521997609.38171387,36867084,0.0,1.54,0.0,5.92,0.0,20.67,0.04,0.03
1521997609.42183685,36907207,0.0,1.41,0.0,6.07,0.0,20.96,0.05,0.03
1521997609.46132684,36946697,0.0,1.39,0.0,5.75,0.0,21.18,0.05,0.03
1521997609.50207496,36987445,0.0,1.46,0.0,5.6,0.0,21.47,0.05,0.03
1521997609.54126883,37026639,0.0,1.65,0.0,5.91,0.0,21.83,0.05,0.04
1521997609.58187485,37067245,0.0,1.59,0.0,5.45,0.0,22.11,0.05,0.04
1521997609.62203789,37107408,0.0,1.69,0.0,5.51,0.0,22.46,0.06,0.04
1521997609.66129279,37146663,0.0,1.51,0.0,5.69,0.0,22.86,0.06,0.05
1521997609.70204473,37187415,0.0,1.45,0.0,5.37,0.0,23.2,0.06,0.05
1521997609.74148083,37226851,0.0,1.86,0.0,5.38,0.0,23.65,0.06,0.05
1521997609.78180695,37267177,0.0,1.61,0.0,5.61,0.0,24.16,0.06,0.05
1521997609.82186580,37307236,0.0,1.44,0.0,5.32,0.0,24.57,0.06,0.05
1521997609.86116695,37346537,0.0,1.62,0.0,5.33,0.0,25.05,0.06,0.06
1521997609.90196991,37387340,0.0,1.67,0.0,5.54,0.0,25.57,0.06,0.06
1521997609.94127989,37426650,0.0,1.7,0.0,5.26,0.0,25.97,0.06,0.07
1521997609.98198986,37467360,0.0,1.59,0.0,5.21,0.0,26.43,0.06,0.07
1521997610.02256775,37507938,0.0,1.8,0.0,5.38,0.0,26.92,0.05,0.07
1521997610.06163692,37547007,0.0,1.8,0.0,5.12,0.0,27.3,0.05,0.09
1521997610.10196185,37587332,0.0,1.5,0.0,5.11,0.0,27.76,0.05,0.09
1521997610.14126682,37626637,0.0,1.63,0.0,5.23,0.0,28.24,0.05,0.1
1521997610.18172884,37667099,0.0,1.68,0.0,4.94,0.0,28.6,0.05,0.1
1521997610.22209191,37707462,0.0,1.63,0.0,4.89,0.0,29.05,0.05,0.1
1521997610.26090980,37746280,0.0,1.67,0.0,5.25,0.0,29.61,0.05,0.11
1521997610.30227995,37787650,0.0,1.47,0.0,5.0,0.0,30.03,0.05,0.11
1521997610.34131789,37826688,0.0,1.54,0.0,4.69,0.0,30.47,0.05,0.12
1521997610.38168979,37867060,0.0,1.94,0.0,4.97,0.0,31.09,0.05,0.12
1521997610.42189074,37907261,0.0,1.62,0.0,5.08,0.0,31.69,0.06,0.12
1521997610.46083093,37946201,0.0,1.17,0.0,4.8,0.0,32.19,0.06,0.12
1521997610.50212789,37987498,0.0,1.62,0.0,4.97,0.0,32.83,0.06,0.12
1521997610.54153490,38026905,0.0,1.77,0.0,5.25,0.0,33.48,0.06,0.13
1521997610.58195496,38067325,0.0,1.14,0.0,5.06,0.0,33.93,0.06,0.13
1521997610.62196493,38107335,0.0,1.27,0.0,4.96,0.0,34.46,0.05,0.13
1521997610.66123891,38146609,0.0,1.8,0.0,5.31,0.0,35.11,0.05,0.14
1521997610.70229578,38187666,0.0,1.41,0.0,4.93,0.0,35.52,0.05,0.14
1521997610.74095178,38226322,0.0,1.25,0.0,4.98,0.0,35.99,0.05,0.15
1521997610.78172183,38267092,0.0,1.63,0.0,5.31,0.0,36.59,0.05,0.15
1521997610.82198191,38307352,0.0,1.46,0.0,5.06,0.0,37.01,0.05,0.15
1521997610.86147285,38346843,0.0,1.18,0.0,5.02,0.0,37.39,0.05,0.17
1521997610.90198588,38387356,0.0,1.28,0.0,5.2,0.0,37.79,0.05,0.17
1521997610.94128489,38426655,0.0,1.58,0.0,5.04,0.0,38.11,0.05,0.18
1521997610.98184180,38467212,0.0,1.59,0.0,5.2,0.0,38.41,0.05,0.18
1521997611.02292895,38508299,0.0,1.32,0.0,5.1,0.0,38.69,0.04,0.18
1521997611.06143284,38546803,0.0,1.52,0.0,5.07,0.0,39.0,0.04,0.19
1521997611.10226393,38587634,0.0,1.55,0.0,5.04,0.0,39.3,0.04,0.19
1521997611.14107394,38626444,0.0,1.49,0.0,5.13,0.0,39.6,0.04,0.2
1521997611.18162584,38666996,0.0,1.44,0.0,5.03,0.0,39.88,0.04,0.2
1521997611.22182584,38707196,0.0,1.25,0.0,5.08,0.0,40.17,0.04,0.2
1521997611.26101279,38746383,0.0,1.08,0.0,5.14,0.0,40.45,0.04,0.2
1521997611.30221486,38787585,0.0,1.29,0.0,4.98,0.0,40.65,0.04,0.2
1521997611.34141493,38826785,0.0,1.57,0.0,5.04,0.0,40.87,0.04,0.2
1521997611.38180375,38867174,0.0,1.29,0.0,5.08,0.0,41.08,0.04,0.2
1521997611.42179084,38907161,0.0,1.14,0.0,5.05,0.0,41.29,0.04,0.2
1521997611.46106386,38946434,0.0,1.26,0.0,5.03,0.0,41.43,0.04,0.2
1521997611.50186777,38987238,0.0,1.25,0.0,5.03,0.0,41.53,0.04,0.2
1521997611.54148293,39026853,0.0,1.19,0.0,5.06,0.0,41.7,0.04,0.21
1521997611.58162284,39066993,0.0,1.19,0.0,5.11,0.0,41.87,0.04,0.21
1521997611.62193584,39107306,0.0,1.12,0.0,5.11,0.0,41.96,0.04,0.21
1521997611.66107082,39146441,0.0,1.07,0.0,5.13,0.0,42.07,0.04,0.21
1521997611.70212579,39187496,0.0,1.13,0.0,5.15,0.0,42.2,0.04,0.21
1521997611.74122787,39226598,0.0,1.15,0.0,5.15,0.0,42.26,0.04,0.21
1521997611.78174782,39267118,0.0,1.16,0.0,5.18,0.0,42.34,0.04,0.21
1521997611.82185388,39307224,0.0,1.18,0.0,5.17,0.0,42.43,0.03,0.21
1521997611.86130786,39346678,0.0,1.17,0.0,5.21,0.0,42.5,0.03,0.21
1521997611.90217495,39387545,0.0,1.2,0.0,5.21,0.0,42.58,0.03,0.21
1521997611.94123673,39426607,0.0,1.23,0.0,5.2,0.0,42.66,0.03,0.22
1521997611.98166490,39467035,0.0,1.21,0.0,5.19,0.0,42.75,0.03,0.22
1521997612.02252388,39507894,0.0,1.21,0.0,5.17,0.0,42.84,0.04,0.22
1521997612.06131172,39546682,0.0,1.22,0.0,5.15,0.0,42.92,0.04,0.22
1521997612.10240483,39587775,0.0,1.21,0.0,5.12,0.0,43.0,0.04,0.22
1521997612.14140177,39626772,0.0,1.2,0.0,5.09,0.0,43.09,0.04,0.22
1521997612.18164587,39667016,0.0,1.19,0.0,5.05,0.0,43.17,0.04,0.22
1521997612.22183895,39707209,0.0,1.2,0.0,5.06,0.0,43.25,0.05,0.22
1521997612.26126885,39746639,0.0,1.19,0.0,5.09,0.0,43.33,0.05,0.22
1521997612.30201793,39787388,0.0,1.16,0.0,5.12,0.0,43.41,0.05,0.22
1521997612.34131289,39826683,0.0,1.16,0.0,5.16,0.0,43.49,0.05,0.21
1521997612.38179278,39867163,0.0,1.17,0.0,5.2,0.0,43.57,0.05,0.21
1521997612.42190480,39907275,0.0,1.17,0.0,5.2,0.0,43.64,0.05,0.21
1521997612.46098375,39946354,0.0,1.16,0.0,5.17,0.0,43.73,0.05,0.21
1521997612.50222087,39987591,0.0,1.16,0.0,5.14,0.0,43.8,0.05,0.21
1521997612.54139376,40026764,0.0,1.17,0.0,5.1,0.0,43.88,0.05,0.21
1521997612.58186078,40067231,0.0,1.17,0.0,5.07,0.0,43.96,0.05,0.21
1521997612.62201285,40107383,0.0,1.18,0.0,5.06,0.0,44.04,0.05,0.21
1521997612.66104078,40146411,0.0,1.19,0.0,5.08,0.0,44.12,0.05,0.21
1521997612.70199275,40187363,0.0,1.21,0.0,5.09,0.0,44.2,0.05,0.21
1521997612.74151373,40226884,0.0,1.23,0.0,5.1,0.0,44.29,0.05,0.21
1521997612.78187394,40267244,0.0,1.24,0.0,5.12,0.0,44.37,0.05,0.21
1521997612.82224178,40307612,0.0,1.27,0.0,5.13,0.0,44.45,0.05,0.21
1521997612.86097193,40346342,0.0,1.3,0.0,5.13,0.0,44.52,0.05,0.21
1521997612.90206790,40387438,0.0,1.32,0.0,5.14,0.0,44.6,0.05,0.21
1521997612.94147372,40426844,0.0,1.35,0.0,5.14,0.0,44.68,0.05,0.2
1521997612.98179984,40467170,0.0,1.39,0.0,5.14,0.0,44.75,0.05,0.2
1521997613.02250481,40507875,0.0,1.39,0.0,5.14,0.0,44.82,0.05,0.2
1521997613.06139493,40546765,0.0,1.36,0.0,5.13,0.0,44.89,0.05,0.2
1521997613.10227394,40587644,0.0,1.34,0.0,5.13,0.0,44.96,0.05,0.2
1521997613.14132977,40626700,0.0,1.33,0.0,5.12,0.0,45.02,0.05,0.2
1521997613.18207383,40667444,0.0,1.3,0.0,5.11,0.0,45.1,0.05,0.2
1521997613.22175980,40707130,0.0,1.28,0.0,5.12,0.0,45.18,0.05,0.2
1521997613.26105595,40746426,0.0,1.31,0.0,5.13,0.0,45.25,0.05,0.19
1521997613.30215287,40787523,0.0,1.33,0.0,5.15,0.0,45.31,0.05,0.19
1521997613.34131575,40826686,0.0,1.35,0.0,5.16,0.0,45.38,0.05,0.19
1521997613.38190985,40867280,0.0,1.36,0.0,5.18,0.0,45.45,0.05,0.19
1521997613.42195487,40907325,0.0,1.38,0.0,5.19,0.0,45.51,0.05,0.19
1521997613.46129084,40946661,0.0,1.38,0.0,5.22,0.0,45.58,0.05,0.19
1521997613.50201488,40987385,0.0,1.37,0.0,5.24,0.0,45.65,0.05,0.19
1521997613.54134178,41026712,0.0,1.36,0.0,5.26,0.0,45.72,0.05,0.18
1521997613.58192873,41067299,0.0,1.38,0.0,5.29,0.0,45.79,0.05,0.18
1521997613.62197089,41107341,0.0,1.39,0.0,5.29,0.0,45.86,0.05,0.18
1521997613.66101694,41146387,0.0,1.39,0.0,5.27,0.0,45.93,0.05,0.18
1521997613.70219994,41187570,0.0,1.4,0.0,5.26,0.0,46.0,0.05,0.18
1521997613.74141383,41226784,0.0,1.42,0.0,5.24,0.0,46.07,0.05,0.18
1521997613.78176880,41267139,0.0,1.42,0.0,5.23,0.0,46.13,0.05,0.18
1521997613.82196784,41307338,0.0,1.43,0.0,5.22,0.0,46.2,0.04,0.18
1521997613.86136293,41346733,0.0,1.45,0.0,5.22,0.0,46.27,0.04,0.18
1521997613.90214396,41387514,0.0,1.47,0.0,5.22,0.0,46.33,0.04,0.18
1521997613.94094586,41426316,0.0,1.48,0.0,5.23,0.0,46.4,0.04,0.17
1521997613.98163176,41467002,0.0,1.49,0.0,5.22,0.0,46.46,0.04,0.17
1521997614.02246380,41507834,0.0,1.48,0.0,5.23,0.0,46.52,0.04,0.17
1521997614.06156874,41546939,0.0,1.46,0.0,5.22,0.0,46.59,0.04,0.17
1521997614.10236073,41587731,0.0,1.43,0.0,5.22,0.0,46.66,0.04,0.17
1521997614.14132094,41626691,0.0,1.42,0.0,5.22,0.0,46.72,0.04,0.17
1521997614.18158984,41666960,0.0,1.41,0.0,5.21,0.0,46.79,0.04,0.17
