timestamp,TimeUS,DesRoll,Roll,DesPitch,Pitch,DesYaw,Yaw,ErrRP,ErrYaw
1523828623.96053576,5625938,0.0,4.37,0.0,3.02,0.0,12.43,1.0,0.51
1523828623.99996090,5665363,0.0,4.36,0.0,3.02,0.0,12.34,1.0,0.51
1523828624.04034877,5705751,0.0,4.35,0.0,3.03,0.0,12.26,0.8,0.51
1523828624.07998872,5745391,0.0,4.34,0.0,3.03,0.0,12.16,0.8,0.42
1523828624.11986589,5785268,0.0,4.33,0.0,3.04,0.0,12.03,0.8,0.42
1523828624.16007972,5825482,0.0,4.32,0.0,3.05,0.0,11.92,0.8,0.34
1523828624.19994092,5865343,0.0,4.32,0.0,3.05,0.0,11.84,0.8,0.34
1523828624.24029183,5905694,0.0,4.31,0.0,3.06,0.0,11.76,0.8,0.34
1523828624.27992582,5945328,0.0,4.31,0.0,3.06,0.0,11.69,0.64,0.27
1523828624.31987286,5985275,0.0,4.3,0.0,3.07,0.0,11.63,0.64,0.27
1523828624.36019683,6025599,0.0,4.3,0.0,3.08,0.0,11.58,0.64,0.22
1523828624.40004182,6065444,0.0,4.29,0.0,3.08,0.0,11.53,0.64,0.22
1523828624.44026589,6105668,0.0,4.29,0.0,3.08,0.0,11.49,0.64,0.22
1523828624.47987294,6145275,0.0,4.29,0.0,3.09,0.0,11.44,0.51,0.18
1523828624.51992488,6185327,0.0,4.28,0.0,3.09,0.0,11.39,0.51,0.18
1523828624.55994272,6225345,0.0,4.28,0.0,3.1,0.0,11.34,0.51,0.14
1523828624.59985471,6265257,0.0,4.28,0.0,3.1,0.0,11.34,0.51,0.14
1523828624.64020181,6305604,0.0,4.29,0.0,3.11,0.0,11.34,0.51,0.14
1523828624.68002582,6345428,0.0,4.29,0.0,3.11,0.0,11.32,0.41,0.12
1523828624.71999979,6385402,0.0,4.29,0.0,3.11,0.0,11.28,0.41,0.12
1523828624.76014972,6425552,0.0,4.29,0.0,3.11,0.0,11.24,0.41,0.09
1523828624.80009389,6465496,0.0,4.29,0.0,3.11,0.0,11.25,0.41,0.09
1523828624.84276986,6508172,0.0,4.3,0.0,3.11,0.0,11.26,0.41,0.09
1523828624.88028383,6545686,0.0,4.3,0.0,3.11,0.0,11.26,0.41,0.07
1523828624.92024684,6585649,0.0,4.31,0.0,3.11,0.0,11.26,0.32,0.07
1523828624.96001482,6625417,0.0,4.31,0.0,3.11,0.0,11.26,0.32,0.06
1523828625.00019193,6665594,0.0,4.32,0.0,3.11,0.0,11.24,0.32,0.06
1523828625.04099083,6706393,0.0,4.32,0.0,3.11,0.0,11.22,0.32,0.06
1523828625.08017683,6745579,0.0,4.33,0.0,3.11,0.0,11.24,0.32,0.05
1523828625.12006783,6785470,0.0,4.34,0.0,3.1,0.0,11.29,0.26,0.05
1523828625.15999889,6825401,0.0,4.39,0.0,3.15,0.0,11.36,0.26,0.04
1523828625.20010090,6865503,0.0,4.36,0.0,3.17,0.0,11.35,0.26,0.04
1523828625.24021578,6905618,0.0,4.32,0.0,3.03,0.0,11.35,0.26,0.04
1523828625.28010392,6945506,0.0,4.28,0.0,2.98,0.0,11.33,0.26,0.03
1523828625.31986976,6985272,0.0,4.34,0.0,2.93,0.0,11.3,0.21,0.03
1523828625.36012673,7025529,0.0,4.52,0.0,2.93,0.0,11.28,0.21,0.04
1523828625.40002084,7065423,0.0,4.61,0.0,2.87,0.0,11.47,0.21,0.04
1523828625.44041586,7105818,0.0,4.6,0.0,2.96,0.0,11.63,0.21,0.04
1523828625.47999382,7145396,0.0,4.61,0.0,3.06,0.0,11.95,0.21,0.06
1523828625.51990080,7185303,0.0,4.8,0.0,3.21,0.0,12.48,0.16,0.06
1523828625.56009674,7225499,0.0,4.74,0.0,3.4,0.0,12.96,0.16,0.07
1523828625.60014772,7265550,0.0,4.5,0.0,3.44,0.0,13.32,0.16,0.07
1523828625.64029980,7305702,0.0,4.49,0.0,3.41,0.0,13.62,0.16,0.07
1523828625.67980385,7345206,0.0,4.97,0.0,3.38,0.0,13.87,0.16,0.07
1523828625.71985984,7385262,0.0,5.22,0.0,3.2,0.0,14.12,0.16,0.07
1523828625.76009989,7425502,0.0,4.96,0.0,3.13,0.0,14.4,0.13,0.07
1523828625.80003977,7465442,0.0,4.8,0.0,3.34,0.0,14.62,0.13,0.07
1523828625.84058189,7505984,0.0,4.8,0.0,3.69,0.0,14.76,0.13,0.07
1523828625.88024688,7545649,0.0,5.12,0.0,3.7,0.0,14.99,0.13,0.08
1523828625.92033172,7585734,0.0,5.77,0.0,3.58,0.0,15.21,0.13,0.08
1523828625.96032071,7625723,0.0,5.91,0.0,3.23,0.0,15.44,0.11,0.09
1523828626.00017691,7665579,0.0,5.38,0.0,2.73,0.0,15.85,0.11,0.09
1523828626.04052472,7705927,0.0,5.28,0.0,2.76,0.0,16.23,0.11,0.09
1523828626.08007383,7745476,0.0,5.39,0.0,3.09,0.0,16.55,0.11,0.09
1523828626.12020373,7785606,0.0,5.14,0.0,3.24,0.0,16.89,0.11,0.09
1523828626.16020584,7825608,0.0,5.02,0.0,3.32,0.0,17.25,0.11,0.07
1523828626.20014191,7865544,0.0,5.26,0.0,3.2,0.0,17.25,0.08,0.07
1523828626.24022675,7905629,0.0,5.3,0.0,3.2,0.0,17.23,0.08,0.07
1523828626.28035378,7945756,0.0,5.21,0.0,3.2,0.0,17.1,0.08,0.07
1523828626.32006884,7985471,0.0,5.21,0.0,3.22,0.0,16.93,0.08,0.07
1523828626.36012483,8025527,0.0,5.22,0.0,3.21,0.0,16.76,0.08,0.07
1523828626.40009594,8065498,0.0,5.17,0.0,3.23,0.0,16.42,0.07,0.07
1523828626.44046283,8105865,0.0,5.41,0.0,3.15,0.0,16.03,0.07,0.07
1523828626.48007393,8145476,0.0,5.59,0.0,2.95,0.0,15.83,0.07,0.06
1523828626.51978588,8185188,0.0,5.37,0.0,2.97,0.0,15.77,0.07,0.06
1523828626.55990887,8225311,0.0,4.9,0.0,3.04,0.0,15.71,0.07,0.07
1523828626.60014081,8265543,0.0,4.71,0.0,3.28,0.0,15.42,0.05,0.07
1523828626.64030075,8305703,0.0,4.92,0.0,3.57,0.0,15.05,0.05,0.07
1523828626.67994690,8345349,0.0,5.32,0.0,3.52,0.0,14.75,0.05,0.06
1523828626.71991992,8385322,0.0,5.59,0.0,3.23,0.0,14.54,0.05,0.06
1523828626.76022983,8425632,0.0,5.28,0.0,2.9,0.0,14.49,0.05,0.06
1523828626.80015373,8465556,0.0,4.66,0.0,2.83,0.0,14.45,0.04,0.06
1523828626.84078193,8506184,0.0,4.43,0.0,3.13,0.0,14.3,0.04,0.06
1523828626.88011384,8545516,0.0,4.53,0.0,3.43,0.0,14.02,0.04,0.07
1523828626.91990590,8585308,0.0,4.79,0.0,3.37,0.0,13.68,0.04,0.07
1523828626.96034288,8625745,0.0,4.91,0.0,3.19,0.0,13.39,0.04,0.06
1523828627.00044274,8665845,0.0,4.87,0.0,2.83,0.0,13.32,0.04,0.06
1523828627.04022479,8705627,0.0,4.92,0.0,2.87,0.0,13.35,0.04,0.06
1523828627.08031487,8745717,0.0,4.91,0.0,3.02,0.0,13.25,0.04,0.06
1523828627.11997581,8785378,0.0,4.92,0.0,3.09,0.0,13.05,0.04,0.06
1523828627.15992379,8825326,0.0,4.93,0.0,3.11,0.0,12.85,0.04,0.06
1523828627.20011687,8865519,0.0,4.93,0.0,3.14,0.0,12.69,0.04,0.06
1523828627.24049377,8905896,0.0,4.92,0.0,3.16,0.0,12.54,0.03,0.06
1523828627.27999973,8945402,0.0,4.84,0.0,3.24,0.0,12.37,0.03,0.06
1523828627.31996775,8985370,0.0,4.79,0.0,3.25,0.0,12.23,0.03,0.06
1523828627.36014485,9025547,0.0,4.89,0.0,3.21,0.0,12.08,0.03,0.05
1523828627.40040183,9065804,0.0,5.02,0.0,3.17,0.0,11.77,0.03,0.05
1523828627.44029188,9105694,0.0,5.23,0.0,3.0,0.0,11.49,0.02,0.05
1523828627.47988272,9145285,0.0,5.13,0.0,2.96,0.0,11.42,0.02,0.04
1523828627.51997185,9185374,0.0,4.57,0.0,3.19,0.0,11.48,0.02,0.04
1523828627.56009388,9225496,0.0,4.37,0.0,3.7,0.0,11.56,0.02,0.05
1523828627.60006189,9265464,0.0,4.64,0.0,4.11,0.0,11.39,0.02,0.05
1523828627.64021373,9305616,0.0,5.2,0.0,3.82,0.0,11.16,0.02,0.05
1523828627.67998791,9345390,0.0,5.3,0.0,3.32,0.0,11.06,0.02,0.04
1523828627.72029781,9385700,0.0,4.71,0.0,2.78,0.0,11.17,0.02,0.04
1523828627.76007271,9425475,0.0,4.56,0.0,2.79,0.0,11.27,0.02,0.04
1523828627.80010486,9465507,0.0,4.7,0.0,3.1,0.0,11.11,0.02,0.04
1523828627.84057879,9505981,0.0,4.84,0.0,3.09,0.0,10.93,0.02,0.04
1523828627.88015294,9545555,0.0,4.75,0.0,2.86,0.0,10.93,0.01,0.03
1523828627.92003274,9585435,0.0,4.84,0.0,3.06,0.0,11.01,0.01,0.03
1523828627.96028376,9625686,0.0,4.93,0.0,3.18,0.0,11.01,0.01,0.03
1523828628.00022388,9665626,0.0,5.18,0.0,3.2,0.0,10.9,0.01,0.03
1523828628.04067993,9706082,0.0,5.25,0.0,3.27,0.0,10.82,0.01,0.03
1523828628.07988071,9745283,0.0,4.94,0.0,3.46,0.0,10.78,0.01,0.03
1523828628.12033486,9785737,0.0,4.62,0.0,3.5,0.0,10.82,0.01,0.03
1523828628.16012573,9825528,0.0,4.61,0.0,3.57,0.0,10.84,0.01,0.02
1523828628.20035887,9865761,0.0,4.64,0.0,3.53,0.0,10.83,0.01,0.02
1523828628.24038672,9905789,0.0,4.75,0.0,3.45,0.0,10.8,0.01,0.02
1523828628.28020692,9945609,0.0,4.79,0.0,3.42,0.0,10.79,0.01,0.02
1523828628.32024884,9985651,0.0,4.77,0.0,3.31,0.0,10.76,0.01,0.02
1523828628.36034179,10025744,0.0,4.81,0.0,3.15,0.0,10.68,0.01,0.02
1523828628.40017486,10065577,0.0,5.02,0.0,3.31,0.0,10.79,0.01,0.02
1523828628.44020176,10105604,0.0,5.08,0.0,3.23,0.0,10.84,0.01,0.02
1523828628.48003983,10145442,0.0,5.09,0.0,3.21,0.0,10.87,0.01,0.01
1523828628.51999378,10185396,0.0,5.13,0.0,3.18,0.0,10.89,0.01,0.01
1523828628.56021690,10225619,0.0,5.13,0.0,3.18,0.0,10.89,0.01,0.01
1523828628.60034084,10265743,0.0,5.12,0.0,3.18,0.0,10.95,0.01,0.01
1523828628.64017391,10305576,0.0,5.12,0.0,3.17,0.0,11.02,0.01,0.01
1523828628.68018389,10345586,0.0,5.12,0.0,3.17,0.0,11.06,0.01,0.01
1523828628.72017574,10385578,0.0,5.12,0.0,3.17,0.0,11.1,0.01,0.01
1523828628.76013780,10425540,0.0,5.1,0.0,3.15,0.0,11.13,0.01,0.01
1523828628.80013394,10465536,0.0,5.1,0.0,3.14,0.0,11.23,0.01,0.01
1523828628.84092283,10506325,0.0,5.11,0.0,3.12,0.0,11.32,0.01,0.01
1523828628.88006687,10545469,0.0,5.1,0.0,3.11,0.0,11.35,0.01,0.01
1523828628.92001772,10585420,0.0,5.08,0.0,3.1,0.0,11.33,0.01,0.01
1523828628.96025681,10625659,0.0,5.08,0.0,3.1,0.0,11.3,0.0,0.01
1523828629.00050688,10665909,0.0,5.07,0.0,3.1,0.0,11.33,0.0,0.01
1523828629.04024076,10705643,0.0,5.07,0.0,3.11,0.0,11.35,0.0,0.01
1523828629.08016276,10745565,0.0,5.06,0.0,3.12,0.0,11.4,0.0,0.01
1523828629.11990190,10785304,0.0,5.06,0.0,3.13,0.0,11.48,0.0,0.01
1523828629.16011572,10825518,0.0,5.06,0.0,3.13,0.0,11.55,0.0,0.01
1523828629.20010281,10865505,0.0,5.06,0.0,3.13,0.0,11.61,0.0,0.01
1523828629.24034071,10905743,0.0,5.05,0.0,3.13,0.0,11.67,0.0,0.01
1523828629.28013682,10945539,0.0,5.05,0.0,3.13,0.0,11.7,0.0,0.01
1523828629.32032681,10985729,0.0,5.04,0.0,3.14,0.0,11.71,0.0,0.01
1523828629.36017680,11025579,0.0,5.03,0.0,3.14,0.0,11.72,0.0,0.01
1523828629.40028381,11065686,0.0,5.03,0.0,3.14,0.0,11.69,0.0,0.01
1523828629.44021583,11105618,0.0,5.02,0.0,3.15,0.0,11.66,0.0,0.01
1523828629.48007774,11145480,0.0,5.01,0.0,3.15,0.0,11.6,0.0,0.01
1523828629.51987290,11185275,0.0,5.0,0.0,3.16,0.0,11.52,0.0,0.01
1523828629.56005192,11225454,0.0,4.99,0.0,3.17,0.0,11.44,0.0,0.01
1523828629.60022283,11265625,0.0,4.98,0.0,3.18,0.0,11.34,0.0,0.01
1523828629.64041972,11305822,0.0,4.97,0.0,3.19,0.0,11.24,0.0,0.01
1523828629.68011189,11345514,0.0,4.96,0.0,3.2,0.0,11.14,0.0,0.02
1523828629.71984291,11385245,0.0,4.95,0.0,3.2,0.0,11.03,0.0,0.02
1523828629.76010990,11425512,0.0,4.94,0.0,3.21,0.0,10.92,0.0,0.02
1523828629.80021286,11465615,0.0,4.94,0.0,3.22,0.0,10.86,0.0,0.02
1523828629.84068680,11506089,0.0,4.93,0.0,3.22,0.0,10.8,0.0,0.02
1523828629.88012290,11545525,0.0,4.93,0.0,3.23,0.0,10.75,0.0,0.02
1523828629.92008281,11585485,0.0,4.93,0.0,3.23,0.0,10.71,0.0,0.02
1523828629.96037078,11625773,0.0,4.92,0.0,3.23,0.0,10.68,0.0,0.01
1523828630.00042391,11665826,0.0,4.92,0.0,3.23,0.0,10.68,0.0,0.01
1523828630.04033375,11705736,0.0,4.92,0.0,3.23,0.0,10.68,0.0,0.01
1523828630.08035183,11745754,0.0,4.92,0.0,3.23,0.0,10.66,0.0,0.01
1523828630.11994791,11785350,0.0,4.92,0.0,3.23,0.0,10.62,0.0,0.01
1523828630.16011882,11825521,0.0,4.92,0.0,3.23,0.0,10.59,0.0,0.01
1523828630.20033693,11865739,0.0,4.93,0.0,3.23,0.0,10.59,0.0,0.01
1523828630.24063182,11906034,0.0,4.93,0.0,3.23,0.0,10.6,0.0,0.01
1523828630.28024173,11945644,0.0,4.93,0.0,3.23,0.0,10.58,0.0,0.01
1523828630.32001185,11985414,0.0,4.94,0.0,3.22,0.0,10.55,0.0,0.01
1523828630.36028671,12025689,0.0,4.94,0.0,3.22,0.0,10.51,0.0,0.01
1523828630.40033293,12065735,0.0,4.93,0.0,3.22,0.0,10.4,0.0,0.01
1523828630.44026685,12105669,0.0,4.93,0.0,3.22,0.0,10.3,0.0,0.01
1523828630.47991872,12145321,0.0,4.93,0.0,3.23,0.0,10.19,0.0,0.02
1523828630.51998782,12185390,0.0,4.93,0.0,3.23,0.0,10.08,0.0,0.02
1523828630.56012988,12225532,0.0,4.92,0.0,3.23,0.0,9.96,0.0,0.02
1523828630.60043573,12265838,0.0,4.92,0.0,3.24,0.0,9.88,0.0,0.02
1523828630.64023089,12305633,0.0,4.92,0.0,3.24,0.0,9.8,0.0,0.02
1523828630.68005276,12345455,0.0,4.92,0.0,3.24,0.0,9.71,0.0,0.02
1523828630.71999884,12385401,0.0,4.92,0.0,3.24,0.0,9.62,0.0,0.02
1523828630.75994277,12425345,0.0,4.91,0.0,3.24,0.0,9.54,0.0,0.02
1523828630.80029392,12465696,0.0,4.92,0.0,3.24,0.0,9.52,0.0,0.02
1523828630.84066987,12506072,0.0,4.92,0.0,3.24,0.0,9.51,0.0,0.02
1523828630.88007188,12545474,0.0,4.92,0.0,3.23,0.0,9.48,0.0,0.01
1523828630.92013884,12585541,0.0,4.92,0.0,3.23,0.0,9.46,0.0,0.01
1523828630.96022773,12625630,0.0,4.92,0.0,3.23,0.0,9.43,0.0,0.01
1523828631.00035882,12665761,0.0,4.92,0.0,3.23,0.0,9.38,0.0,0.01
1523828631.04023981,12705642,0.0,4.93,0.0,3.23,0.0,9.33,0.0,0.01
1523828631.07989883,12745301,0.0,4.93,0.0,3.22,0.0,9.27,0.0,0.02
1523828631.12003589,12785438,0.0,4.93,0.0,3.22,0.0,9.2,0.0,0.02
1523828631.16019487,12825597,0.0,4.93,0.0,3.22,0.0,9.14,0.0,0.01
1523828631.20031571,12865718,0.0,4.93,0.0,3.22,0.0,9.12,0.0,0.01
1523828631.24055171,12905954,0.0,4.93,0.0,3.22,0.0,9.09,0.0,0.01
1523828631.28010583,12945508,0.0,4.94,0.0,3.22,0.0,9.08,0.0,0.01
1523828631.32008076,12985483,0.0,4.94,0.0,3.21,0.0,9.08,0.0,0.01
1523828631.36016679,13025569,0.0,4.95,0.0,3.21,0.0,9.09,0.0,0.01
1523828631.40041494,13065817,0.0,4.95,0.0,3.21,0.0,9.09,0.0,0.01
1523828631.44028974,13105692,0.0,4.96,0.0,3.2,0.0,9.1,0.0,0.01
1523828631.48006892,13145471,0.0,4.96,0.0,3.2,0.0,9.11,0.0,0.01
1523828631.52007294,13185475,0.0,4.97,0.0,3.2,0.0,9.1,0.0,0.01
1523828631.56020474,13225607,0.0,4.97,0.0,3.2,0.0,9.1,0.0,0.0
1523828631.60039783,13265800,0.0,4.97,0.0,3.19,0.0,9.13,0.0,0.0
1523828631.64017677,13305579,0.0,4.98,0.0,3.19,0.0,9.17,0.0,0.0
1523828631.67996073,13345363,0.0,4.99,0.0,3.18,0.0,9.24,0.0,0.01
1523828631.72006583,13385468,0.0,5.0,0.0,3.18,0.0,9.36,0.0,0.01
1523828631.76008177,13425484,0.0,5.02,0.0,3.17,0.0,9.47,0.0,0.01
1523828631.80035591,13465758,0.0,5.02,0.0,3.17,0.0,9.51,0.0,0.01
1523828631.84067583,13506078,0.0,5.03,0.0,3.16,0.0,9.55,0.0,0.01
1523828631.88027787,13545680,0.0,5.04,0.0,3.16,0.0,9.61,0.0,0.01
1523828631.91999173,13585394,0.0,5.05,0.0,3.15,0.0,9.67,0.0,0.01
1523828631.96005774,13625460,0.0,5.05,0.0,3.15,0.0,9.74,0.0,0.01
1523828632.00081182,13666214,0.0,5.05,0.0,3.15,0.0,9.71,0.0,0.01
1523828632.04049373,13705896,0.0,5.05,0.0,3.15,0.0,9.69,0.0,0.01
1523828632.08007693,13745479,0.0,5.05,0.0,3.14,0.0,9.66,0.0,0.01
1523828632.12024379,13785646,0.0,5.05,0.0,3.14,0.0,9.64,0.0,0.01
1523828632.16012788,13825530,0.0,5.05,0.0,3.14,0.0,9.61,0.0,0.01
1523828632.20047784,13865880,0.0,5.05,0.0,3.15,0.0,9.54,0.0,0.01
1523828632.24016094,13905563,0.0,5.04,0.0,3.15,0.0,9.47,0.0,0.01
1523828632.28023076,13945633,0.0,5.04,0.0,3.15,0.0,9.4,0.0,0.01
1523828632.31985688,13985259,0.0,5.03,0.0,3.16,0.0,9.33,0.0,0.01
1523828632.36025286,14025655,0.0,5.03,0.0,3.16,0.0,9.27,0.0,0.01
1523828632.40037084,14065773,0.0,5.02,0.0,3.16,0.0,9.26,0.0,0.01
1523828632.44042087,14105823,0.0,5.02,0.0,3.16,0.0,9.26,0.0,0.01
1523828632.48002577,14145428,0.0,5.02,0.0,3.16,0.0,9.29,0.0,0.01
1523828632.52016473,14185567,0.0,5.02,0.0,3.16,0.0,9.35,0.0,0.01
1523828632.56008673,14225489,0.0,5.03,0.0,3.16,0.0,9.41,0.0,0.01
1523828632.60029173,14265694,0.0,5.02,0.0,3.16,0.0,9.44,0.0,0.01
1523828632.64029479,14305697,0.0,5.02,0.0,3.16,0.0,9.47,0.0,0.01
1523828632.67997885,14345381,0.0,5.02,0.0,3.16,0.0,9.48,0.0,0.01
1523828632.71989393,14385296,0.0,5.02,0.0,3.16,0.0,9.48,0.0,0.01
1523828632.76004171,14425444,0.0,5.01,0.0,3.16,0.0,9.49,0.0,0.01
1523828632.80037689,14465779,0.0,5.02,0.0,3.16,0.0,9.53,0.0,0.01
1523828632.84079385,14506196,0.0,5.02,0.0,3.16,0.0,9.56,0.0,0.01
1523828632.88010883,14545511,0.0,5.02,0.0,3.16,0.0,9.57,0.0,0.01
1523828632.91995883,14585361,0.0,5.01,0.0,3.17,0.0,9.54,0.0,0.01
1523828632.96008682,14625489,0.0,5.01,0.0,3.17,0.0,9.51,0.0,0.01
1523828633.00070882,14666111,0.0,5.01,0.0,3.16,0.0,9.6,0.0,0.01
1523828633.04024172,14705644,0.0,5.02,0.0,3.16,0.0,9.68,0.0,0.01
1523828633.08016777,14745570,0.0,5.02,0.0,3.16,0.0,9.72,0.0,0.01
1523828633.11999679,14785399,0.0,5.02,0.0,3.16,0.0,9.72,0.0,0.01
1523828633.16041875,14825821,0.0,5.02,0.0,3.16,0.0,9.72,0.0,0.01
1523828633.20051694,14865919,0.0,5.01,0.0,3.16,0.0,9.69,0.0,0.01
1523828633.24016976,14905572,0.0,5.01,0.0,3.17,0.0,9.66,0.0,0.01
1523828633.28002477,14945427,0.0,5.01,0.0,3.17,0.0,9.63,0.0,0.01
1523828633.32038093,14985783,0.0,5.0,0.0,3.17,0.0,9.61,0.0,0.01
1523828633.36026883,15025671,0.0,5.0,0.0,3.17,0.0,9.58,0.0,0.01
1523828633.40061474,15066017,0.0,4.99,0.0,3.17,0.0,9.51,0.0,0.01
1523828633.44033980,15105742,0.0,4.99,0.0,3.17,0.0,9.45,0.0,0.01
1523828633.48027492,15145677,0.0,4.98,0.0,3.17,0.0,9.4,0.0,0.01
1523828633.51994991,15185352,0.0,4.98,0.0,3.18,0.0,9.35,0.0,0.01
1523828633.56002283,15225425,0.0,4.97,0.0,3.18,0.0,9.31,0.0,0.01
1523828633.60056591,15265968,0.0,4.96,0.0,3.18,0.0,9.25,0.0,0.01
1523828633.64022994,15305632,0.0,4.96,0.0,3.18,0.0,9.19,0.0,0.01
1523828633.68000174,15345404,0.0,4.95,0.0,3.18,0.0,9.16,0.0,0.01
1523828633.71982074,15385223,0.0,4.95,0.0,3.19,0.0,9.15,0.0,0.01
1523828633.76003194,15425434,0.0,4.95,0.0,3.19,0.0,9.14,0.0,0.01
1523828633.80080676,15466209,0.0,4.96,0.0,3.19,0.0,9.17,0.0,0.01
1523828633.84070086,15506103,0.0,4.96,0.0,3.18,0.0,9.19,0.0,0.01
1523828633.88004780,15545450,0.0,4.96,0.0,3.18,0.0,9.19,0.0,0.01
1523828633.91988778,15585290,0.0,4.96,0.0,3.18,0.0,9.16,0.0,0.01
1523828633.96006489,15625467,0.0,4.96,0.0,3.19,0.0,9.13,0.0,0.01
1523828634.00054789,15665950,0.0,4.96,0.0,3.18,0.0,9.14,0.0,0.01
1523828634.04038692,15705789,0.0,4.97,0.0,3.18,0.0,9.16,0.0,0.01
1523828634.08027291,15745675,0.0,4.97,0.0,3.18,0.0,9.17,0.0,0.0
1523828634.12004471,15785447,0.0,4.97,0.0,3.18,0.0,9.15,0.0,0.0
1523828634.16048884,15825891,0.0,4.98,0.0,3.18,0.0,9.14,0.0,0.0
1523828634.20060778,15866010,0.0,4.98,0.0,3.17,0.0,9.16,0.0,0.0
1523828634.24114084,15906543,0.0,4.98,0.0,3.17,0.0,9.17,0.0,0.0
1523828634.28231788,15947720,0.0,4.99,0.0,3.17,0.0,9.18,0.0,0.0
1523828634.32085776,15986260,0.0,4.99,0.0,3.17,0.0,9.18,0.0,0.0
1523828634.36150479,16026907,0.0,4.99,0.0,3.16,0.0,9.19,0.0,0.0
1523828634.40156078,16066963,0.0,4.99,0.0,3.16,0.0,9.18,0.0,0.0
1523828634.44193387,16107336,0.0,5.0,0.0,3.16,0.0,9.17,0.0,0.0
1523828634.48084188,16146244,0.0,4.99,0.0,3.16,0.0,9.13,0.0,0.0
1523828634.52198982,16187392,0.0,4.99,0.0,3.16,0.0,9.06,0.0,0.0
1523828634.56092477,16226327,0.0,4.99,0.0,3.16,0.0,9.0,0.0,0.0
1523828634.60140371,16266806,0.0,4.99,0.0,3.15,0.0,8.98,0.0,0.0
1523828634.64158273,16306985,0.0,5.31,0.0,3.25,0.0,8.98,0.03,0.0
1523828634.68095279,16346355,0.0,5.98,0.0,3.44,0.0,9.05,0.03,0.01
1523828634.72186780,16387270,0.0,6.64,0.0,3.62,0.0,9.17,0.03,0.01
1523828634.76106691,16426469,0.0,7.31,0.0,3.81,0.0,9.29,0.03,0.03
1523828634.80154371,16466946,0.0,8.0,0.0,3.97,0.0,9.67,0.03,0.03
1523828634.84228182,16507684,0.0,7.9,0.0,3.81,0.0,9.98,0.08,0.03
1523828634.88096476,16546367,0.0,7.01,0.0,3.35,0.0,10.22,0.08,0.04
1523828634.92187190,16587274,0.0,6.11,0.0,2.89,0.0,10.44,0.08,0.04
1523828634.96099377,16626396,0.0,5.21,0.0,2.43,0.0,10.66,0.08,0.03
1523828635.00151277,16666915,0.0,4.3,0.0,1.99,0.0,10.63,0.08,0.03
1523828635.04202676,16707429,0.0,4.21,0.0,2.01,0.0,10.63,0.11,0.03
1523828635.08111882,16746521,0.0,4.97,0.0,2.49,0.0,10.79,0.11,0.04
1523828635.12195778,16787360,0.0,5.73,0.0,2.96,0.0,11.07,0.11,0.04
1523828635.16135192,16826754,0.0,6.5,0.0,3.43,0.0,11.35,0.11,0.06
1523828635.20139480,16866797,0.0,7.28,0.0,3.87,0.0,11.9,0.11,0.06
1523828635.24161291,16907015,0.0,7.51,0.0,3.99,0.0,12.38,0.11,0.06
1523828635.28085685,16946259,0.0,7.18,0.0,3.77,0.0,12.88,0.11,0.09
1523828635.32182574,16987228,0.0,6.84,0.0,3.56,0.0,13.43,0.11,0.09
1523828635.36128783,17026690,0.0,6.51,0.0,3.36,0.0,13.94,0.11,0.1
1523828635.40136790,17066770,0.0,6.16,0.0,3.16,0.0,14.33,0.11,0.1
1523828635.44196987,17107372,0.0,5.81,0.0,2.97,0.0,14.7,0.12,0.1
1523828635.48095775,17146360,0.0,5.28,0.0,2.59,0.0,14.97,0.12,0.09
1523828635.52220988,17187612,0.0,4.74,0.0,2.22,0.0,15.16,0.12,0.09
1523828635.56102586,17226428,0.0,4.19,0.0,1.85,0.0,15.35,0.12,0.07
1523828635.60153985,17266942,0.0,3.65,0.0,1.48,0.0,15.35,0.12,0.07
1523828635.64170480,17307107,0.0,3.5,0.0,1.53,0.0,15.37,0.13,0.07
1523828635.68098378,17346386,0.0,3.75,0.0,2.01,0.0,15.35,0.13,0.06
1523828635.72220492,17387607,0.0,4.0,0.0,2.48,0.0,15.27,0.13,0.06
1523828635.76113176,17426534,0.0,4.25,0.0,2.95,0.0,15.2,0.13,0.05
1523828635.80150676,17466909,0.0,4.5,0.0,3.42,0.0,15.26,0.13,0.05
1523828635.84223390,17507636,0.0,4.7,0.0,3.59,0.0,15.31,0.11,0.05
1523828635.88112688,17546529,0.0,4.84,0.0,3.44,0.0,15.37,0.11,0.04
1523828635.92198181,17587384,0.0,4.98,0.0,3.3,0.0,15.45,0.11,0.04
1523828635.96101880,17626421,0.0,5.12,0.0,3.16,0.0,15.52,0.11,0.04
1523828636.00162888,17667031,0.0,5.27,0.0,3.01,0.0,15.67,0.11,0.04
1523828636.04217482,17707577,0.0,5.33,0.0,3.0,0.0,15.82,0.1,0.04
1523828636.08078384,17746186,0.0,5.29,0.0,3.11,0.0,15.96,0.1,0.04
1523828636.12204885,17787451,0.0,5.26,0.0,3.21,0.0,16.09,0.1,0.04
1523828636.16130877,17826711,0.0,5.23,0.0,3.32,0.0,16.21,0.1,0.04
1523828636.20148873,17866891,0.0,5.19,0.0,3.43,0.0,16.31,0.1,0.04
1523828636.24167371,17907076,0.0,5.22,0.0,3.46,0.0,16.42,0.08,0.04
1523828636.28085089,17946253,0.0,5.31,0.0,3.42,0.0,16.52,0.08,0.04
1523828636.32183886,17987241,0.0,5.39,0.0,3.37,0.0,16.62,0.08,0.04
1523828636.36128688,18026689,0.0,5.48,0.0,3.32,0.0,16.72,0.08,0.03
1523828636.40133572,18066738,0.0,5.57,0.0,3.27,0.0,16.81,0.08,0.03
1523828636.44216180,18107564,0.0,5.65,0.0,3.22,0.0,16.9,0.08,0.03
1523828636.48092890,18146331,0.0,5.67,0.0,3.15,0.0,17.01,0.07,0.03
1523828636.52186275,18187265,0.0,5.61,0.0,3.07,0.0,17.15,0.07,0.03
1523828636.56108284,18226485,0.0,5.56,0.0,2.99,0.0,17.27,0.07,0.03
1523828636.60130382,18266706,0.0,5.5,0.0,2.91,0.0,17.36,0.07,0.03
1523828636.64165282,18307055,0.0,5.45,0.0,2.93,0.0,17.44,0.06,0.03
1523828636.68107581,18346478,0.0,5.41,0.0,3.05,0.0,17.49,0.06,0.03
1523828636.72192574,18387328,0.0,5.37,0.0,3.18,0.0,17.52,0.06,0.03
1523828636.76110888,18426511,0.0,5.33,0.0,3.3,0.0,17.54,0.06,0.02
1523828636.80158782,18466990,0.0,5.29,0.0,3.42,0.0,17.54,0.06,0.02
1523828636.84229875,18507701,0.0,5.27,0.0,3.42,0.0,17.54,0.06,0.02
1523828636.88114190,18546544,0.0,5.25,0.0,3.28,0.0,17.54,0.06,0.02
1523828636.92198181,18587384,0.0,5.24,0.0,3.15,0.0,17.52,0.06,0.02
1523828636.96104074,18626443,0.0,5.22,0.0,3.01,0.0,17.51,0.06,0.01
1523828637.00185871,18667261,0.0,5.21,0.0,2.88,0.0,17.56,0.06,0.01
1523828637.04209280,18707495,0.0,5.18,0.0,2.82,0.0,17.6,0.05,0.01
1523828637.08097982,18746382,0.0,5.13,0.0,2.83,0.0,17.62,0.05,0.01
1523828637.12187481,18787277,0.0,5.08,0.0,2.85,0.0,17.63,0.05,0.01
1523828637.16096592,18826368,0.0,5.02,0.0,2.87,0.0,17.64,0.05,0.01
1523828637.20185876,18867261,0.0,4.97,0.0,2.89,0.0,17.65,0.05,0.01
1523828637.24176288,18907165,0.0,5.01,0.0,2.99,0.0,17.66,0.05,0.01
1523828637.28090191,18946304,0.0,5.14,0.0,3.18,0.0,17.67,0.05,0.01
1523828637.32201791,18987420,0.0,5.28,0.0,3.37,0.0,17.68,0.05,0.01
1523828637.36100078,19026403,0.0,5.41,0.0,3.56,0.0,17.7,0.05,0.0
1523828637.40148592,19066888,0.0,5.54,0.0,3.75,0.0,17.7,0.05,0.0
1523828637.44210982,19107512,0.0,5.54,0.0,3.77,0.0,17.69,0.05,0.0
1523828637.48075485,19146157,0.0,5.41,0.0,3.63,0.0,17.71,0.05,0.01
1523828637.52173185,19187134,0.0,5.28,0.0,3.49,0.0,17.75,0.05,0.01
1523828637.56091881,19226321,0.0,5.15,0.0,3.35,0.0,17.78,0.05,0.0
1523828637.60192490,19267327,0.0,5.02,0.0,3.21,0.0,17.77,0.05,0.0
1523828637.64201593,19307418,0.0,5.01,0.0,3.17,0.0,17.76,0.04,0.0
1523828637.68099380,19346396,0.0,5.11,0.0,3.23,0.0,17.74,0.04,0.0
1523828637.72197080,19387373,0.0,5.21,0.0,3.29,0.0,17.72,0.04,0.0
1523828637.76098680,19426389,0.0,5.31,0.0,3.35,0.0,17.7,0.04,0.0
1523828637.80153584,19466938,0.0,5.42,0.0,3.4,0.0,17.73,0.04,0.0
1523828637.84219790,19507600,0.0,5.49,0.0,3.31,0.0,17.75,0.05,0.0
1523828637.88100076,19546403,0.0,5.53,0.0,3.06,0.0,17.79,0.05,0.0
1523828637.92193675,19587339,0.0,5.57,0.0,2.81,0.0,17.85,0.05,0.0
1523828637.96110582,19626508,0.0,5.62,0.0,2.56,0.0,17.9,0.05,0.01
1523828638.00146794,19666870,0.0,5.66,0.0,2.31,0.0,17.94,0.05,0.01
1523828638.04211783,19707520,0.0,5.59,0.0,2.27,0.0,17.98,0.05,0.01
1523828638.08086991,19746272,0.0,5.4,0.0,2.44,0.0,17.99,0.05,0.0
1523828638.12170482,19787107,0.0,5.22,0.0,2.61,0.0,17.96,0.05,0.0
1523828638.16119194,19826594,0.0,5.04,0.0,2.78,0.0,17.94,0.05,0.01
1523828638.20127892,19866681,0.0,4.85,0.0,2.95,0.0,17.84,0.05,0.01
1523828638.24171877,19907121,0.0,4.83,0.0,3.09,0.0,17.75,0.05,0.01
1523828638.28117776,19946580,0.0,4.97,0.0,3.21,0.0,17.65,0.05,0.01
1523828638.32219791,19987600,0.0,5.11,0.0,3.32,0.0,17.55,0.05,0.01
1523828638.36129189,20026694,0.0,5.25,0.0,3.44,0.0,17.45,0.05,0.01
1523828638.40098882,20066391,0.0,5.4,0.0,3.54,0.0,17.45,0.05,0.01
1523828638.44167280,20107075,0.0,5.54,0.0,3.65,0.0,17.45,0.05,0.01
1523828638.48156786,20146970,0.0,5.45,0.0,3.56,0.0,17.45,0.05,0.01
1523828638.52211976,20187522,0.0,5.36,0.0,3.47,0.0,17.47,0.05,0.01
1523828638.56107187,20226474,0.0,5.27,0.0,3.38,0.0,17.49,0.05,0.01
1523828638.60168982,20267092,0.0,5.18,0.0,3.29,0.0,17.43,0.05,0.01
1523828638.64195991,20307362,0.0,5.07,0.0,3.26,0.0,17.38,0.04,0.01
1523828638.68078685,20346189,0.0,4.94,0.0,3.3,0.0,17.32,0.04,0.01
1523828638.72197485,20387377,0.0,4.81,0.0,3.33,0.0,17.25,0.04,0.01
1523828638.76096582,20426368,0.0,4.69,0.0,3.37,0.0,17.18,0.04,0.02
1523828638.80139184,20466794,0.0,4.56,0.0,3.4,0.0,17.05,0.04,0.02
1523828638.84228182,20507684,0.0,4.51,0.0,3.39,0.0,16.93,0.04,0.02
1523828638.88113785,20546540,0.0,4.54,0.0,3.32,0.0,16.82,0.04,0.02
1523828638.92205572,20587458,0.0,4.57,0.0,3.25,0.0,16.73,0.04,0.02
1523828638.96113181,20626534,0.0,4.6,0.0,3.18,0.0,16.64,0.04,0.02
1523828639.00136876,20666771,0.0,4.63,0.0,3.11,0.0,16.55,0.04,0.02
1523828639.04173589,20707138,0.0,4.66,0.0,3.03,0.0,16.47,0.03,0.02
1523828639.08085084,20746253,0.0,4.68,0.0,2.94,0.0,16.39,0.03,0.02
1523828639.12189579,20787298,0.0,4.7,0.0,2.86,0.0,16.31,0.03,0.02
1523828639.16101193,20826414,0.0,4.72,0.0,2.77,0.0,16.23,0.03,0.02
1523828639.20143580,20866838,0.0,4.74,0.0,2.68,0.0,16.19,0.03,0.02
1523828639.24211073,20907513,0.0,4.83,0.0,2.66,0.0,16.16,0.04,0.02
1523828639.28087687,20946279,0.0,4.99,0.0,2.72,0.0,16.13,0.04,0.02
1523828639.32197094,20987373,0.0,5.15,0.0,2.77,0.0,16.11,0.04,0.02
1523828639.36104274,21026445,0.0,5.31,0.0,2.83,0.0,16.09,0.04,0.01
1523828639.40141678,21066819,0.0,5.48,0.0,2.88,0.0,16.14,0.04,0.01
1523828639.44162893,21107031,0.0,5.59,0.0,2.91,0.0,16.18,0.03,0.01
1523828639.48090982,21146312,0.0,5.66,0.0,2.92,0.0,16.26,0.03,0.02
1523828639.52225089,21187653,0.0,5.74,0.0,2.92,0.0,16.36,0.03,0.02
1523828639.56151390,21226916,0.0,5.81,0.0,2.93,0.0,16.45,0.03,0.02
1523828639.60146475,21266867,0.0,5.88,0.0,2.93,0.0,16.57,0.03,0.02
1523828639.64163375,21307036,0.0,5.8,0.0,2.92,0.0,16.66,0.04,0.02
1523828639.68085074,21346253,0.0,5.56,0.0,2.9,0.0,16.78,0.04,0.02
1523828639.72189879,21387301,0.0,5.33,0.0,2.88,0.0,16.91,0.04,0.02
1523828639.76105094,21426453,0.0,5.1,0.0,2.86,0.0,17.03,0.04,0.02
1523828639.80145884,21466861,0.0,4.86,0.0,2.84,0.0,17.06,0.04,0.02
1523828639.84222984,21507632,0.0,4.75,0.0,2.87,0.0,17.09,0.03,0.02
1523828639.88120794,21546610,0.0,4.77,0.0,2.95,0.0,17.1,0.03,0.02
1523828639.92178774,21587190,0.0,4.78,0.0,3.02,0.0,17.08,0.03,0.02
1523828639.96091294,21626315,0.0,4.8,0.0,3.1,0.0,17.07,0.03,0.01
1523828640.00147891,21666881,0.0,4.82,0.0,3.18,0.0,17.06,0.03,0.01
1523828640.04172373,21707126,0.0,4.9,0.0,3.26,0.0,17.07,0.03,0.01
1523828640.08120179,21746604,0.0,5.03,0.0,3.34,0.0,17.04,0.03,0.01
1523828640.12185478,21787257,0.0,5.16,0.0,3.43,0.0,16.98,0.03,0.01
1523828640.16095471,21826357,0.0,5.29,0.0,3.52,0.0,16.93,0.03,0.01
1523828640.20183873,21867241,0.0,5.43,0.0,3.6,0.0,16.9,0.03,0.01
1523828640.24179387,21907196,0.0,5.47,0.0,3.51,0.0,16.87,0.04,0.01
1523828640.28090572,21946308,0.0,5.41,0.0,3.24,0.0,16.86,0.04,0.01
1523828640.32176971,21987172,0.0,5.37,0.0,2.96,0.0,16.87,0.04,0.01
1523828640.36119294,22026595,0.0,5.32,0.0,2.68,0.0,16.88,0.04,0.01
1523828640.40148687,22066889,0.0,5.27,0.0,2.41,0.0,16.88,0.04,0.01
1523828640.44181871,22107221,0.0,5.19,0.0,2.36,0.0,16.88,0.04,0.01
1523828640.48107982,22146482,0.0,5.07,0.0,2.52,0.0,16.89,0.04,0.01
1523828640.52198792,22187390,0.0,4.96,0.0,2.68,0.0,16.92,0.04,0.01
1523828640.56122375,22226626,0.0,4.85,0.0,2.85,0.0,16.94,0.04,0.01
1523828640.60159588,22266998,0.0,4.74,0.0,3.01,0.0,16.87,0.04,0.01
1523828640.64161587,22307018,0.0,4.72,0.0,3.15,0.0,16.82,0.04,0.01
1523828640.68091393,22346316,0.0,4.8,0.0,3.26,0.0,16.74,0.04,0.01
1523828640.72214794,22387550,0.0,4.88,0.0,3.37,0.0,16.65,0.04,0.01
1523828640.76135683,22426759,0.0,4.96,0.0,3.48,0.0,16.56,0.04,0.01
1523828640.80148387,22466886,0.0,5.05,0.0,3.59,0.0,16.58,0.04,0.01
1523828640.84248281,22507885,0.0,5.08,0.0,3.59,0.0,16.6,0.04,0.01
1523828640.88104081,22546443,0.0,5.06,0.0,3.49,0.0,16.61,0.04,0.01
1523828640.92174983,22587152,0.0,5.03,0.0,3.38,0.0,16.61,0.04,0.01
1523828640.96099591,22626398,0.0,5.01,0.0,3.28,0.0,16.61,0.04,0.01
1523828641.00143576,22666838,0.0,4.98,0.0,3.17,0.0,16.63,0.04,0.01
1523828641.04178071,22707183,0.0,4.94,0.0,3.16,0.0,16.64,0.03,0.01
1523828641.08112288,22746525,0.0,4.87,0.0,3.25,0.0,16.65,0.03,0.0
1523828641.12186384,22787266,0.0,4.81,0.0,3.33,0.0,16.64,0.03,0.0
1523828641.16117883,22826581,0.0,4.74,0.0,3.41,0.0,16.64,0.03,0.0
1523828641.20140576,22866808,0.0,4.67,0.0,3.5,0.0,16.61,0.03,0.0
1523828641.24177790,22907180,0.0,4.7,0.0,3.48,0.0,16.59,0.04,0.0
1523828641.28187084,22947273,0.0,4.83,0.0,3.37,0.0,16.57,0.04,0.0
1523828641.32191277,22987315,0.0,4.96,0.0,3.25,0.0,16.55,0.04,0.0
1523828641.36120081,23026603,0.0,5.08,0.0,3.14,0.0,16.53,0.04,0.01
1523828641.40152979,23066932,0.0,5.22,0.0,3.02,0.0,16.64,0.04,0.01
1523828641.44163275,23107035,0.0,5.29,0.0,2.93,0.0,16.74,0.03,0.01
1523828641.48116779,23146570,0.0,5.3,0.0,2.88,0.0,16.83,0.03,0.01
1523828641.52188182,23187284,0.0,5.31,0.0,2.83,0.0,16.91,0.03,0.01
1523828641.56132174,23226724,0.0,5.31,0.0,2.78,0.0,16.98,0.03,0.01
1523828641.60151887,23266921,0.0,5.32,0.0,2.72,0.0,17.06,0.03,0.01
1523828641.64171386,23307116,0.0,5.34,0.0,2.72,0.0,17.12,0.03,0.01
1523828641.68102980,23346432,0.0,5.36,0.0,2.77,0.0,17.2,0.03,0.01
1523828641.72197676,23387379,0.0,5.39,0.0,2.82,0.0,17.28,0.03,0.01
1523828641.76110172,23426504,0.0,5.41,0.0,2.87,0.0,17.35,0.03,0.01
1523828641.80186391,23467266,0.0,5.44,0.0,2.92,0.0,17.41,0.03,0.01
1523828641.84233594,23507738,0.0,5.43,0.0,2.94,0.0,17.46,0.02,0.01
1523828641.88108087,23546483,0.0,5.4,0.0,2.94,0.0,17.51,0.02,0.01
1523828641.92186689,23587269,0.0,5.36,0.0,2.93,0.0,17.55,0.02,0.01
1523828641.96109676,23626499,0.0,5.32,0.0,2.92,0.0,17.59,0.02,0.01
1523828642.00146675,23666869,0.0,5.28,0.0,2.92,0.0,17.56,0.02,0.01
1523828642.04179382,23707196,0.0,5.27,0.0,2.89,0.0,17.54,0.02,0.01
1523828642.08120680,23746609,0.0,5.28,0.0,2.83,0.0,17.5,0.02,0.01
1523828642.12229991,23787702,0.0,5.3,0.0,2.78,0.0,17.44,0.02,0.01
1523828642.16104484,23826447,0.0,5.31,0.0,2.72,0.0,17.39,0.02,0.01
1523828642.20135379,23866756,0.0,5.33,0.0,2.66,0.0,17.42,0.02,0.01
1523828642.24195290,23907355,0.0,5.33,0.0,2.63,0.0,17.45,0.02,0.01
1523828642.28119183,23946594,0.0,5.32,0.0,2.62,0.0,17.47,0.02,0.01
1523828642.32198381,23987386,0.0,5.3,0.0,2.61,0.0,17.48,0.02,0.01
1523828642.36118484,24026587,0.0,5.28,0.0,2.61,0.0,17.49,0.02,0.01
1523828642.40114474,24066547,0.0,5.27,0.0,2.6,0.0,17.5,0.02,0.01
1523828642.44193578,24107338,0.0,5.25,0.0,2.6,0.0,17.51,0.02,0.01
1523828642.48098373,24146386,0.0,5.23,0.0,2.61,0.0,17.51,0.02,0.01
1523828642.52186179,24187264,0.0,5.22,0.0,2.62,0.0,17.52,0.02,0.01
1523828642.56107879,24226481,0.0,5.2,0.0,2.63,0.0,17.53,0.02,0.01
1523828642.60159183,24266994,0.0,5.18,0.0,2.64,0.0,17.54,0.02,0.01
1523828642.64177585,24307178,0.0,5.17,0.0,2.65,0.0,17.55,0.03,0.01
1523828642.68120480,24346607,0.0,5.17,0.0,2.67,0.0,17.56,0.03,0.01
1523828642.72195673,24387359,0.0,5.17,0.0,2.7,0.0,17.56,0.03,0.01
1523828642.76108694,24426489,0.0,5.17,0.0,2.72,0.0,17.57,0.03,0.01
1523828642.80137372,24466776,0.0,5.17,0.0,2.74,0.0,17.57,0.03,0.01
1523828642.84219384,24507596,0.0,5.17,0.0,2.75,0.0,17.57,0.02,0.01
1523828642.88154292,24546945,0.0,5.16,0.0,2.75,0.0,17.57,0.02,0.01
1523828642.92189074,24587293,0.0,5.15,0.0,2.75,0.0,17.56,0.02,0.01
1523828642.96111679,24626519,0.0,5.14,0.0,2.75,0.0,17.56,0.02,0.01
1523828643.00133991,24666742,0.0,5.13,0.0,2.75,0.0,17.56,0.02,0.01
1523828643.04170871,24707111,0.0,5.12,0.0,2.74,0.0,17.55,0.02,0.01
1523828643.08148789,24746890,0.0,5.11,0.0,2.73,0.0,17.55,0.02,0.01
1523828643.12202787,24787430,0.0,5.09,0.0,2.72,0.0,17.55,0.02,0.01
1523828643.16116285,24826565,0.0,5.07,0.0,2.72,0.0,17.55,0.02,0.02
1523828643.20151591,24866918,0.0,5.06,0.0,2.71,0.0,17.54,0.02,0.02
1523828643.24175978,24907162,0.0,5.04,0.0,2.7,0.0,17.54,0.02,0.02
1523828643.28154182,24946944,0.0,5.04,0.0,2.7,0.0,17.54,0.02,0.02
1523828643.32230186,24987704,0.0,5.03,0.0,2.69,0.0,17.53,0.02,0.02
1523828643.36114073,25026543,0.0,5.02,0.0,2.68,0.0,17.53,0.02,0.02
1523828643.40174580,25067148,0.0,5.02,0.0,2.68,0.0,17.53,0.02,0.02
1523828643.44170475,25107107,0.0,5.01,0.0,2.68,0.0,17.52,0.02,0.02
1523828643.48080587,25146208,0.0,5.01,0.0,2.69,0.0,17.52,0.02,0.02
1523828643.52175283,25187155,0.0,5.01,0.0,2.71,0.0,17.51,0.02,0.02
1523828643.56110883,25226511,0.0,5.01,0.0,2.73,0.0,17.5,0.02,0.02
1523828643.60156274,25266965,0.0,5.0,0.0,2.74,0.0,17.49,0.02,0.02
1523828643.64207077,25307473,0.0,4.99,0.0,2.75,0.0,17.49,0.03,0.02
1523828643.68087482,25346277,0.0,4.96,0.0,2.77,0.0,17.48,0.03,0.02
1523828643.72202992,25387432,0.0,4.93,0.0,2.79,0.0,17.48,0.03,0.02
1523828643.76098585,25426388,0.0,4.91,0.0,2.81,0.0,17.47,0.03,0.02
1523828643.80145979,25466862,0.0,4.88,0.0,2.83,0.0,17.47,0.03,0.02
1523828643.84237885,25507781,0.0,4.87,0.0,2.83,0.0,17.47,0.03,0.02
1523828643.88119292,25546595,0.0,4.87,0.0,2.82,0.0,17.47,0.03,0.02
1523828643.92195082,25587353,0.0,4.87,0.0,2.81,0.0,17.46,0.03,0.02
1523828643.96114278,25626545,0.0,4.86,0.0,2.81,0.0,17.46,0.03,0.03
1523828644.00134087,25666743,0.0,4.86,0.0,2.8,0.0,17.45,0.03,0.03
1523828644.04197288,25707375,0.0,4.86,0.0,2.81,0.0,17.45,0.03,0.03
1523828644.08114481,25746547,0.0,4.85,0.0,2.83,0.0,17.44,0.03,0.03
1523828644.12187672,25787279,0.0,4.83,0.0,2.86,0.0,17.44,0.03,0.03
1523828644.16115880,25826561,0.0,4.82,0.0,2.89,0.0,17.44,0.03,0.03
1523828644.20129371,25866696,0.0,4.81,0.0,2.91,0.0,17.42,0.03,0.03
1523828644.24173689,25907139,0.0,4.8,0.0,2.92,0.0,17.41,0.03,0.03
1523828644.28121376,25946616,0.0,4.8,0.0,2.9,0.0,17.41,0.03,0.03
1523828644.32196689,25987369,0.0,4.8,0.0,2.88,0.0,17.4,0.03,0.03
1523828644.36120176,26026604,0.0,4.8,0.0,2.86,0.0,17.4,0.03,0.02
1523828644.40111184,26066514,0.0,4.81,0.0,2.84,0.0,17.4,0.03,0.02
1523828644.44159675,26106999,0.0,4.8,0.0,2.83,0.0,17.4,0.03,0.02
1523828644.48078275,26146185,0.0,4.8,0.0,2.83,0.0,17.4,0.03,0.02
1523828644.52182984,26187232,0.0,4.8,0.0,2.83,0.0,17.4,0.03,0.02
1523828644.56108880,26226491,0.0,4.8,0.0,2.84,0.0,17.4,0.03,0.02
1523828644.60148478,26266887,0.0,4.79,0.0,2.84,0.0,17.4,0.03,0.02
1523828644.64166379,26307066,0.0,4.79,0.0,2.84,0.0,17.4,0.03,0.02
1523828644.68158674,26346989,0.0,4.79,0.0,2.86,0.0,17.41,0.03,0.02
1523828644.72182894,26387231,0.0,4.78,0.0,2.87,0.0,17.41,0.03,0.02
1523828644.76107073,26426473,0.0,4.78,0.0,2.88,0.0,17.42,0.03,0.02
1523828644.80146980,26466872,0.0,4.77,0.0,2.89,0.0,17.41,0.03,0.02
1523828644.84229684,26507699,0.0,4.76,0.0,2.89,0.0,17.41,0.02,0.02
1523828644.88114977,26546552,0.0,4.76,0.0,2.89,0.0,17.41,0.02,0.02
1523828644.92216992,26587572,0.0,4.75,0.0,2.88,0.0,17.4,0.02,0.02
1523828644.96110272,26626505,0.0,4.74,0.0,2.88,0.0,17.4,0.02,0.02
1523828645.00181389,26667216,0.0,4.74,0.0,2.87,0.0,17.39,0.02,0.02
1523828645.04176974,26707172,0.0,4.73,0.0,2.87,0.0,17.38,0.02,0.02
1523828645.08075380,26746156,0.0,4.73,0.0,2.87,0.0,17.38,0.02,0.02
1523828645.12192178,26787324,0.0,4.73,0.0,2.87,0.0,17.38,0.02,0.02
1523828645.16103792,26826440,0.0,4.73,0.0,2.88,0.0,17.37,0.02,0.02
1523828645.20156693,26866969,0.0,4.72,0.0,2.88,0.0,17.37,0.02,0.02
1523828645.24170184,26907104,0.0,4.72,0.0,2.88,0.0,17.37,0.02,0.02
1523828645.28080082,26946203,0.0,4.72,0.0,2.89,0.0,17.37,0.02,0.02
1523828645.32252574,26987928,0.0,4.73,0.0,2.9,0.0,17.37,0.02,0.02
1523828645.36103773,27026440,0.0,4.73,0.0,2.9,0.0,17.37,0.02,0.02
1523828645.40141582,27066818,0.0,4.73,0.0,2.91,0.0,17.36,0.02,0.02
1523828645.44169188,27107094,0.0,4.72,0.0,2.9,0.0,17.36,0.03,0.02
1523828645.48087072,27146273,0.0,4.7,0.0,2.87,0.0,17.36,0.03,0.02
1523828645.52196383,27187366,0.0,4.68,0.0,2.84,0.0,17.36,0.03,0.02
1523828645.56106472,27226467,0.0,4.67,0.0,2.82,0.0,17.37,0.03,0.02
1523828645.60148382,27266886,0.0,4.65,0.0,2.79,0.0,17.37,0.03,0.02
1523828645.64174891,27307151,0.0,4.64,0.0,2.79,0.0,17.37,0.04,0.02
1523828645.68100190,27346404,0.0,4.63,0.0,2.83,0.0,17.37,0.04,0.02
1523828645.72228384,27387686,0.0,4.63,0.0,2.86,0.0,17.36,0.04,0.02
1523828645.76106381,27426466,0.0,4.62,0.0,2.89,0.0,17.36,0.04,0.02
1523828645.80167890,27467081,0.0,4.61,0.0,2.93,0.0,17.35,0.04,0.02
1523828645.84234977,27507752,0.0,4.61,0.0,2.95,0.0,17.35,0.03,0.02
1523828645.88105273,27546455,0.0,4.61,0.0,2.96,0.0,17.34,0.03,0.02
1523828645.92188478,27587287,0.0,4.61,0.0,2.98,0.0,17.34,0.03,0.02
1523828645.96150374,27626906,0.0,4.61,0.0,2.99,0.0,17.34,0.03,0.02
1523828646.00140071,27666803,0.0,4.61,0.0,3.0,0.0,17.34,0.03,0.02
1523828646.04196787,27707370,0.0,4.6,0.0,2.99,0.0,17.35,0.04,0.02
1523828646.08087277,27746275,0.0,4.57,0.0,2.97,0.0,17.35,0.04,0.02
1523828646.12206984,27787472,0.0,4.54,0.0,2.94,0.0,17.34,0.04,0.02
1523828646.16088772,27826290,0.0,4.51,0.0,2.92,0.0,17.34,0.04,0.02
1523828646.20142674,27866829,0.0,4.48,0.0,2.89,0.0,17.33,0.04,0.02
1523828646.24167991,27907082,0.0,4.47,0.0,2.88,0.0,17.32,0.04,0.02
1523828646.28120184,27946604,0.0,4.48,0.0,2.87,0.0,17.31,0.04,0.02
1523828646.32227874,27987681,0.0,4.49,0.0,2.87,0.0,17.3,0.04,0.02
1523828646.36116290,28026565,0.0,4.49,0.0,2.87,0.0,17.29,0.04,0.03
1523828646.40153074,28066933,0.0,4.5,0.0,2.87,0.0,17.28,0.04,0.03
1523828646.44179487,28107197,0.0,4.51,0.0,2.87,0.0,17.28,0.04,0.03
1523828646.48089480,28146297,0.0,4.52,0.0,2.89,0.0,17.27,0.04,0.03
1523828646.52200675,28187409,0.0,4.53,0.0,2.91,0.0,17.26,0.04,0.03
1523828646.56099582,28226398,0.0,4.54,0.0,2.93,0.0,17.25,0.04,0.03
1523828646.60181284,28267215,0.0,4.55,0.0,2.94,0.0,17.25,0.04,0.03
1523828646.64165187,28307054,0.0,4.55,0.0,2.96,0.0,17.24,0.04,0.03
1523828646.68105793,28346460,0.0,4.52,0.0,2.98,0.0,17.23,0.04,0.03
1523828646.72192883,28387331,0.0,4.5,0.0,2.99,0.0,17.22,0.04,0.03
1523828646.76155281,28426955,0.0,4.48,0.0,3.01,0.0,17.2,0.04,0.03
1523828646.80137992,28466782,0.0,4.46,0.0,3.02,0.0,17.19,0.04,0.03
1523828646.84248972,28507892,0.0,4.44,0.0,3.03,0.0,17.18,0.03,0.03
1523828646.88115883,28546561,0.0,4.43,0.0,3.03,0.0,17.17,0.03,0.04
1523828646.92207789,28587480,0.0,4.42,0.0,3.04,0.0,17.16,0.03,0.04
1523828646.96120381,28626606,0.0,4.41,0.0,3.04,0.0,17.15,0.03,0.04
1523828647.00109982,28666502,0.0,4.4,0.0,3.04,0.0,17.14,0.03,0.04
1523828647.04176974,28707172,0.0,4.39,0.0,3.03,0.0,17.14,0.03,0.04
1523828647.08116889,28746571,0.0,4.38,0.0,3.01,0.0,17.13,0.03,0.04
1523828647.12186885,28787271,0.0,4.37,0.0,2.99,0.0,17.12,0.03,0.04
1523828647.16106176,28826464,0.0,4.37,0.0,2.97,0.0,17.11,0.03,0.04
1523828647.20107079,28866473,0.0,4.36,0.0,2.95,0.0,17.1,0.03,0.04
1523828647.24205875,28907461,0.0,4.36,0.0,2.94,0.0,17.09,0.04,0.04
1523828647.28084779,28946250,0.0,4.37,0.0,2.95,0.0,17.08,0.04,0.04
1523828647.32189894,28987301,0.0,4.38,0.0,2.96,0.0,17.06,0.04,0.04
1523828647.36160588,29027008,0.0,4.39,0.0,2.97,0.0,17.05,0.04,0.05
1523828647.40133071,29066733,0.0,4.4,0.0,2.98,0.0,17.03,0.04,0.05
1523828647.44175792,29107160,0.0,4.4,0.0,2.99,0.0,17.01,0.03,0.05
1523828647.48088074,29146283,0.0,4.4,0.0,3.0,0.0,16.99,0.03,0.05
1523828647.52197886,29187381,0.0,4.39,0.0,3.02,0.0,16.98,0.03,0.05
1523828647.56132674,29226729,0.0,4.38,0.0,3.03,0.0,16.97,0.03,0.05
1523828647.60119891,29266601,0.0,4.37,0.0,3.05,0.0,16.95,0.03,0.05
1523828647.64188671,29307289,0.0,4.36,0.0,3.05,0.0,16.94,0.03,0.05
1523828647.68094778,29346350,0.0,4.36,0.0,3.05,0.0,16.93,0.03,0.05
1523828647.72192574,29387328,0.0,4.35,0.0,3.06,0.0,16.91,0.03,0.05
1523828647.76114273,29426545,0.0,4.34,0.0,3.06,0.0,16.9,0.03,0.05
1523828647.80185580,29467258,0.0,4.33,0.0,3.06,0.0,16.89,0.03,0.05
1523828647.84232688,29507729,0.0,4.32,0.0,3.05,0.0,16.88,0.02,0.05
1523828647.88132477,29546727,0.0,4.32,0.0,3.05,0.0,16.87,0.02,0.05
1523828647.92200184,29587404,0.0,4.31,0.0,3.04,0.0,16.85,0.02,0.05
1523828647.96106291,29626465,0.0,4.3,0.0,3.03,0.0,16.84,0.02,0.05
1523828648.00150585,29666908,0.0,4.29,0.0,3.02,0.0,16.83,0.02,0.05
1523828648.04167986,29707082,0.0,4.29,0.0,3.02,0.0,16.81,0.02,0.05
1523828648.08097887,29746381,0.0,4.28,0.0,3.02,0.0,16.79,0.02,0.05
1523828648.12181187,29787214,0.0,4.27,0.0,3.03,0.0,16.78,0.02,0.05
1523828648.16136193,29826764,0.0,4.27,0.0,3.03,0.0,16.76,0.02,0.05
1523828648.20168972,29867092,0.0,4.26,0.0,3.03,0.0,16.75,0.02,0.05
1523828648.24185681,29907259,0.0,4.27,0.0,3.04,0.0,16.73,0.02,0.05
1523828648.28095484,29946357,0.0,4.28,0.0,3.05,0.0,16.72,0.02,0.05
1523828648.32222390,29987626,0.0,4.28,0.0,3.06,0.0,16.71,0.02,0.05
1523828648.36121273,30026615,0.0,4.29,0.0,3.07,0.0,16.7,0.02,0.05
1523828648.40169191,30067094,0.0,4.3,0.0,3.08,0.0,16.69,0.02,0.05
1523828648.44176173,30107164,0.0,4.3,0.0,3.09,0.0,16.67,0.02,0.05
1523828648.48095679,30146359,0.0,4.3,0.0,3.08,0.0,16.66,0.02,0.05
1523828648.52198672,30187389,0.0,4.29,0.0,3.07,0.0,16.65,0.02,0.05
1523828648.56098580,30226388,0.0,4.29,0.0,3.06,0.0,16.64,0.02,0.05
1523828648.60167289,30267075,0.0,4.28,0.0,3.05,0.0,16.62,0.02,0.05
1523828648.64178991,30307192,0.0,4.27,0.0,3.06,0.0,16.6,0.02,0.05
1523828648.68093491,30346337,0.0,4.26,0.0,3.07,0.0,16.59,0.02,0.05
1523828648.72195888,30387361,0.0,4.25,0.0,3.08,0.0,16.57,0.02,0.05
1523828648.76095390,30426356,0.0,4.23,0.0,3.1,0.0,16.56,0.02,0.05
1523828648.80159879,30467001,0.0,4.22,0.0,3.11,0.0,16.54,0.02,0.05
1523828648.84295177,30508354,0.0,4.21,0.0,3.12,0.0,16.53,0.03,0.05
1523828648.88098073,30546383,0.0,4.22,0.0,3.14,0.0,16.51,0.03,0.06
1523828648.92190075,30587303,0.0,4.22,0.0,3.16,0.0,16.49,0.03,0.06
1523828648.96104693,30626449,0.0,4.22,0.0,3.17,0.0,16.47,0.03,0.06
1523828649.00178075,30667183,0.0,4.23,0.0,3.19,0.0,16.45,0.03,0.06
1523828649.04161692,30707019,0.0,4.23,0.0,3.19,0.0,16.44,0.03,0.06
1523828649.08100271,30746405,0.0,4.23,0.0,3.18,0.0,16.43,0.03,0.05
1523828649.12183976,30787242,0.0,4.23,0.0,3.17,0.0,16.42,0.03,0.05
1523828649.16141486,30826817,0.0,4.23,0.0,3.16,0.0,16.41,0.03,0.05
1523828649.20145273,30866855,0.0,4.23,0.0,3.15,0.0,16.4,0.03,0.05
1523828649.24184084,30907243,0.0,4.23,0.0,3.13,0.0,16.38,0.03,0.05
1523828649.28095675,30946359,0.0,4.23,0.0,3.11,0.0,16.37,0.03,0.05
1523828649.32186580,30987268,0.0,4.22,0.0,3.09,0.0,16.36,0.03,0.05
1523828649.36121678,31026619,0.0,4.22,0.0,3.06,0.0,16.34,0.03,0.05
1523828649.40191889,31067321,0.0,4.22,0.0,3.04,0.0,16.33,0.03,0.05
1523828649.44191384,31107316,0.0,4.22,0.0,3.04,0.0,16.32,0.03,0.05
1523828649.48097181,31146374,0.0,4.22,0.0,3.05,0.0,16.31,0.03,0.05
1523828649.52190280,31187305,0.0,4.22,0.0,3.06,0.0,16.3,0.03,0.05
1523828649.56103086,31226433,0.0,4.22,0.0,3.08,0.0,16.3,0.03,0.05
1523828649.60119081,31266593,0.0,4.22,0.0,3.09,0.0,16.28,0.03,0.05
1523828649.64162683,31307029,0.0,4.22,0.0,3.1,0.0,16.27,0.03,0.05
1523828649.68087482,31346277,0.0,4.22,0.0,3.1,0.0,16.25,0.03,0.05
1523828649.72194791,31387350,0.0,4.22,0.0,3.11,0.0,16.23,0.03,0.05
1523828649.76104188,31426444,0.0,4.21,0.0,3.11,0.0,16.22,0.03,0.05
1523828649.80167294,31467075,0.0,4.21,0.0,3.11,0.0,16.21,0.03,0.05
1523828649.84222293,31507625,0.0,4.2,0.0,3.11,0.0,16.2,0.03,0.05
1523828649.88098884,31546391,0.0,4.17,0.0,3.1,0.0,16.19,0.03,0.05
1523828649.92219472,31587597,0.0,4.15,0.0,3.08,0.0,16.17,0.03,0.05
1523828649.96113086,31626533,0.0,4.12,0.0,3.07,0.0,16.16,0.03,0.05
1523828650.00130987,31666712,0.0,4.1,0.0,3.06,0.0,16.13,0.03,0.05
1523828650.04196072,31707363,0.0,4.08,0.0,3.05,0.0,16.11,0.03,0.05
1523828650.08089280,31746295,0.0,4.09,0.0,3.05,0.0,16.09,0.03,0.05
1523828650.12224388,31787646,0.0,4.09,0.0,3.05,0.0,16.07,0.03,0.05
1523828650.16097879,31826381,0.0,4.1,0.0,3.05,0.0,16.05,0.03,0.05
1523828650.20146489,31866867,0.0,4.1,0.0,3.05,0.0,16.03,0.03,0.05
1523828650.24178481,31907187,0.0,4.11,0.0,3.05,0.0,16.02,0.03,0.05
1523828650.28116393,31946566,0.0,4.11,0.0,3.06,0.0,16.01,0.03,0.05
1523828650.32198191,31987384,0.0,4.12,0.0,3.07,0.0,16.0,0.03,0.05
1523828650.36115980,32026562,0.0,4.13,0.0,3.08,0.0,16.0,0.03,0.04
1523828650.40171671,32067119,0.0,4.13,0.0,3.09,0.0,15.99,0.03,0.04
1523828650.44223380,32107636,0.0,4.13,0.0,3.08,0.0,15.98,0.03,0.04
1523828650.48091388,32146316,0.0,4.12,0.0,3.07,0.0,15.97,0.03,0.04
1523828650.52195072,32187353,0.0,4.12,0.0,3.05,0.0,15.96,0.03,0.04
1523828650.56105590,32226458,0.0,4.11,0.0,3.04,0.0,15.95,0.03,0.04
1523828650.60160279,32267005,0.0,4.1,0.0,3.02,0.0,15.94,0.03,0.04
1523828650.64187074,32307273,0.0,4.1,0.0,3.03,0.0,15.93,0.03,0.04
1523828650.68090582,32346308,0.0,4.1,0.0,3.05,0.0,15.91,0.03,0.05
1523828650.72197580,32387378,0.0,4.1,0.0,3.07,0.0,15.89,0.03,0.05
1523828650.76121688,32426619,0.0,4.1,0.0,3.09,0.0,15.88,0.03,0.05
1523828650.80134988,32466752,0.0,4.1,0.0,3.11,0.0,15.85,0.03,0.05
1523828650.84217691,32507579,0.0,4.1,0.0,3.13,0.0,15.83,0.03,0.05
1523828650.88103771,32546440,0.0,4.1,0.0,3.13,0.0,15.81,0.03,0.05
1523828650.92198682,32587389,0.0,4.11,0.0,3.14,0.0,15.79,0.03,0.05
1523828650.96133590,32626738,0.0,4.11,0.0,3.14,0.0,15.78,0.03,0.05
1523828651.00139689,32666799,0.0,4.11,0.0,3.15,0.0,15.76,0.03,0.05
1523828651.04179978,32707202,0.0,4.12,0.0,3.15,0.0,15.74,0.03,0.05
1523828651.08104992,32746452,0.0,4.12,0.0,3.13,0.0,15.73,0.03,0.05
1523828651.12209773,32787500,0.0,4.13,0.0,3.13,0.0,15.71,0.03,0.05
1523828651.16108775,32826490,0.0,4.14,0.0,3.12,0.0,15.69,0.03,0.05
1523828651.20168281,32867085,0.0,4.15,0.0,3.11,0.0,15.67,0.03,0.05
1523828651.24163890,32907041,0.0,4.15,0.0,3.1,0.0,15.66,0.03,0.05
1523828651.28102088,32946423,0.0,4.14,0.0,3.1,0.0,15.64,0.03,0.05
1523828651.32203078,32987433,0.0,4.13,0.0,3.1,0.0,15.63,0.03,0.05
1523828651.36136675,33026769,0.0,4.12,0.0,3.1,0.0,15.61,0.03,0.05
1523828651.40178990,33067192,0.0,4.1,0.0,3.1,0.0,15.59,0.03,0.05
1523828651.44196081,33107363,0.0,4.09,0.0,3.1,0.0,15.57,0.02,0.05
1523828651.48093677,33146339,0.0,4.08,0.0,3.1,0.0,15.56,0.02,0.05
1523828651.52181792,33187220,0.0,4.07,0.0,3.1,0.0,15.54,0.02,0.05
1523828651.56103086,33226433,0.0,4.06,0.0,3.1,0.0,15.53,0.02,0.05
1523828651.60145783,33266860,0.0,4.05,0.0,3.1,0.0,15.51,0.02,0.05
1523828651.64156890,33306971,0.0,4.05,0.0,3.11,0.0,15.5,0.02,0.05
1523828651.68085790,33346260,0.0,4.05,0.0,3.12,0.0,15.48,0.02,0.05
1523828651.72210884,33387511,0.0,4.06,0.0,3.13,0.0,15.47,0.02,0.05
1523828651.76109791,33426500,0.0,4.06,0.0,3.13,0.0,15.46,0.02,0.05
1523828651.80160189,33467004,0.0,4.07,0.0,3.14,0.0,15.44,0.02,0.05
1523828651.84216285,33507565,0.0,4.07,0.0,3.14,0.0,15.42,0.03,0.05
1523828651.88115382,33546556,0.0,4.08,0.0,3.13,0.0,15.41,0.03,0.05
1523828651.92189193,33587294,0.0,4.08,0.0,3.12,0.0,15.39,0.03,0.05
1523828651.96113181,33626534,0.0,4.09,0.0,3.12,0.0,15.38,0.03,0.05
1523828652.00194383,33667346,0.0,4.09,0.0,3.11,0.0,15.36,0.03,0.05
1523828652.04199576,33707398,0.0,4.1,0.0,3.1,0.0,15.34,0.02,0.05
1523828652.08103275,33746435,0.0,4.1,0.0,3.1,0.0,15.33,0.02,0.05
1523828652.12188983,33787292,0.0,4.1,0.0,3.1,0.0,15.31,0.02,0.05
1523828652.16110086,33826503,0.0,4.1,0.0,3.1,0.0,15.29,0.02,0.05
1523828652.20158291,33866985,0.0,4.1,0.0,3.1,0.0,15.28,0.02,0.05
1523828652.24165678,33907059,0.0,4.1,0.0,3.1,0.0,15.26,0.02,0.05
1523828652.28098774,33946390,0.0,4.09,0.0,3.1,0.0,15.26,0.02,0.05
1523828652.32193375,33987336,0.0,4.08,0.0,3.1,0.0,15.25,0.02,0.05
1523828652.36137772,34026780,0.0,4.07,0.0,3.1,0.0,15.25,0.02,0.05
1523828652.40183973,34067242,0.0,4.06,0.0,3.09,0.0,15.23,0.02,0.05
1523828652.44193292,34107335,0.0,4.05,0.0,3.1,0.0,15.21,0.02,0.05
1523828652.48129177,34146694,0.0,4.04,0.0,3.12,0.0,15.2,0.02,0.04
1523828652.52192593,34187328,0.0,4.03,0.0,3.13,0.0,15.19,0.02,0.04
1523828652.56105971,34226462,0.0,4.02,0.0,3.15,0.0,15.18,0.02,0.04
1523828652.60132194,34266724,0.0,4.01,0.0,3.16,0.0,15.17,0.02,0.04
1523828652.64165282,34307055,0.0,4.0,0.0,3.17,0.0,15.17,0.02,0.04
1523828652.68114281,34346545,0.0,4.01,0.0,3.16,0.0,15.15,0.02,0.04
1523828652.72173572,34387138,0.0,4.02,0.0,3.16,0.0,15.14,0.02,0.04
1523828652.76113081,34426533,0.0,4.03,0.0,3.15,0.0,15.13,0.02,0.05
1523828652.80143380,34466836,0.0,4.04,0.0,3.14,0.0,15.11,0.02,0.05
1523828652.84243393,34507836,0.0,4.05,0.0,3.13,0.0,15.1,0.03,0.05
1523828652.88096690,34546369,0.0,4.05,0.0,3.11,0.0,15.08,0.03,0.05
1523828652.92196989,34587372,0.0,4.06,0.0,3.08,0.0,15.06,0.03,0.05
1523828652.96109390,34626496,0.0,4.06,0.0,3.06,0.0,15.04,0.03,0.04
1523828653.00158978,34666992,0.0,4.07,0.0,3.03,0.0,15.04,0.03,0.04
1523828653.04221392,34707616,0.0,4.06,0.0,3.03,0.0,15.03,0.03,0.04
1523828653.08090782,34746310,0.0,4.05,0.0,3.06,0.0,15.02,0.03,0.04
1523828653.12201190,34787414,0.0,4.03,0.0,3.08,0.0,15.01,0.03,0.04
1523828653.16103888,34826441,0.0,4.01,0.0,3.11,0.0,15.0,0.03,0.05
1523828653.20137787,34866780,0.0,4.0,0.0,3.13,0.0,14.98,0.03,0.05
1523828653.24191976,34907322,0.0,4.0,0.0,3.14,0.0,14.96,0.04,0.05
1523828653.28083777,34946240,0.0,4.01,0.0,3.13,0.0,14.94,0.04,0.05
1523828653.32245779,34987860,0.0,4.02,0.0,3.12,0.0,14.93,0.04,0.05
1523828653.36105180,35026454,0.0,4.03,0.0,3.11,0.0,14.91,0.04,0.05
1523828653.40113688,35066539,0.0,4.04,0.0,3.11,0.0,14.9,0.04,0.05
1523828653.44175982,35107162,0.0,4.04,0.0,3.11,0.0,14.89,0.03,0.05
1523828653.48119092,35146593,0.0,4.04,0.0,3.12,0.0,14.88,0.03,0.05
1523828653.52213693,35187539,0.0,4.03,0.0,3.13,0.0,14.87,0.03,0.05
1523828653.56089687,35226299,0.0,4.03,0.0,3.15,0.0,14.86,0.03,0.05
1523828653.60119677,35266599,0.0,4.02,0.0,3.16,0.0,14.84,0.03,0.05
1523828653.64185786,35307260,0.0,4.02,0.0,3.17,0.0,14.83,0.03,0.05
1523828653.68086386,35346266,0.0,4.01,0.0,3.17,0.0,14.82,0.03,0.04
1523828653.72197580,35387378,0.0,4.01,0.0,3.17,0.0,14.81,0.03,0.04
1523828653.76096892,35426371,0.0,4.01,0.0,3.18,0.0,14.8,0.03,0.04
1523828653.80149579,35466898,0.0,4.0,0.0,3.18,0.0,14.79,0.03,0.04
1523828653.84233093,35507733,0.0,4.0,0.0,3.19,0.0,14.78,0.03,0.04
1523828653.88119483,35546597,0.0,4.01,0.0,3.19,0.0,14.77,0.03,0.04
1523828653.92199087,35587393,0.0,4.02,0.0,3.19,0.0,14.76,0.03,0.04
1523828653.96135783,35626760,0.0,4.02,0.0,3.2,0.0,14.76,0.03,0.03
1523828654.00132394,35666726,0.0,4.03,0.0,3.2,0.0,14.76,0.03,0.03
1523828654.04196787,35707370,0.0,4.03,0.0,3.2,0.0,14.76,0.02,0.03
1523828654.08120680,35746609,0.0,4.03,0.0,3.2,0.0,14.76,0.02,0.03
1523828654.12176681,35787169,0.0,4.02,0.0,3.21,0.0,14.76,0.02,0.03
1523828654.16103482,35826437,0.0,4.02,0.0,3.21,0.0,14.76,0.02,0.03
1523828654.20111084,35866513,0.0,4.02,0.0,3.21,0.0,14.75,0.02,0.03
1523828654.24199080,35907393,0.0,4.01,0.0,3.21,0.0,14.74,0.02,0.03
1523828654.28098083,35946383,0.0,4.0,0.0,3.2,0.0,14.74,0.02,0.03
1523828654.32189083,35987293,0.0,4.0,0.0,3.2,0.0,14.74,0.02,0.03
1523828654.36138082,36026783,0.0,3.99,0.0,3.19,0.0,14.74,0.02,0.03
1523828654.40114379,36066546,0.0,3.99,0.0,3.18,0.0,14.73,0.02,0.03
1523828654.44168186,36107084,0.0,3.99,0.0,3.19,0.0,14.73,0.02,0.03
1523828654.48128676,36146689,0.0,3.98,0.0,3.19,0.0,14.72,0.02,0.03
1523828654.52193284,36187335,0.0,3.98,0.0,3.2,0.0,14.71,0.02,0.03
1523828654.56134772,36226750,0.0,3.98,0.0,3.21,0.0,14.71,0.02,0.03
1523828654.60152888,36266931,0.0,3.98,0.0,3.21,0.0,14.69,0.02,0.03
1523828654.64162874,36307031,0.0,3.98,0.0,3.22,0.0,14.68,0.02,0.03
1523828654.68102193,36346424,0.0,3.98,0.0,3.22,0.0,14.67,0.02,0.03
1523828654.72192383,36387326,0.0,3.98,0.0,3.22,0.0,14.67,0.02,0.03
1523828654.76111388,36426516,0.0,3.97,0.0,3.23,0.0,14.66,0.02,0.03
1523828654.80128574,36466688,0.0,3.97,0.0,3.23,0.0,14.65,0.02,0.03
1523828654.84230876,36507711,0.0,3.96,0.0,3.22,0.0,14.64,0.02,0.03
1523828654.88113785,36546540,0.0,3.94,0.0,3.2,0.0,14.63,0.02,0.03
1523828654.92216182,36587564,0.0,3.93,0.0,3.19,0.0,14.62,0.02,0.03
1523828654.96109080,36626493,0.0,3.91,0.0,3.17,0.0,14.6,0.02,0.03
1523828655.00114489,36666547,0.0,3.89,0.0,3.16,0.0,14.58,0.02,0.03
1523828655.04164076,36707043,0.0,3.9,0.0,3.16,0.0,14.57,0.03,0.03
1523828655.08119178,36746594,0.0,3.93,0.0,3.16,0.0,14.56,0.03,0.04
1523828655.12222791,36787630,0.0,3.96,0.0,3.16,0.0,14.54,0.03,0.04
1523828655.16087794,36826280,0.0,3.99,0.0,3.17,0.0,14.53,0.03,0.03
1523828655.20134282,36866745,0.0,4.02,0.0,3.17,0.0,14.53,0.03,0.03
1523828655.24177885,36907181,0.0,4.03,0.0,3.18,0.0,14.52,0.03,0.03
1523828655.28097677,36946379,0.0,4.03,0.0,3.18,0.0,14.51,0.03,0.03
1523828655.32179284,36987195,0.0,4.03,0.0,3.18,0.0,14.5,0.03,0.03
1523828655.36113691,37026539,0.0,4.03,0.0,3.18,0.0,14.5,0.03,0.03
1523828655.40135694,37066759,0.0,4.03,0.0,3.18,0.0,14.48,0.03,0.03
1523828655.44171381,37107116,0.0,4.02,0.0,3.19,0.0,14.47,0.03,0.03
1523828655.48087072,37146273,0.0,4.02,0.0,3.2,0.0,14.47,0.03,0.03
1523828655.52217174,37187574,0.0,4.02,0.0,3.21,0.0,14.46,0.03,0.03
1523828655.56149793,37226900,0.0,4.01,0.0,3.22,0.0,14.46,0.03,0.03
1523828655.60155773,37266960,0.0,4.01,0.0,3.23,0.0,14.46,0.03,0.03
1523828655.64172077,37307123,0.0,4.01,0.0,3.23,0.0,14.46,0.03,0.03
1523828655.68095374,37346356,0.0,4.03,0.0,3.22,0.0,14.46,0.03,0.02
1523828655.72208381,37387486,0.0,4.04,0.0,3.21,0.0,14.45,0.03,0.02
1523828655.76120782,37426610,0.0,4.06,0.0,3.2,0.0,14.45,0.03,0.02
1523828655.80150390,37466906,0.0,4.07,0.0,3.19,0.0,14.44,0.03,0.02
1523828655.84233785,37507740,0.0,4.08,0.0,3.19,0.0,14.44,0.03,0.02
1523828655.88130689,37546709,0.0,4.09,0.0,3.19,0.0,14.43,0.03,0.03
1523828655.92188787,37587290,0.0,4.1,0.0,3.19,0.0,14.42,0.03,0.03
1523828655.96093678,37626339,0.0,4.11,0.0,3.19,0.0,14.41,0.03,0.03
1523828656.00136590,37666768,0.0,4.12,0.0,3.19,0.0,14.39,0.03,0.03
1523828656.04170394,37707106,0.0,4.11,0.0,3.19,0.0,14.38,0.03,0.03
1523828656.08083272,37746235,0.0,4.08,0.0,3.2,0.0,14.37,0.03,0.03
1523828656.12196994,37787372,0.0,4.06,0.0,3.2,0.0,14.36,0.03,0.03
1523828656.16136479,37826767,0.0,4.03,0.0,3.21,0.0,14.35,0.03,0.03
1523828656.20151687,37866919,0.0,4.01,0.0,3.21,0.0,14.34,0.03,0.03
1523828656.24161792,37907020,0.0,3.99,0.0,3.22,0.0,14.33,0.03,0.03
1523828656.28133988,37946742,0.0,3.98,0.0,3.23,0.0,14.32,0.03,0.03
1523828656.32209778,37987500,0.0,3.98,0.0,3.24,0.0,14.31,0.03,0.03
1523828656.36131382,38026716,0.0,3.97,0.0,3.24,0.0,14.31,0.03,0.03
1523828656.40157771,38066980,0.0,3.96,0.0,3.25,0.0,14.3,0.03,0.03
1523828656.44164586,38107048,0.0,3.96,0.0,3.26,0.0,14.29,0.02,0.03
1523828656.48093987,38146342,0.0,3.95,0.0,3.26,0.0,14.28,0.02,0.03
1523828656.52221179,38187614,0.0,3.95,0.0,3.27,0.0,14.26,0.02,0.03
1523828656.56154180,38226944,0.0,3.95,0.0,3.27,0.0,14.25,0.02,0.03
1523828656.60172677,38267129,0.0,3.95,0.0,3.28,0.0,14.24,0.02,0.03
1523828656.64186287,38307265,0.0,3.95,0.0,3.27,0.0,14.22,0.03,0.03
1523828656.68087292,38346275,0.0,3.96,0.0,3.26,0.0,14.21,0.03,0.03
1523828656.72205877,38387461,0.0,3.97,0.0,3.25,0.0,14.2,0.03,0.03
1523828656.76093578,38426338,0.0,3.98,0.0,3.24,0.0,14.19,0.03,0.04
1523828656.80146575,38466868,0.0,3.98,0.0,3.23,0.0,14.17,0.03,0.04
1523828656.84253073,38507933,0.0,3.99,0.0,3.23,0.0,14.16,0.03,0.04
1523828656.88101292,38546415,0.0,4.0,0.0,3.24,0.0,14.15,0.03,0.04
1523828656.92195487,38587357,0.0,4.0,0.0,3.25,0.0,14.14,0.03,0.04
1523828656.96094584,38626348,0.0,4.0,0.0,3.26,0.0,14.13,0.03,0.03
1523828657.00134087,38666743,0.0,4.01,0.0,3.27,0.0,14.12,0.03,0.03
1523828657.04175591,38707158,0.0,4.01,0.0,3.28,0.0,14.12,0.03,0.03
1523828657.08086872,38746271,0.0,4.02,0.0,3.29,0.0,14.11,0.03,0.03
1523828657.12195086,38787353,0.0,4.02,0.0,3.29,0.0,14.11,0.03,0.03
1523828657.16132975,38826732,0.0,4.02,0.0,3.3,0.0,14.1,0.03,0.03
1523828657.20151973,38866922,0.0,4.03,0.0,3.31,0.0,14.09,0.03,0.03
1523828657.24181986,38907222,0.0,4.04,0.0,3.31,0.0,14.09,0.03,0.03
1523828657.28120685,38946609,0.0,4.06,0.0,3.3,0.0,14.08,0.03,0.03
1523828657.32195377,38987356,0.0,4.08,0.0,3.29,0.0,14.08,0.03,0.03
1523828657.36138391,39026786,0.0,4.1,0.0,3.28,0.0,14.08,0.03,0.03
1523828657.40119791,39066600,0.0,4.12,0.0,3.27,0.0,14.07,0.03,0.03
1523828657.44174290,39107145,0.0,4.12,0.0,3.25,0.0,14.06,0.04,0.03
1523828657.48117590,39146578,0.0,4.1,0.0,3.23,0.0,14.05,0.04,0.03
1523828657.52193189,39187334,0.0,4.08,0.0,3.21,0.0,14.04,0.04,0.03
1523828657.56094074,39226343,0.0,4.07,0.0,3.19,0.0,14.03,0.04,0.03
1523828657.60163879,39267041,0.0,4.05,0.0,3.17,0.0,14.02,0.04,0.03
1523828657.64183688,39307239,0.0,4.04,0.0,3.16,0.0,14.02,0.03,0.03
1523828657.68098092,39346383,0.0,4.03,0.0,3.16,0.0,14.01,0.03,0.03
1523828657.72191787,39387320,0.0,4.02,0.0,3.16,0.0,13.99,0.03,0.03
1523828657.76090288,39426305,0.0,4.01,0.0,3.17,0.0,13.98,0.03,0.03
1523828657.80141377,39466816,0.0,4.0,0.0,3.17,0.0,13.97,0.03,0.03
1523828657.84225678,39507659,0.0,4.01,0.0,3.17,0.0,13.96,0.03,0.03
1523828657.88110375,39546506,0.0,4.02,0.0,3.17,0.0,13.95,0.03,0.03
1523828657.92197490,39587377,0.0,4.03,0.0,3.17,0.0,13.94,0.03,0.03
1523828657.96101975,39626422,0.0,4.05,0.0,3.17,0.0,13.93,0.03,0.04
1523828658.00135279,39666755,0.0,4.07,0.0,3.18,0.0,13.91,0.03,0.04
1523828658.04170680,39707109,0.0,4.07,0.0,3.18,0.0,13.89,0.03,0.04
1523828658.08105493,39746457,0.0,4.07,0.0,3.17,0.0,13.87,0.03,0.04
1523828658.12217784,39787580,0.0,4.06,0.0,3.17,0.0,13.86,0.03,0.04
1523828658.16147971,39826882,0.0,4.06,0.0,3.16,0.0,13.85,0.03,0.04
1523828658.20139384,39866796,0.0,4.05,0.0,3.16,0.0,13.84,0.03,0.04
1523828658.24196076,39907363,0.0,4.05,0.0,3.16,0.0,13.84,0.03,0.04
1523828658.28121877,39946621,0.0,4.06,0.0,3.17,0.0,13.83,0.03,0.03
1523828658.32221389,39987616,0.0,4.07,0.0,3.17,0.0,13.82,0.03,0.03
1523828658.36134076,40026743,0.0,4.08,0.0,3.18,0.0,13.81,0.03,0.03
1523828658.40157890,40066981,0.0,4.09,0.0,3.19,0.0,13.8,0.03,0.03
1523828658.44199181,40107394,0.0,4.09,0.0,3.2,0.0,13.8,0.03,0.03
1523828658.48091388,40146316,0.0,4.08,0.0,3.21,0.0,13.79,0.03,0.03
1523828658.52180791,40187210,0.0,4.07,0.0,3.22,0.0,13.78,0.03,0.03
1523828658.56141877,40226821,0.0,4.06,0.0,3.22,0.0,13.78,0.03,0.03
1523828658.60129189,40266694,0.0,4.06,0.0,3.23,0.0,13.78,0.03,0.03
1523828658.64191675,40307319,0.0,4.05,0.0,3.23,0.0,13.77,0.03,0.03
1523828658.68089080,40346293,0.0,4.05,0.0,3.21,0.0,13.77,0.03,0.02
1523828658.72191572,40387318,0.0,4.04,0.0,3.19,0.0,13.76,0.03,0.02
1523828658.76135182,40426754,0.0,4.04,0.0,3.17,0.0,13.76,0.03,0.02
1523828658.80152273,40466925,0.0,4.03,0.0,3.14,0.0,13.76,0.03,0.02
1523828658.84241772,40507820,0.0,4.03,0.0,3.13,0.0,13.76,0.03,0.02
1523828658.88107777,40546480,0.0,4.03,0.0,3.12,0.0,13.77,0.03,0.02
1523828658.92194390,40587346,0.0,4.04,0.0,3.11,0.0,13.77,0.03,0.02
1523828658.96108294,40626485,0.0,4.04,0.0,3.1,0.0,13.77,0.03,0.01
1523828659.00145984,40666862,0.0,4.04,0.0,3.08,0.0,13.77,0.03,0.01
1523828659.04187274,40707275,0.0,4.04,0.0,3.09,0.0,13.77,0.04,0.01
1523828659.08097386,40746376,0.0,4.03,0.0,3.12,0.0,13.77,0.04,0.01
1523828659.12186694,40787269,0.0,4.03,0.0,3.16,0.0,13.77,0.04,0.01
1523828659.16105390,40826456,0.0,4.03,0.0,3.19,0.0,13.77,0.04,0.01
1523828659.20180392,40867206,0.0,4.03,0.0,3.22,0.0,13.77,0.04,0.01
1523828659.24165273,40907055,0.0,4.01,0.0,3.23,0.0,13.77,0.03,0.01
1523828659.28134584,40946748,0.0,3.99,0.0,3.22,0.0,13.76,0.03,0.02
1523828659.32220483,40987607,0.0,3.97,0.0,3.21,0.0,13.75,0.03,0.02
1523828659.36129785,41026700,0.0,3.95,0.0,3.2,0.0,13.74,0.03,0.02
1523828659.40185690,41067259,0.0,3.93,0.0,3.19,0.0,13.73,0.03,0.02
1523828659.44172478,41107127,0.0,3.93,0.0,3.18,0.0,13.73,0.05,0.02
1523828659.48090172,41146304,0.0,3.97,0.0,3.18,0.0,13.73,0.05,0.02
1523828659.52177691,41187179,0.0,4.0,0.0,3.17,0.0,13.72,0.05,0.02
1523828659.56108284,41226485,0.0,4.03,0.0,3.17,0.0,13.72,0.05,0.02
1523828659.60118175,41266584,0.0,4.06,0.0,3.16,0.0,13.72,0.05,0.02
1523828659.64202976,41307432,0.0,4.08,0.0,3.17,0.0,13.72,0.04,0.02
1523828659.68108678,41346489,0.0,4.08,0.0,3.18,0.0,13.71,0.04,0.02
1523828659.72200084,41387403,0.0,4.07,0.0,3.19,0.0,13.71,0.04,0.02
1523828659.76101184,41426414,0.0,4.07,0.0,3.21,0.0,13.7,0.04,0.02
1523828659.80120087,41466603,0.0,4.07,0.0,3.22,0.0,13.7,0.04,0.02
1523828659.84227681,41507679,0.0,4.07,0.0,3.23,0.0,13.69,0.04,0.02
1523828659.88113379,41546536,0.0,4.08,0.0,3.22,0.0,13.68,0.04,0.01
1523828659.92193294,41587335,0.0,4.09,0.0,3.22,0.0,13.68,0.04,0.01
1523828659.96114779,41626550,0.0,4.1,0.0,3.21,0.0,13.68,0.04,0.02
1523828660.00134778,41666750,0.0,4.11,0.0,3.21,0.0,13.68,0.04,0.02
1523828660.04186583,41707268,0.0,4.1,0.0,3.2,0.0,13.67,0.04,0.02
1523828660.08102679,41746429,0.0,4.08,0.0,3.2,0.0,13.67,0.04,0.02
