timestamp,TimeUS,Status,GMS,GWk,NSats,HDop,Lat,Lng,Alt,Spd,GCrs,VZ,U
1523826142.45987988,7948175,1,0,0,0,-0.01,0.0,0.0,0.0,0.0,0.0,0.0,1
1523826142.56011796,8048413,1,8000,0,0,99.99,0.0,0.0,-17.0,0.0,0.0,0.0,1
1523826142.76005793,8248353,1,8200,0,0,99.99,0.0,0.0,-17.0,0.0,0.0,0.0,1
1523826142.96003604,8448331,1,8400,0,0,99.99,0.0,0.0,-17.0,0.0,0.0,0.0,1
1523826143.16008687,8648382,1,8600,0,0,99.99,0.0,0.0,-17.0,0.0,0.0,0.0,1
1523826143.36007285,8848368,1,8800,0,0,99.99,0.0,0.0,-17.0,0.0,0.0,0.0,1
1523826143.56006789,9048363,1,9000,0,0,99.99,0.0,0.0,-17.0,0.0,0.0,0.0,1
1523826143.76000690,9248302,1,9200,0,0,99.99,0.0,0.0,-17.0,0.0,0.0,0.0,1
1523826143.95995283,9448248,1,9400,0,0,99.99,0.0,0.0,-17.0,0.0,0.0,0.0,1
1523826144.16047692,9648772,1,9600,0,0,99.99,0.0,0.0,-17.0,0.0,0.0,0.0,1
1523826144.36000681,9848302,1,9800,0,0,99.99,0.0,0.0,-17.0,0.0,0.0,0.0,1
1523826144.56006289,10048358,1,10000,0,0,99.99,0.0,0.0,-17.0,0.0,0.0,0.0,1
1523826144.75996494,10248260,1,10200,0,0,99.99,0.0,0.0,-17.0,0.0,0.0,0.0,1
1523826144.96007991,10448375,1,10400,0,0,99.99,0.0,0.0,-17.0,0.0,0.0,0.0,1
1523826145.16003895,10648334,1,10600,0,0,99.99,0.0,0.0,-17.0,0.0,0.0,0.0,1
1523826145.36000204,10848297,1,10800,0,0,99.99,0.0,0.0,-17.0,0.0,0.0,0.0,1
1523826145.55987787,11048173,1,11000,0,0,99.99,0.0,0.0,-17.0,0.0,0.0,0.0,1
1523826145.76002192,11248317,1,11200,0,0,99.99,0.0,0.0,-17.0,0.0,0.0,0.0,1
1523826145.96001482,11448310,1,11400,0,0,99.99,0.0,0.0,-17.0,0.0,0.0,0.0,1
1523826146.16014004,11648435,1,11600,0,0,99.99,0.0,0.0,-17.0,0.0,0.0,0.0,1
1523826146.36010599,11848401,1,11800,0,0,99.99,0.0,0.0,-17.0,0.0,0.0,0.0,1
1523826146.56001282,12048308,1,12000,0,0,99.99,0.0,0.0,-17.0,0.0,0.0,0.0,1
1523826146.76007700,12248372,1,12200,0,0,99.99,0.0,0.0,-17.0,0.0,0.0,0.0,1
1523826146.96001983,12448315,1,12400,0,0,99.99,0.0,0.0,-17.0,0.0,0.0,0.0,1
1523826147.16017795,12648473,1,12600,0,0,99.99,0.0,0.0,-17.0,0.0,0.0,0.0,1
1523826147.36010981,12848405,1,12800,0,0,99.99,0.0,0.0,-17.0,0.0,0.0,0.0,1
1523826147.56004500,13048340,1,13000,0,0,99.99,0.0,0.0,-17.0,0.0,0.0,0.0,1
1523826147.75999784,13248293,1,13200,0,0,99.99,0.0,0.0,-17.0,0.0,0.0,0.0,1
1523826147.95994687,13448242,1,13400,0,0,99.99,0.0,0.0,-17.0,0.0,0.0,0.0,1
1523826148.16009498,13648390,1,13600,0,0,99.99,0.0,0.0,-17.0,0.0,0.0,0.0,1
1523826148.35999489,13848290,1,13800,0,0,99.99,0.0,0.0,-17.0,0.0,0.0,0.0,1
1523826148.56021285,14048508,1,14000,0,0,99.99,0.0,0.0,-17.0,0.0,0.0,0.0,1
1523826148.76007700,14248372,1,14200,0,0,99.99,0.0,0.0,-17.0,0.0,0.0,0.0,1
1523826148.95995688,14448252,1,14400,0,0,99.99,0.0,0.0,-17.0,0.0,0.0,0.0,1
1523826149.16010284,14648398,1,14600,0,0,99.99,0.0,0.0,-17.0,0.0,0.0,0.0,1
1523826149.36009789,14848393,1,14800,0,0,99.99,0.0,0.0,-17.0,0.0,0.0,0.0,1
1523826149.56024098,15048536,1,15000,0,0,99.99,0.0,0.0,-17.0,0.0,0.0,0.0,1
1523826149.76012397,15248419,1,15200,0,0,99.99,0.0,0.0,-17.0,0.0,0.0,0.0,1
1523826149.96011686,15448412,1,15400,0,0,99.99,0.0,0.0,-17.0,0.0,0.0,0.0,1
1523826150.15999699,15648292,1,15600,0,0,99.99,0.0,0.0,-17.0,0.0,0.0,0.0,1
1523826150.36011100,15848406,1,15800,0,0,99.99,0.0,0.0,-17.0,0.0,0.0,0.0,1
1523826150.55995393,16048249,1,16000,0,0,99.99,0.0,0.0,-17.0,0.0,0.0,0.0,1
1523826150.76011586,16248411,1,16200,0,0,99.99,0.0,0.0,-17.0,0.0,0.0,0.0,1
1523826150.96000791,16448303,1,16400,0,0,99.99,0.0,0.0,-17.0,0.0,0.0,0.0,1
1523826151.16004682,16648342,1,16600,0,0,99.99,0.0,0.0,-17.0,0.0,0.0,0.0,1
1523826151.36006403,16848359,1,16800,0,0,99.99,0.0,0.0,-17.0,0.0,0.0,0.0,1
1523826151.55988002,17048175,1,17000,0,0,99.99,0.0,0.0,-17.0,0.0,0.0,0.0,1
1523826151.75996089,17248256,1,17200,0,0,99.99,0.0,0.0,-17.0,0.0,0.0,0.0,1
1523826151.95993686,17448232,1,17400,0,0,99.99,0.0,0.0,-17.0,0.0,0.0,0.0,1
1523826152.16002393,17648319,1,17600,0,0,99.99,0.0,0.0,-17.0,0.0,0.0,0.0,1
1523826152.35999393,17848289,1,17800,0,0,99.99,0.0,0.0,-17.0,0.0,0.0,0.0,1
1523826152.56010699,18048402,1,18000,0,0,99.99,0.0,0.0,-17.0,0.0,0.0,0.0,1
1523826152.75998688,18248282,1,18200,0,0,99.99,0.0,0.0,-17.0,0.0,0.0,0.0,1
1523826152.96005392,18448349,1,18400,0,0,99.99,0.0,0.0,-17.0,0.0,0.0,0.0,1
1523826153.16012383,18648419,1,18600,0,0,99.99,0.0,0.0,-17.0,0.0,0.0,0.0,1
1523826153.35999393,18848289,1,18800,0,0,99.99,0.0,0.0,-17.0,0.0,0.0,0.0,1
1523826153.56003690,19048332,1,19000,0,0,99.99,0.0,0.0,-17.0,0.0,0.0,0.0,1
1523826153.76010203,19248397,1,19200,0,0,99.99,0.0,0.0,-17.0,0.0,0.0,0.0,1
1523826153.96005297,19448348,1,19400,0,0,99.99,0.0,0.0,-17.0,0.0,0.0,0.0,1
1523826154.16010094,19648396,1,19600,0,0,99.99,0.0,0.0,-17.0,0.0,0.0,0.0,1
1523826154.36016202,19848457,1,19800,0,0,99.99,0.0,0.0,-17.0,0.0,0.0,0.0,1
1523826154.56010604,20048401,1,20000,0,0,99.99,0.0,0.0,-17.0,0.0,0.0,0.0,1
1523826154.76007104,20248366,1,20200,0,0,99.99,0.0,0.0,-17.0,0.0,0.0,0.0,1
1523826154.96017981,20448475,1,20400,0,0,99.99,0.0,0.0,-17.0,0.0,0.0,0.0,1
1523826155.16000581,20648301,1,20600,0,0,99.99,0.0,0.0,-17.0,0.0,0.0,0.0,1
1523826155.36009002,20848385,1,20800,0,0,99.99,0.0,0.0,-17.0,0.0,0.0,0.0,1
1523826155.56006193,21048357,1,21000,0,0,99.99,0.0,0.0,-17.0,0.0,0.0,0.0,1
1523826155.76010990,21248405,1,21200,0,0,99.99,0.0,0.0,-17.0,0.0,0.0,0.0,1
1523826155.96008682,21448382,1,21400,0,0,99.99,0.0,0.0,-17.0,0.0,0.0,0.0,1
1523826156.16018891,21648484,1,21600,0,0,99.99,0.0,0.0,-17.0,0.0,0.0,0.0,1
1523826156.36009884,21848394,1,21800,0,0,99.99,0.0,0.0,-17.0,0.0,0.0,0.0,1
1523826156.56015086,22048446,1,22000,0,0,99.99,0.0,0.0,-17.0,0.0,0.0,0.0,1
1523826156.76018286,22248478,1,22200,0,0,99.99,0.0,0.0,-17.0,0.0,0.0,0.0,1
1523826156.96016383,22448459,1,22400,0,0,99.99,0.0,0.0,-17.0,0.0,0.0,0.0,1
1523826157.16012502,22648420,1,22600,0,0,99.99,0.0,0.0,-17.0,0.0,0.0,0.0,1
1523826157.36015701,22848452,1,22800,0,0,99.99,0.0,0.0,-17.0,0.0,0.0,0.0,1
1523826157.56015491,23048450,1,23000,0,0,99.99,0.0,0.0,-17.0,0.0,0.0,0.0,1
1523826157.76007795,23248373,1,23200,0,0,99.99,0.0,0.0,-17.0,0.0,0.0,0.0,1
1523826157.96005583,23448351,1,23400,0,0,99.99,0.0,0.0,-17.0,0.0,0.0,0.0,1
1523826158.16009092,23648386,1,23600,0,0,99.99,0.0,0.0,-17.0,0.0,0.0,0.0,1
1523826158.35999894,23848294,1,23800,0,0,99.99,0.0,0.0,-17.0,0.0,0.0,0.0,1
1523826158.56018400,24048479,1,24000,0,0,99.99,0.0,0.0,-17.0,0.0,0.0,0.0,1
1523826158.76015282,24248448,1,24200,0,0,99.99,0.0,0.0,-17.0,0.0,0.0,0.0,1
1523826158.96010303,24448398,1,24400,0,0,99.99,0.0,0.0,-17.0,0.0,0.0,0.0,1
1523826159.16011000,24648405,1,24600,0,0,99.99,0.0,0.0,-17.0,0.0,0.0,0.0,1
1523826159.36024690,24848542,1,24800,0,0,99.99,0.0,0.0,-17.0,0.0,0.0,0.0,1
1523826159.56017089,25048466,1,25000,0,0,99.99,0.0,0.0,-17.0,0.0,0.0,0.0,1
1523826159.76008296,25248378,1,25200,0,0,99.99,0.0,0.0,-17.0,0.0,0.0,0.0,1
1523826159.96015286,25448448,1,25400,0,0,99.99,0.0,0.0,-17.0,0.0,0.0,0.0,1
1523826160.16026187,25648557,1,25600,0,0,99.99,0.0,0.0,-17.0,0.0,0.0,0.0,1
1523826160.36023903,25848534,1,25800,0,0,99.99,0.0,0.0,-17.0,0.0,0.0,0.0,1
1523826160.56004882,26048344,1,26000,0,0,99.99,0.0,0.0,-17.0,0.0,0.0,0.0,1
1523826160.76009393,26248389,1,26200,0,0,99.99,0.0,0.0,-17.0,0.0,0.0,0.0,1
1523826160.96017003,26448465,1,75775966,0,0,99.99,0.0,0.0,-17.0,0.0,0.0,0.0,1
1523826161.16011381,26648409,1,75776166,0,0,99.99,0.0,0.0,-17.0,0.0,0.0,0.0,1
1523826161.40002489,26888320,1,75776400,0,0,99.99,0.0,0.0,-17.0,0.0,0.0,0.0,1
1523826161.59991288,27088208,1,75776600,0,0,99.99,0.0,0.0,-17.0,0.0,0.0,0.0,1
1523826161.99995685,27488252,1,75777000,0,0,99.99,0.0,0.0,-17.0,0.0,0.0,0.0,1
1523826162.19992399,27688219,1,75777200,0,0,99.99,0.0,0.0,-17.0,0.0,0.0,0.0,1
1523826162.39989996,27888195,1,75777400,0,0,99.99,0.0,0.0,-17.0,0.0,0.0,0.0,1
1523826162.60003185,28088327,1,75777600,0,0,99.99,0.0,0.0,-17.0,0.0,0.0,0.0,1
1523826162.79985189,28288147,1,75777800,0,0,99.99,0.0,0.0,-17.0,0.0,0.0,0.0,1
1523826163.00000000,28488295,1,75778000,0,0,99.99,0.0,0.0,-17.0,0.0,0.0,0.0,1
1523826163.20003486,28688330,1,75778200,0,0,99.99,0.0,0.0,-17.0,0.0,0.0,0.0,1
1523826163.39993501,28888230,1,75778400,0,0,99.99,0.0,0.0,-17.0,0.0,0.0,0.0,1
1523826163.59998798,29088283,1,75778600,0,0,99.99,0.0,0.0,-17.0,0.0,0.0,0.0,1
1523826163.80000186,29288297,1,75778800,0,0,99.99,0.0,0.0,-17.0,0.0,0.0,0.0,1
1523826164.00007796,29488373,1,75779000,0,0,99.99,0.0,0.0,-17.0,0.0,0.0,0.0,1
1523826164.19988394,29688179,1,75779200,0,0,99.99,0.0,0.0,-17.0,0.0,0.0,0.0,1
1523826164.39989495,29888190,1,75779400,0,0,99.99,0.0,0.0,-17.0,0.0,0.0,0.0,1
1523826164.60000682,30088302,1,75779600,0,0,99.99,0.0,0.0,-17.0,0.0,0.0,0.0,1
1523826164.80005097,30288346,1,75779800,0,0,99.99,0.0,0.0,-17.0,0.0,0.0,0.0,1
1523826165.00000286,30488298,1,75780000,0,0,99.99,0.0,0.0,-17.0,0.0,0.0,0.0,1
1523826165.19995689,30688252,1,75780200,0,0,99.99,0.0,0.0,-17.0,0.0,0.0,0.0,1
1523826165.39984798,30888143,1,75780400,0,0,99.99,0.0,0.0,-17.0,0.0,0.0,0.0,1
1523826165.59992099,31088216,1,75780600,0,0,99.99,0.0,0.0,-17.0,0.0,0.0,0.0,1
1523826165.80018592,31288481,1,75780800,0,0,99.99,0.0,0.0,-17.0,0.0,0.0,0.0,1
1523826165.99992800,31488223,1,75781000,0,0,99.99,0.0,0.0,-17.0,0.0,0.0,0.0,1
1523826166.19983792,31688133,1,75781200,0,0,99.99,0.0,0.0,-17.0,0.0,0.0,0.0,1
1523826166.39983082,31888126,1,75781400,0,0,99.99,0.0,0.0,-17.0,0.0,0.0,0.0,1
1523826166.59994698,32088242,1,75781600,0,0,99.99,0.0,0.0,-17.0,0.0,0.0,0.0,1
1523826166.80000997,32288305,1,75781800,0,0,99.99,0.0,0.0,-17.0,0.0,0.0,0.0,1
1523826167.00000000,32488295,1,75782000,1997,0,99.99,0.0,0.0,-17.0,0.0,0.0,0.0,1
1523826167.19987798,32688173,1,75782200,1997,0,99.99,0.0,0.0,-17.0,0.0,0.0,0.0,1
1523826167.40023589,32888531,1,75782400,1997,0,99.99,0.0,0.0,-17.0,0.0,0.0,0.0,1
1523826167.59994602,33088241,1,75782600,1997,0,99.99,0.0,0.0,-17.0,0.0,0.0,0.0,1
1523826167.79996300,33288258,1,75782800,1997,0,99.99,0.0,0.0,-17.0,0.0,0.0,0.0,1
1523826167.99996901,33488264,1,75783000,1997,0,99.99,0.0,0.0,-17.0,0.0,0.0,0.0,1
1523826168.19987988,33688175,1,75783200,1997,0,99.99,0.0,0.0,-17.0,0.0,0.0,0.0,1
1523826168.40006185,33888357,1,75783400,1997,0,99.99,0.0,0.0,-17.0,0.0,0.0,0.0,1
1523826168.59996390,34088259,1,75783600,1997,0,99.99,0.0,0.0,-17.0,0.0,0.0,0.0,1
1523826168.79996896,34288264,1,75783800,1997,0,99.99,0.0,0.0,-17.0,0.0,0.0,0.0,1
1523826169.00001097,34488306,1,75784000,1997,0,99.99,0.0,0.0,-17.0,0.0,0.0,0.0,1
1523826169.20000696,34688302,1,75784200,1997,0,99.99,0.0,0.0,-17.0,0.0,0.0,0.0,1
1523826169.39996290,34888258,1,75784400,1997,0,99.99,0.0,0.0,-17.0,0.0,0.0,0.0,1
1523826169.60002685,35088322,1,75784600,1997,0,99.99,0.0,0.0,-17.0,0.0,0.0,0.0,1
1523826169.79994392,35288239,1,75784800,1997,0,99.99,0.0,0.0,-17.0,0.0,0.0,0.0,1
1523826170.00002003,35488315,1,75785000,1997,0,99.99,0.0,0.0,-17.0,0.0,0.0,0.0,1
1523826170.20001888,35688314,1,75785200,1997,0,99.99,0.0,0.0,-17.0,0.0,0.0,0.0,1
1523826170.40001702,35888312,1,75785400,1997,0,99.99,0.0,0.0,-17.0,0.0,0.0,0.0,1
1523826170.60005999,36088355,1,75785600,1997,0,99.99,0.0,0.0,-17.0,0.0,0.0,0.0,1
1523826170.79993391,36288229,1,75785800,1997,0,99.99,0.0,0.0,-17.0,0.0,0.0,0.0,1
1523826171.00003004,36488325,1,75786000,1997,0,99.99,0.0,0.0,-17.0,0.0,0.0,0.0,1
1523826171.19982195,36688117,1,75786200,1997,0,99.99,0.0,0.0,-17.0,0.0,0.0,0.0,1
1523826171.40003586,36888331,1,75786400,1997,0,99.99,0.0,0.0,-17.0,0.0,0.0,0.0,1
1523826171.59988904,37088184,1,75786600,1997,0,99.99,0.0,0.0,-17.0,0.0,0.0,0.0,1
1523826171.79996300,37288258,1,75786800,1997,0,99.99,0.0,0.0,-17.0,0.0,0.0,0.0,1
1523826171.99996591,37488261,1,75787000,1997,0,99.99,0.0,0.0,-17.0,0.0,0.0,0.0,1
1523826172.19994593,37688241,1,75787200,1997,0,99.99,0.0,0.0,-17.0,0.0,0.0,0.0,1
1523826172.39999104,37888286,1,75787400,1997,0,99.99,0.0,0.0,-17.0,0.0,0.0,0.0,1
1523826172.60000587,38088301,1,75787600,1997,0,99.99,0.0,0.0,-17.0,0.0,0.0,0.0,1
1523826172.80007482,38288370,1,75787800,1997,0,99.99,0.0,0.0,-17.0,0.0,0.0,0.0,1
1523826172.99998593,38488281,1,75788000,1997,0,99.99,0.0,0.0,-17.0,0.0,0.0,0.0,1
1523826173.20003700,38688332,1,75788200,1997,0,99.99,0.0,0.0,-17.0,0.0,0.0,0.0,1
1523826173.40000796,38888303,1,75788400,1997,0,99.99,0.0,0.0,-17.0,0.0,0.0,0.0,1
1523826173.60010386,39088399,1,75788600,1997,0,99.99,0.0,0.0,-17.0,0.0,0.0,0.0,1
1523826173.79997396,39288269,1,75788800,1997,0,99.99,0.0,0.0,-17.0,0.0,0.0,0.0,1
1523826173.99995995,39488255,1,75789000,1997,0,99.99,0.0,0.0,-17.0,0.0,0.0,0.0,1
1523826174.19997096,39688266,1,75789200,1997,0,99.99,0.0,0.0,-17.0,0.0,0.0,0.0,1
1523826174.39992285,39888218,1,75789400,1997,0,99.99,0.0,0.0,-17.0,0.0,0.0,0.0,1
1523826174.59997892,40088274,1,75789600,1997,0,99.99,0.0,0.0,-17.0,0.0,0.0,0.0,1
1523826174.79994392,40288239,1,75789800,1997,0,99.99,0.0,0.0,-17.0,0.0,0.0,0.0,1
1523826174.99994087,40488236,1,75790000,1997,0,99.99,0.0,0.0,-17.0,0.0,0.0,0.0,1
1523826175.20011687,40688412,1,75790200,1997,0,99.99,0.0,0.0,-17.0,0.0,0.0,0.0,1
1523826175.40000701,40888302,1,75790400,1997,0,99.99,0.0,0.0,-17.0,0.0,0.0,0.0,1
1523826175.60001397,41088309,1,75790600,1997,0,99.99,0.0,0.0,-17.0,0.0,0.0,0.0,1
1523826175.79996800,41288263,1,75790800,1997,0,99.99,0.0,0.0,-17.0,0.0,0.0,0.0,1
1523826175.99990487,41488200,1,75791000,1997,0,99.99,0.0,0.0,-17.0,0.0,0.0,0.0,1
1523826176.20000696,41688302,1,75791200,1997,0,99.99,0.0,0.0,-17.0,0.0,0.0,0.0,1
1523826176.40002894,41888324,1,75791400,1997,0,99.99,0.0,0.0,-17.0,0.0,0.0,0.0,1
1523826176.59997582,42088271,1,75791600,1997,0,99.99,0.0,0.0,-17.0,0.0,0.0,0.0,1
1523826176.80006385,42288359,1,75791800,1997,0,99.99,0.0,0.0,-17.0,0.0,0.0,0.0,1
1523826177.00009584,42488391,1,75792000,1997,0,99.99,0.0,0.0,-17.0,0.0,0.0,0.0,1
1523826177.19985580,42688151,1,75792200,1997,0,99.99,0.0,0.0,-17.0,0.0,0.0,0.0,1
1523826177.40007782,42888373,1,75792400,1997,0,99.99,0.0,0.0,-17.0,0.0,0.0,0.0,1
1523826177.59997582,43088271,1,75792600,1997,0,99.99,0.0,0.0,-17.0,0.0,0.0,0.0,1
1523826177.79985499,43288150,1,75792800,1997,0,99.99,0.0,0.0,-17.0,0.0,0.0,0.0,1
1523826178.00010180,43488397,1,75793000,1997,0,99.99,0.0,0.0,-17.0,0.0,0.0,0.0,1
1523826178.20010185,43688397,1,75793200,1997,0,99.99,0.0,0.0,-17.0,0.0,0.0,0.0,1
1523826178.39999580,43888291,1,75793400,1997,0,99.99,0.0,0.0,-17.0,0.0,0.0,0.0,1
1523826178.60017681,44088472,1,75793600,1997,0,99.99,0.0,0.0,-17.0,0.0,0.0,0.0,1
1523826178.80000901,44288304,1,75793800,1997,0,99.99,0.0,0.0,-17.0,0.0,0.0,0.0,1
1523826179.00005984,44488355,1,75794000,1997,0,99.99,0.0,0.0,-17.0,0.0,0.0,0.0,1
1523826179.20010996,44688405,1,75794200,1997,0,99.99,0.0,0.0,-17.0,0.0,0.0,0.0,1
1523826179.40011001,44888405,1,75794400,1997,0,99.99,0.0,0.0,-17.0,0.0,0.0,0.0,1
1523826179.59999585,45088291,1,75794600,1997,0,99.99,0.0,0.0,-17.0,0.0,0.0,0.0,1
1523826179.79999495,45288290,1,75794800,1997,0,99.99,0.0,0.0,-17.0,0.0,0.0,0.0,1
1523826180.00000191,45488297,1,75795000,1997,0,99.99,0.0,0.0,-17.0,0.0,0.0,0.0,1
1523826180.20014381,45688439,1,75795200,1997,0,99.99,0.0,0.0,-17.0,0.0,0.0,0.0,1
1523826180.40003181,45888327,1,75795400,1997,0,99.99,0.0,0.0,-17.0,0.0,0.0,0.0,1
1523826180.60000181,46088297,1,75795600,1997,0,99.99,0.0,0.0,-17.0,0.0,0.0,0.0,1
1523826180.80007100,46288366,1,75795800,1997,0,99.99,0.0,0.0,-17.0,0.0,0.0,0.0,1
1523826181.00015593,46488451,1,75796000,1997,0,99.99,0.0,0.0,-17.0,0.0,0.0,0.0,1
1523826181.20008683,46688382,1,75796200,1997,0,99.99,0.0,0.0,-17.0,0.0,0.0,0.0,1
1523826181.39980793,46888103,1,75796400,1997,0,99.99,0.0,0.0,-17.0,0.0,0.0,0.0,1
1523826181.60015988,47088455,1,75796600,1997,0,99.99,0.0,0.0,-17.0,0.0,0.0,0.0,1
1523826181.80008984,47288385,1,75796800,1997,0,99.99,0.0,0.0,-17.0,0.0,0.0,0.0,1
1523826181.99987984,47488175,1,75797000,1997,0,99.99,0.0,0.0,-17.0,0.0,0.0,0.0,1
1523826182.20001602,47688311,1,75797200,1997,0,99.99,0.0,0.0,-17.0,0.0,0.0,0.0,1
1523826182.40002489,47888320,1,75797400,1997,0,99.99,0.0,0.0,-17.0,0.0,0.0,0.0,1
1523826182.59997892,48088274,1,75797600,1997,0,99.99,0.0,0.0,-17.0,0.0,0.0,0.0,1
1523826182.80001593,48288311,1,75797800,1997,0,99.99,0.0,0.0,-17.0,0.0,0.0,0.0,1
1523826183.00016689,48488462,1,75798000,1997,0,99.99,0.0,0.0,-17.0,0.0,0.0,0.0,1
1523826183.25981688,48748112,3,75798199,1997,4,2.97,39.8419279,-105.212591,1802.29,0.231000006199,0.0,-0.131999999285,1
1523826183.42066598,48908961,3,75798399,1997,4,2.97,39.8419351,-105.2125892,1801.38,0.186000004411,0.0,-0.287000000477,1
1523826183.62126398,49109559,3,75798600,1997,4,2.97,39.8419335,-105.2125896,1801.32,0.335000008345,0.0,-0.134000003338,1
1523826183.82127190,49309567,3,75798800,1997,4,2.97,39.8419326,-105.2125847,1801.85,0.428000032902,0.0,0.00700000021607,1
1523826184.02147293,49509768,3,75799000,1997,4,2.97,39.8419288,-105.2125833,1802.39,0.160000011325,0.0,-0.201000005007,1
1523826184.22145486,49709750,3,75799200,1997,4,2.97,39.8419278,-105.2125786,1803.15,0.0870000049472,0.0,-0.157000005245,1
1523826184.42125988,49909555,3,75799400,1997,4,2.97,39.8419256,-105.212574,1804.09,0.0240000002086,0.0,-0.182000011206,1
1523826184.62123585,50109531,3,75799600,1997,4,2.97,39.8419229,-105.212569,1805.1,0.0590000040829,0.0,-0.284000009298,1
1523826184.82124686,50309542,3,75799800,1997,4,2.97,39.8419219,-105.2125619,1806.06,0.116000004113,0.0,-0.172000005841,1
1523826185.02173686,50510032,3,75800000,1997,4,2.97,39.8419217,-105.2125477,1807.72,0.0540000014007,0.0,-0.252000004053,1
1523826185.22119403,50709489,3,75800200,1997,4,2.97,39.8419222,-105.2125423,1808.26,0.131999999285,0.0,-0.0760000050068,1
1523826185.42124391,50909539,3,75800400,1997,4,2.97,39.8419233,-105.2125403,1808.41,0.0430000014603,0.0,-0.01600000076,1
1523826185.62121987,51109515,3,75800600,1997,4,2.97,39.8419234,-105.2125386,1808.6,0.0610000044107,0.0,-0.0670000016689,1
1523826185.82130384,51309599,3,75800800,1997,4,2.97,39.8419231,-105.2125377,1808.72,0.0910000056028,0.0,-0.0050000003539,1
1523826186.02118397,51509479,3,75801000,1997,4,2.97,39.8419228,-105.212538,1808.86,0.10300000757,0.0,-0.0860000029206,1
1523826186.22124195,51709537,3,75801200,1997,4,2.97,39.8419217,-105.2125371,1809.08,0.0840000063181,0.0,0.0010000000475,1
1523826186.42121983,51909515,3,75801400,1997,4,2.97,39.8419207,-105.2125358,1809.26,0.141000002623,0.0,0.0770000070333,1
1523826186.62128782,52109583,3,75801600,1997,4,2.97,39.8419202,-105.2125351,1809.51,0.185000002384,0.0,-0.035000000149,1
1523826186.82105088,52309346,3,75801800,1997,4,2.97,39.8419196,-105.212535,1809.82,0.121000006795,0.0,-0.113000005484,1
1523826187.02122283,52509518,3,75802000,1997,4,2.97,39.8419193,-105.2125345,1810.11,0.0720000043511,0.0,-0.0640000030398,1
1523826187.22122002,52709515,3,75802200,1997,4,2.97,39.8419187,-105.2125341,1810.33,0.223000004888,0.0,-0.0220000017434,1
1523826187.42127395,52909569,3,75802400,1997,4,2.97,39.8419178,-105.2125337,1810.51,0.137000009418,0.0,0.0530000030994,1
1523826187.62141895,53109714,3,75802600,1997,4,2.97,39.841917,-105.2125335,1810.74,0.0570000037551,0.0,-0.0640000030398,1
1523826187.82124782,53309543,3,75802800,1997,4,2.97,39.8419166,-105.2125336,1810.94,0.0750000029802,0.0,-0.0520000010729,1
1523826188.02125883,53509554,3,75803000,1997,4,2.97,39.8419158,-105.2125337,1811.18,0.0870000049472,0.0,-0.0380000025034,1
1523826188.22139192,53709687,3,75803200,1997,4,2.97,39.8419147,-105.2125336,1811.44,0.107000008225,0.0,-0.0680000036955,1
1523826188.42122197,53909517,3,75803400,1997,4,2.97,39.8419145,-105.2125338,1811.6,0.0900000035763,0.0,-0.0780000016093,1
1523826188.62128282,54109578,3,75803600,1997,4,2.97,39.8419137,-105.2125338,1811.82,0.163000002503,0.0,-0.116000004113,1
1523826188.82124686,54309542,3,75803800,1997,4,2.97,39.8419146,-105.2125341,1811.75,0.161000013351,0.0,-0.0250000003725,1
1523826189.02130604,54509601,3,75804000,1997,4,2.97,39.8419154,-105.212534,1811.77,0.447000026703,0.0,0.12800000608,1
1523826189.22127485,54709570,3,75804200,1997,4,2.97,39.8419151,-105.2125339,1811.91,0.0730000063777,0.0,0.176000013947,1
1523826189.42132998,54909625,3,75804400,1997,4,2.97,39.8419147,-105.2125343,1812.05,0.347000002861,0.0,-0.0290000010282,1
1523826189.62123394,55109529,3,75804600,1997,4,2.97,39.8419138,-105.2125347,1812.3,0.271000027657,0.0,-0.0340000018477,1
1523826189.82125688,55309552,3,75804800,1997,4,2.97,39.8419128,-105.2125345,1812.42,0.304000020027,0.0,0.30600002408,1
1523826190.02133703,55509632,3,75805000,1997,4,2.97,39.8419115,-105.2125342,1812.61,0.146000012755,0.0,0.0380000025034,1
1523826190.22135782,55709653,3,75805200,1997,4,2.97,39.8419103,-105.2125339,1812.83,0.0860000029206,0.0,0.123000003397,1
1523826190.42123795,55909533,3,75805400,1997,4,2.97,39.8419088,-105.2125336,1813.05,0.0490000024438,0.0,0.142000004649,1
1523826190.62120986,56109505,3,75805600,1997,4,2.97,39.8419083,-105.2125338,1813.14,0.234000012279,0.0,0.097000002861,1
1523826190.82118082,56309476,3,75805800,1997,4,2.97,39.8419091,-105.2125342,1813.09,0.372000008821,0.0,0.069000005722,1
1523826191.02126193,56509557,3,75806000,1997,4,2.97,39.8419102,-105.2125346,1813.02,0.224000006914,0.0,-0.0320000015199,1
1523826191.22170281,56709998,3,75806200,1997,4,2.97,39.8419099,-105.2125346,1813.08,0.0580000020564,0.0,0.0610000044107,1
1523826191.42152381,56909819,3,75806400,1997,4,2.97,39.84191,-105.2125343,1813.06,0.160000011325,0.0,0.0980000048876,1
1523826191.62141991,57109715,3,75806600,1997,4,2.97,39.841911,-105.2125343,1812.96,0.168000012636,0.0,0.0900000035763,1
1523826191.82152486,57309820,3,75806800,1997,4,2.97,39.8419113,-105.2125343,1812.96,0.106000006199,0.0,0.00700000021607,1
1523826192.02146482,57509760,3,75807000,1997,4,2.97,39.8419116,-105.2125343,1812.92,0.158000007272,0.0,0.097000002861,1
1523826192.22168899,57709984,3,75807200,1997,4,2.97,39.8419122,-105.2125343,1812.79,0.169000014663,0.0,0.0860000029206,1
1523826192.42175388,57910049,3,75807400,1997,4,2.97,39.8419124,-105.2125341,1812.72,0.198000013828,0.0,0.0450000017881,1
1523826192.62150097,58109796,3,75807600,1997,4,2.97,39.8419117,-105.2125339,1812.79,0.107000008225,0.0,-0.0650000050664,1
1523826192.82153296,58309828,3,75807800,1997,4,2.97,39.8419118,-105.2125341,1812.76,0.187000006437,0.0,0.0170000009239,1
1523826193.02146792,58509763,3,75808000,1997,4,2.97,39.8419119,-105.2125342,1812.83,0.0250000003725,0.0,-0.162000000477,1
1523826193.24106503,58729360,3,75808200,1997,6,1.63,39.8419122,-105.2125343,1812.9,0.0760000050068,0.0,-0.15000000596,1
1523826193.42145300,58909748,3,75808400,1997,6,1.63,39.8419126,-105.2125344,1812.95,0.113000005484,0.0,0.015000000596,1
1523826193.62143302,59109728,3,75808600,1997,6,1.63,39.8419124,-105.2125343,1813.08,0.102000005543,0.0,-0.101000003517,1
1523826193.82139802,59309693,3,75808800,1997,6,1.63,39.8419116,-105.2125341,1813.17,0.102000005543,0.0,-0.0270000007004,1
1523826194.02136803,59509663,3,75809000,1997,6,1.63,39.8419116,-105.2125346,1813.18,0.0840000063181,0.0,0.0280000008643,1
1523826194.22131681,59709612,3,75809200,1997,6,1.63,39.8419119,-105.2125347,1813.18,0.131000012159,0.0,0.0300000011921,1
1523826194.42150497,59909800,3,75809400,1997,6,1.63,39.8419122,-105.2125348,1813.17,0.0840000063181,0.0,0.0800000056624,1
1523826194.62146902,60109764,3,75809600,1997,6,1.63,39.8419122,-105.212535,1813.21,0.00400000018999,0.0,0.165000006557,1
1523826194.82147384,60309769,3,75809800,1997,6,1.63,39.8419115,-105.2125348,1813.31,0.0580000020564,0.0,0.0450000017881,1
1523826195.02138591,60509681,3,75810000,1997,6,1.63,39.8419116,-105.2125349,1813.33,0.0640000030398,0.0,0.0930000022054,1
1523826195.24081182,60729107,3,75810200,1997,6,1.63,39.8419111,-105.2125346,1813.36,0.223000004888,0.0,0.178000003099,1
1523826195.42146182,60909757,3,75810400,1997,6,1.63,39.8419103,-105.2125346,1813.44,0.137000009418,0.0,0.0500000007451,1
1523826195.62142396,61109719,3,75810600,1997,6,1.63,39.8419102,-105.2125348,1813.46,0.0980000048876,0.0,0.10000000149,1
1523826195.82188892,61310184,3,75810800,1997,6,1.63,39.84191,-105.2125346,1813.52,0.0950000062585,0.0,-0.00800000037998,1
1523826196.02144289,61509738,3,75811000,1997,6,1.63,39.8419101,-105.2125348,1813.57,0.16400000453,0.0,0.0210000015795,1
1523826196.22142696,61709722,3,75811200,1997,6,1.63,39.8419098,-105.2125348,1813.59,0.0540000014007,0.0,0.0320000015199,1
1523826196.42146897,61909764,3,75811400,1997,6,1.63,39.8419093,-105.2125347,1813.63,0.0260000005364,0.0,0.0170000009239,1
1523826196.62151980,62109815,3,75811600,1997,6,1.63,39.8419088,-105.2125346,1813.72,0.119000002742,0.0,-0.0170000009239,1
1523826196.82153201,62309827,3,75811800,1997,6,1.63,39.841908,-105.2125341,1813.82,0.117000006139,0.0,0.0260000005364,1
1523826197.02153301,62509828,3,75812000,1997,6,1.63,39.8419074,-105.2125341,1813.94,0.101000003517,0.0,-0.101000003517,1
1523826197.22149801,62709793,3,75812200,1997,6,1.63,39.8419068,-105.2125339,1814.04,0.0900000035763,0.0,-0.0960000008345,1
1523826197.42178488,62910080,3,75812400,1997,6,1.63,39.8419066,-105.2125337,1814.1,0.122000008821,0.0,-0.069000005722,1
1523826197.62168694,63109982,3,75812600,1997,6,1.63,39.8419062,-105.2125337,1814.17,0.0860000029206,0.0,-0.144000008702,1
1523826197.82169890,63309994,3,75812800,1997,6,1.63,39.8419059,-105.2125337,1814.29,0.0590000040829,0.0,-0.149000003934,1
1523826198.02148199,63509777,3,75813000,1997,6,1.63,39.8419057,-105.2125339,1814.35,0.176000013947,0.0,-0.192000001669,1
1523826198.22149301,63709788,3,75813200,1997,6,1.63,39.8419053,-105.212534,1814.4,0.0510000027716,0.0,-0.155000001192,1
1523826198.42166400,63909959,3,75813400,1997,6,1.63,39.8419054,-105.212534,1814.44,0.146999999881,0.0,-0.190000012517,1
1523826198.62163782,64109933,3,75813600,1997,6,1.63,39.8419056,-105.2125339,1814.47,0.121000006795,0.0,-0.118000008166,1
1523826198.82156301,64309858,3,75813800,1997,6,1.63,39.8419055,-105.2125337,1814.47,0.10300000757,0.0,-0.0940000042319,1
1523826199.02144504,64509740,3,75814000,1997,6,1.63,39.8419052,-105.2125338,1814.49,0.0950000062585,0.0,-0.070000000298,1
1523826199.22161794,64709913,3,75814200,1997,6,1.63,39.8419051,-105.212534,1814.5,0.0830000042915,0.0,-0.173000007868,1
1523826199.42178082,64910076,3,75814400,1997,6,1.63,39.8419053,-105.2125342,1814.45,0.0540000014007,0.0,-0.0560000017285,1
1523826199.62161803,65109913,3,75814600,1997,6,1.63,39.8419054,-105.2125342,1814.42,0.0440000034869,0.0,-0.0930000022054,1
1523826199.82160592,65309901,3,75814800,1997,6,1.63,39.8419055,-105.2125343,1814.38,0.0520000010729,0.0,-0.168000012636,1
1523826200.02150083,65509796,3,75815000,1997,6,1.63,39.8419058,-105.2125345,1814.38,0.0750000029802,0.0,-0.0680000036955,1
1523826200.22164702,65709942,3,75815200,1997,6,1.63,39.8419058,-105.2125349,1814.38,0.160000011325,0.0,-0.0329999998212,1
1523826200.42158198,65909877,3,75815400,1997,6,1.63,39.8419056,-105.2125353,1814.4,0.0640000030398,0.0,-0.0480000004172,1
1523826200.62146997,66109765,3,75815600,1997,6,1.63,39.8419055,-105.2125356,1814.45,0.0140000004321,0.0,-0.0910000056028,1
1523826200.82149887,66309794,3,75815800,1997,6,1.63,39.8419054,-105.2125361,1814.53,0.148000001907,0.0,-0.0910000056028,1
1523826201.02174592,66510041,3,75816000,1997,6,1.63,39.8419054,-105.2125364,1814.56,0.0670000016689,0.0,-0.0870000049472,1
1523826201.22162199,66709917,3,75816200,1997,6,1.63,39.8419056,-105.2125365,1814.57,0.146000012755,0.0,-0.12800000608,1
1523826201.42171383,66910009,3,75816400,1997,6,1.63,39.8419055,-105.2125363,1814.52,0.115000002086,0.0,-0.0740000009537,1
1523826201.62158895,67109884,3,75816600,1997,6,1.63,39.8419054,-105.2125363,1814.5,0.0590000040829,0.0,-0.0670000016689,1
1523826201.82157493,67309870,3,75816800,1997,6,1.63,39.8419054,-105.2125364,1814.5,0.031000001356,0.0,-0.0360000021756,1
1523826202.02172303,67510018,3,75817000,1997,6,1.63,39.8419055,-105.2125363,1814.49,0.0630000010133,0.0,-0.125,1
1523826202.22176385,67710059,3,75817200,1997,6,1.63,39.8419058,-105.2125364,1814.5,0.173000007868,0.0,-0.119000002742,1
1523826202.42151189,67909807,3,75817400,1997,6,1.63,39.8419063,-105.2125365,1814.52,0.217000007629,0.0,-0.166000008583,1
1523826202.62157893,68109874,3,75817600,1997,6,1.63,39.8419065,-105.2125364,1814.49,0.119000002742,0.0,-0.0520000010729,1
1523826202.82176590,68310061,3,75817800,1997,6,1.63,39.8419066,-105.2125366,1814.5,0.0980000048876,0.0,-0.0510000027716,1
1523826203.02155781,68509853,3,75818000,1997,6,1.63,39.8419066,-105.2125366,1814.46,0.111000008881,0.0,0.0120000001043,1
1523826203.22164488,68709940,3,75818200,1997,6,1.63,39.8419068,-105.2125364,1814.44,0.0840000063181,0.0,0.00800000037998,1
1523826203.42154789,68909843,3,75818400,1997,6,1.63,39.8419069,-105.2125363,1814.45,0.0540000014007,0.0,0.0840000063181,1
1523826203.62151790,69109813,3,75818600,1997,6,1.63,39.841907,-105.2125363,1814.44,0.0860000029206,0.0,0.163000002503,1
1523826203.82158494,69309880,3,75818800,1997,6,1.63,39.8419069,-105.2125363,1814.42,0.0840000063181,0.0,0.216000005603,1
1523826204.02151704,69509812,3,75819000,1997,6,1.63,39.8419068,-105.2125364,1814.4,0.0640000030398,0.0,0.180000007153,1
1523826204.22167683,69709972,3,75819200,1997,6,1.63,39.8419069,-105.2125364,1814.38,0.183000013232,0.0,0.141000002623,1
1523826204.42165995,69909955,3,75819400,1997,6,1.63,39.8419072,-105.2125363,1814.36,0.10000000149,0.0,0.323000013828,1
1523826204.62150884,70109804,3,75819600,1997,6,1.63,39.8419071,-105.2125364,1814.34,0.149000003934,0.0,0.205000013113,1
1523826204.82196593,70310261,3,75819800,1997,6,1.63,39.841907,-105.2125366,1814.34,0.102000005543,0.0,0.155000001192,1
1523826205.02156401,70509859,3,75820000,1997,6,1.63,39.841907,-105.2125366,1814.27,0.0960000008345,0.0,0.217000007629,1
1523826205.22165704,70709952,3,75820200,1997,6,1.63,39.8419071,-105.2125362,1814.22,0.115000002086,0.0,0.197000011802,1
1523826205.42151880,70909814,3,75820400,1997,6,1.63,39.841907,-105.2125359,1814.15,0.112000003457,0.0,0.16700001061,1
1523826205.62176585,71110061,3,75820600,1997,6,1.63,39.8419069,-105.2125357,1814.1,0.0230000019073,0.0,0.133000001311,1
1523826205.82165599,71309951,3,75820800,1997,6,1.63,39.8419069,-105.2125357,1814.04,0.069000005722,0.0,0.0890000015497,1
1523826206.02132392,71509619,3,75821000,1997,6,1.63,39.8419071,-105.2125357,1814.08,0.131000012159,0.0,0.139000013471,1
1523826206.22149801,71709793,3,75821200,1997,6,1.63,39.841907,-105.2125359,1814.07,0.131000012159,0.0,-0.00400000018999,1
1523826206.42169881,71909994,3,75821400,1997,6,1.63,39.8419069,-105.2125361,1814.09,0.0490000024438,0.0,0.0400000028312,1
1523826206.62141395,72109709,3,75821600,1997,6,1.63,39.8419066,-105.2125364,1814.13,0.0920000076294,0.0,-0.00300000002608,1
1523826206.82150292,72309798,3,75821800,1997,6,1.63,39.8419066,-105.2125365,1814.17,0.118000008166,0.0,-0.0890000015497,1
1523826207.02176404,72510059,3,75822000,1997,6,1.63,39.8419067,-105.2125365,1814.19,0.0570000037551,0.0,-0.0780000016093,1
1523826207.22151494,72709810,3,75822200,1997,6,1.63,39.841907,-105.2125361,1814.18,0.180000007153,0.0,-0.0560000017285,1
1523826207.42162085,72909916,3,75822400,1997,6,1.63,39.8419072,-105.2125359,1814.18,0.111000008881,0.0,-0.10300000757,1
1523826207.62160683,73109902,3,75822600,1997,6,1.63,39.841907,-105.212536,1814.19,0.192000001669,0.0,-0.00800000037998,1
1523826207.82152390,73309819,3,75822800,1997,6,1.63,39.8419069,-105.2125362,1814.2,0.136000007391,0.0,-0.0670000016689,1
1523826208.02174091,73510036,3,75823000,1997,6,1.63,39.8419068,-105.2125363,1814.19,0.171000003815,0.0,-0.0340000018477,1
1523826208.22161603,73709911,3,75823200,1997,6,1.63,39.8419069,-105.2125364,1814.22,0.174000009894,0.0,-0.148000001907,1
1523826208.42159295,73909888,3,75823400,1997,6,1.63,39.8419069,-105.2125365,1814.27,0.0510000027716,0.0,-0.146999999881,1
1523826208.62160182,74109897,3,75823600,1997,6,1.63,39.841907,-105.2125367,1814.3,0.0890000015497,0.0,-0.097000002861,1
1523826208.82152295,74309818,3,75823800,1997,6,1.63,39.8419069,-105.2125367,1814.32,0.0710000023246,0.0,-0.0920000076294,1
1523826209.02153802,74509833,3,75824000,1997,6,1.63,39.8419067,-105.2125365,1814.36,0.0230000019073,0.0,-0.136000007391,1
1523826209.22165585,74709951,3,75824200,1997,6,1.63,39.8419067,-105.2125366,1814.35,0.0560000017285,0.0,-0.15000000596,1
1523826209.42151403,74909809,3,75824400,1997,6,1.63,39.8419068,-105.2125365,1814.35,0.0510000027716,0.0,-0.181000009179,1
1523826209.62168694,75109982,3,75824600,1997,6,1.63,39.841907,-105.2125366,1814.33,0.0630000010133,0.0,-0.178000003099,1
1523826209.82144785,75309743,3,75824800,1997,6,1.63,39.8419073,-105.2125367,1814.31,0.0510000027716,0.0,-0.131999999285,1
1523826210.02158284,75509878,3,75825000,1997,6,1.63,39.8419075,-105.2125366,1814.27,0.0760000050068,0.0,-0.117000006139,1
1523826210.22145891,75709754,3,75825200,1997,6,1.63,39.8419077,-105.2125368,1814.23,0.0790000036359,0.0,-0.0750000029802,1
1523826210.42153192,75909827,3,75825400,1997,6,1.63,39.8419079,-105.2125369,1814.21,0.0290000010282,0.0,-0.126000002027,1
1523826210.62150002,76109795,3,75825600,1997,6,1.63,39.8419081,-105.212537,1814.2,0.0750000029802,0.0,-0.151000007987,1
1523826210.82153082,76309826,3,75825800,1997,6,1.63,39.8419085,-105.212537,1814.19,0.127000004053,0.0,-0.234000012279,1
1523826211.02145481,76509750,3,75826000,1997,6,1.63,39.8419089,-105.212537,1814.21,0.159000009298,0.0,-0.247000008821,1
1523826211.22168899,76709984,3,75826200,1997,6,1.63,39.8419092,-105.2125371,1814.22,0.160000011325,0.0,-0.176000013947,1
1523826211.42165089,76909946,3,75826400,1997,6,1.63,39.8419093,-105.2125374,1814.22,0.0900000035763,0.0,-0.244000017643,1
1523826211.62149096,77109786,3,75826600,1997,6,1.63,39.8419094,-105.2125375,1814.16,0.156000003219,0.0,-0.125,1
1523826211.82154799,77309843,3,75826800,1997,6,1.63,39.8419094,-105.2125375,1814.11,0.0510000027716,0.0,-0.201000005007,1
1523826212.02145791,77509753,3,75827000,1997,6,1.63,39.8419096,-105.2125373,1814.07,0.118000008166,0.0,-0.166000008583,1
1523826212.22148681,77709782,3,75827200,1997,6,1.63,39.8419098,-105.2125369,1814.02,0.140000000596,0.0,-0.221000015736,1
1523826212.42150688,77909802,3,75827400,1997,6,1.63,39.8419101,-105.2125366,1814.01,0.047000002116,0.0,-0.249000012875,1
1523826212.62157893,78109874,3,75827600,1997,6,1.63,39.8419104,-105.2125364,1813.97,0.0550000034273,0.0,-0.208000004292,1
1523826212.82145095,78309746,3,75827800,1997,6,1.63,39.8419103,-105.2125362,1813.94,0.0940000042319,0.0,-0.177000001073,1
1523826213.02193594,78510231,3,75828000,1997,6,1.63,39.8419102,-105.2125362,1813.95,0.101000003517,0.0,-0.188000008464,1
1523826213.24105000,78729345,3,75828200,1997,7,1.27,39.8419104,-105.2125362,1813.95,0.0510000027716,0.0,-0.11400000751,1
1523826213.42146993,78909765,3,75828400,1997,7,1.27,39.8419105,-105.2125361,1813.92,0.0659999996424,0.0,-0.0560000017285,1
1523826213.64074898,79129044,3,75828600,1997,7,1.27,39.8419106,-105.212536,1813.93,0.0710000023246,0.0,-0.0329999998212,1
1523826213.82167697,79309972,3,75828800,1997,7,1.27,39.8419107,-105.212536,1813.92,0.0900000035763,0.0,-0.0560000017285,1
1523826214.02167702,79509972,3,75829000,1997,7,1.27,39.8419108,-105.2125359,1813.93,0.0140000004321,0.0,-0.069000005722,1
1523826214.24077582,79729071,3,75829200,1997,7,1.27,39.841911,-105.2125358,1813.93,0.0300000011921,0.0,-0.146999999881,1
1523826214.44084692,79929142,3,75829400,1997,7,1.27,39.8419112,-105.2125359,1813.96,0.0540000014007,0.0,-0.0860000029206,1
1523826214.64097595,80129271,3,75829600,1997,7,1.27,39.8419113,-105.212536,1813.97,0.0530000030994,0.0,0.0370000004768,1
1523826214.82159901,80309894,3,75829800,1997,7,1.27,39.8419114,-105.2125358,1813.93,0.131999999285,0.0,0.0320000015199,1
1523826215.02158904,80509884,3,75830000,1997,7,1.27,39.8419114,-105.2125357,1813.94,0.0920000076294,0.0,-0.0290000010282,1
1523826215.22166991,80709965,3,75830200,1997,7,1.27,39.8419114,-105.2125357,1813.95,0.047000002116,0.0,-0.0230000019073,1
1523826215.42167592,80909971,3,75830400,1997,7,1.27,39.8419116,-105.2125357,1813.99,0.112000003457,0.0,0.0220000017434,1
1523826215.62148380,81109779,3,75830600,1997,7,1.27,39.8419115,-105.2125356,1813.99,0.0920000076294,0.0,-0.00800000037998,1
1523826215.82170701,81310002,3,75830800,1997,7,1.27,39.8419114,-105.2125357,1813.96,0.097000002861,0.0,0.0980000048876,1
1523826216.02180290,81510098,3,75831000,1997,7,1.27,39.8419114,-105.2125357,1813.96,0.15300001204,0.0,-0.0740000009537,1
1523826216.22166800,81709963,3,75831200,1997,7,1.27,39.8419117,-105.2125357,1814.03,0.249000012875,0.0,-0.00600000005215,1
1523826216.42147183,81909767,3,75831400,1997,7,1.27,39.8419118,-105.2125355,1814.03,0.0780000016093,0.0,0.0440000034869,1
1523826216.62171793,82110013,3,75831600,1997,7,1.27,39.8419117,-105.2125357,1814.02,0.0490000024438,0.0,0.0510000027716,1
1523826216.82170796,82310003,3,75831800,1997,7,1.27,39.8419116,-105.2125358,1814.02,0.0650000050664,0.0,0.0220000017434,1
1523826217.02175188,82510047,3,75832000,1997,7,1.27,39.8419116,-105.212536,1814.02,0.070000000298,0.0,0.00300000002608,1
1523826217.24098682,82729282,3,75832200,1997,8,1.15,39.841911,-105.2125364,1814.08,0.062000002712,0.0,0.108000002801,1
1523826217.44097590,82929271,3,75832400,1997,8,1.15,39.8419105,-105.2125368,1814.1,0.0100000007078,0.0,0.119000002742,1
1523826217.62154889,83109844,3,75832600,1997,8,1.15,39.84191,-105.2125372,1814.13,0.107000008225,0.0,0.097000002861,1
1523826217.84078193,83329077,3,75832800,1997,8,1.15,39.8419094,-105.2125377,1814.18,0.0830000042915,0.0,0.00800000037998,1
1523826218.04091382,83529209,3,75833000,1997,8,1.15,39.841909,-105.2125381,1814.22,0.0540000014007,0.0,0.134000003338,1
1523826218.24096298,83729258,3,75833200,1997,8,1.15,39.8419086,-105.2125384,1814.25,0.104000002146,0.0,0.0980000048876,1
1523826218.42158794,83909883,3,75833400,1997,8,1.15,39.8419079,-105.2125388,1814.27,0.0740000009537,0.0,0.207000017166,1
1523826218.64094400,84129239,3,75833600,1997,8,1.15,39.8419073,-105.2125392,1814.31,0.0520000010729,0.0,0.117000006139,1
1523826218.84094000,84329235,3,75833800,1997,8,1.15,39.8419069,-105.2125395,1814.35,0.0260000005364,0.0,0.131000012159,1
1523826219.02158499,84509880,3,75834000,1997,8,1.15,39.8419065,-105.2125399,1814.39,0.042000003159,0.0,0.152000010014,1
1523826219.24099994,84729295,3,75834200,1997,8,1.15,39.8419062,-105.2125403,1814.39,0.0650000050664,0.0,0.0910000056028,1
1523826219.44100499,84929300,3,75834400,1997,8,1.15,39.8419059,-105.2125406,1814.4,0.0320000015199,0.0,0.0940000042319,1
1523826219.64102483,85129320,3,75834600,1997,8,1.15,39.8419056,-105.212541,1814.42,0.031000001356,0.0,0.0900000035763,1
1523826219.84086585,85329161,3,75834800,1997,8,1.15,39.8419052,-105.2125414,1814.42,0.0190000012517,0.0,0.174000009894,1
1523826220.02159786,85509893,3,75835000,1997,8,1.15,39.8419049,-105.2125417,1814.42,0.0830000042915,0.0,0.143000006676,1
1523826220.24097085,85729266,3,75835200,1997,8,1.15,39.8419045,-105.2125419,1814.41,0.035000000149,0.0,0.0850000008941,1
1523826220.44111490,85929410,3,75835400,1997,8,1.15,39.8419043,-105.2125423,1814.4,0.097000002861,0.0,0.082000002265,1
1523826220.64089203,86129187,3,75835600,1997,8,1.15,39.8419039,-105.2125426,1814.43,0.0870000049472,0.0,0.0920000076294,1
1523826220.84085894,86329154,3,75835800,1997,8,1.15,39.8419035,-105.2125429,1814.46,0.0130000002682,0.0,0.0010000000475,1
1523826221.02141690,86509712,3,75836000,1997,8,1.15,39.8419031,-105.2125431,1814.45,0.0450000017881,0.0,-0.0680000036955,1
1523826221.24131989,86729615,3,75836200,1997,10,1.15,39.8419028,-105.2125432,1814.47,0.0140000004321,0.0,-0.0370000004768,1
1523826221.44093800,86929233,3,75836400,1997,10,0.94,39.8419024,-105.2125433,1814.48,0.0750000029802,0.0,-0.035000000149,1
1523826221.64079881,87129094,3,75836600,1997,10,0.94,39.8419022,-105.2125431,1814.48,0.0450000017881,0.0,-0.0650000050664,1
1523826221.84094286,87329238,3,75836800,1997,10,0.94,39.8419019,-105.2125432,1814.52,0.0450000017881,0.0,0.0480000004172,1
1523826222.04084086,87529136,3,75837000,1997,10,0.94,39.8419017,-105.2125432,1814.53,0.0710000023246,0.0,0.0240000002086,1
1523826222.24093890,87729234,3,75837200,1997,10,0.94,39.8419015,-105.2125433,1814.59,0.0910000056028,0.0,0.01600000076,1
1523826222.44081903,87929114,3,75837400,1997,10,0.94,39.8419014,-105.2125435,1814.61,0.0760000050068,0.0,0.00200000009499,1
1523826222.64100099,88129296,3,75837600,1997,10,0.94,39.8419013,-105.2125436,1814.64,0.0370000004768,0.0,0.0320000015199,1
1523826222.84093285,88329228,3,75837800,1997,10,0.94,39.8419011,-105.2125438,1814.69,0.105000004172,0.0,-0.0600000023842,1
1523826223.04110384,88529399,3,75838000,1997,10,0.94,39.8419009,-105.2125437,1814.68,0.139000013471,0.0,0.0170000009239,1
1523826223.24083900,88729134,3,75838200,1997,10,0.94,39.8419006,-105.2125437,1814.71,0.208000004292,0.0,0.01600000076,1
1523826223.44101286,88929308,3,75838400,1997,10,0.94,39.8419004,-105.2125434,1814.67,0.168000012636,0.0,0.0140000004321,1
1523826223.62145495,89109750,3,75838600,1997,10,0.94,39.8419004,-105.2125432,1814.71,0.0140000004321,0.0,0.01600000076,1
1523826223.84110785,89329403,3,75838800,1997,10,0.94,39.8419005,-105.2125432,1814.8,0.237000018358,0.0,-0.106000006199,1
1523826224.04098701,89529282,3,75839000,1997,10,0.94,39.8419007,-105.2125432,1814.84,0.0590000040829,0.0,0.0670000016689,1
1523826224.22145987,89709755,3,75839200,1997,10,0.94,39.8419007,-105.212543,1814.9,0.121000006795,0.0,0.106000006199,1
1523826224.44104695,89929342,3,75839400,1997,10,0.94,39.8419007,-105.2125429,1814.89,0.0730000063777,0.0,0.137000009418,1
1523826224.64102983,90129325,3,75839600,1997,10,0.94,39.8419005,-105.2125434,1814.89,0.00700000021607,0.0,0.149000003934,1
1523826224.84096503,90329260,3,75839800,1997,10,0.94,39.8418999,-105.2125438,1814.94,0.0850000008941,0.0,0.161000013351,1
1523826225.04111004,90529405,3,75840000,1997,10,0.94,39.8418998,-105.2125437,1814.93,0.120000004768,0.0,0.293999999762,1
1523826225.24077487,90729070,3,75840200,1997,10,0.94,39.8418997,-105.2125435,1814.93,0.0870000049472,0.0,0.131999999285,1
1523826225.44086194,90929157,3,75840400,1997,10,0.94,39.8418997,-105.2125438,1814.96,0.0850000008941,0.0,0.0910000056028,1
1523826225.64101100,91129306,3,75840600,1997,10,0.94,39.8418999,-105.2125438,1814.9,0.0410000011325,0.0,0.131999999285,1
1523826225.84113503,91329430,3,75840800,1997,10,0.94,39.8419,-105.2125439,1814.88,0.119000002742,0.0,0.116000004113,1
1523826226.04099083,91529286,3,75841000,1997,10,0.94,39.8419001,-105.2125441,1814.9,0.0210000015795,0.0,0.0500000007451,1
1523826226.24101400,91729309,3,75841200,1997,10,0.94,39.8419003,-105.2125442,1814.89,0.0580000020564,0.0,0.0370000004768,1
1523826226.44082999,91929125,3,75841400,1997,10,0.94,39.8419004,-105.2125442,1814.87,0.0770000070333,0.0,0.131999999285,1
1523826226.64098001,92129275,3,75841600,1997,10,0.94,39.8419004,-105.2125443,1814.88,0.0610000044107,0.0,0.0550000034273,1
1523826226.84088683,92329182,3,75841800,1997,10,0.94,39.8419003,-105.2125443,1814.84,0.123000003397,0.0,0.166000008583,1
1523826227.04088402,92529179,3,75842000,1997,10,0.94,39.8419004,-105.2125443,1814.77,0.0910000056028,0.0,0.174000009894,1
1523826227.24093390,92729229,3,75842200,1997,10,0.94,39.8419006,-105.2125443,1814.7,0.082000002265,0.0,0.0540000014007,1
1523826227.44099402,92929289,3,75842400,1997,10,0.94,39.8419009,-105.2125442,1814.67,0.207000017166,0.0,0.0960000008345,1
1523826227.64077592,93129071,3,75842600,1997,10,0.94,39.8419011,-105.2125442,1814.61,0.208000004292,0.0,0.0990000069141,1
1523826227.84080887,93329104,3,75842800,1997,10,0.94,39.841901,-105.2125443,1814.56,0.119000002742,0.0,0.178000003099,1
1523826228.04098582,93529281,3,75843000,1997,10,0.94,39.841901,-105.2125447,1814.59,0.194000005722,0.0,-0.274000018835,1
1523826228.24092698,93729222,3,75843200,1997,10,0.94,39.841901,-105.2125449,1814.58,0.176000013947,0.0,0.227000012994,1
1523826228.44104099,93929336,3,75843400,1997,10,0.94,39.8419008,-105.2125447,1814.49,0.24200001359,0.0,0.316000014544,1
1523826228.64100194,94129297,3,75843600,1997,10,0.94,39.8419007,-105.2125444,1814.45,0.0430000014603,0.0,0.217000007629,1
1523826228.82162189,94309917,3,75843800,1997,10,0.94,39.8419012,-105.2125448,1814.41,0.420000016689,0.0,0.558000028133,1
1523826229.04096293,94529258,3,75844000,1997,10,0.94,39.841902,-105.2125455,1814.31,0.552000045776,0.0,0.755000054836,1
1523826229.24076891,94729064,3,75844200,1997,10,0.94,39.8419026,-105.2125473,1814.2,0.841000020504,0.0,1.23000001907,1
1523826229.42149401,94909789,3,75844400,1997,10,0.94,39.8419032,-105.212548,1814.01,0.385000020266,0.0,1.15700006485,1
1523826229.64075494,95129050,3,75844600,1997,10,0.94,39.8419038,-105.2125476,1813.84,0.374000012875,0.0,0.638000011444,1
1523826229.84083700,95329132,3,75844800,1997,10,0.94,39.8419041,-105.2125473,1813.81,0.624000012875,0.0,0.374000012875,1
1523826230.04088283,95529178,3,75845000,1997,10,0.94,39.8419043,-105.2125468,1813.72,0.385000020266,0.0,0.996000051498,1
1523826230.24085402,95729149,3,75845200,1997,10,0.94,39.8419044,-105.2125467,1813.63,0.374000012875,0.0,0.977000057697,1
1523826230.44093299,95929228,3,75845400,1997,10,0.94,39.8419047,-105.2125471,1813.61,0.366000026464,0.0,0.982000052929,1
1523826230.64073801,96129033,3,75845600,1997,10,0.94,39.8419049,-105.2125469,1813.58,0.384000003338,0.0,0.784000039101,1
1523826230.84087086,96329166,3,75845800,1997,10,0.94,39.8419051,-105.2125469,1813.62,0.284000009298,0.0,0.783000051975,1
1523826231.04101992,96529315,3,75846000,1997,10,0.94,39.8419052,-105.2125468,1813.6,0.310000002384,0.0,0.665000021458,1
1523826231.24104595,96729341,3,75846200,1997,10,0.94,39.8419055,-105.2125472,1813.67,0.202000007033,0.0,0.570000052452,1
1523826231.42143989,96909735,3,75846400,1997,10,0.94,39.8419058,-105.2125476,1813.73,0.232000008225,0.0,0.447000026703,1
1523826231.64090800,97129203,3,75846600,1997,10,0.94,39.8419061,-105.2125478,1813.82,0.192000001669,0.0,0.393000006676,1
1523826231.84092689,97329222,3,75846800,1997,10,0.94,39.841906,-105.2125479,1813.8,0.162000000477,0.0,0.324000000954,1
1523826232.02150893,97509804,3,75847000,1997,10,0.94,39.8419059,-105.2125485,1813.86,0.183000013232,0.0,0.20600001514,1
1523826232.24095297,97729248,3,75847200,1997,10,0.94,39.8419055,-105.2125491,1813.81,0.143000006676,0.0,0.0850000008941,1
1523826232.44099092,97929286,3,75847400,1997,10,0.94,39.8419054,-105.2125502,1813.83,0.0530000030994,0.0,0.0120000001043,1
1523826232.64101100,98129306,3,75847600,1997,10,0.94,39.8419056,-105.2125507,1813.85,0.0210000015795,0.0,-0.0710000023246,1
1523826232.84091401,98329209,3,75847800,1997,10,0.94,39.8419056,-105.2125507,1813.8,0.0600000023842,0.0,-0.199000015855,1
1523826233.04106784,98529363,3,75848000,1997,10,0.94,39.8419058,-105.2125507,1813.77,0.162000000477,0.0,-0.0190000012517,1
1523826233.24096584,98729261,3,75848200,1997,10,0.94,39.8419053,-105.2125518,1813.82,0.125,0.0,-0.127000004053,1
1523826233.44125986,98929555,3,75848400,1997,10,0.94,39.8419052,-105.2125524,1813.95,0.0910000056028,0.0,-0.324000000954,1
1523826233.64086485,99129160,3,75848600,1997,10,0.94,39.841905,-105.2125526,1814.02,0.0980000048876,0.0,-0.297000020742,1
1523826233.84104991,99329345,3,75848800,1997,10,0.94,39.8419048,-105.2125529,1814.03,0.0810000002384,0.0,-0.144000008702,1
1523826234.04103398,99529329,3,75849000,1997,10,0.94,39.841905,-105.2125533,1814.08,0.0560000017285,0.0,-0.23900000751,1
1523826234.24098301,99729278,3,75849200,1997,10,0.94,39.8419056,-105.2125544,1814.38,0.0270000007004,0.0,-0.256000012159,1
1523826234.44106483,99929360,3,75849400,1997,10,0.94,39.8419061,-105.2125549,1814.6,0.0190000012517,0.0,-0.135000005364,1
1523826234.64079094,100129086,3,75849600,1997,10,0.94,39.8419061,-105.2125547,1814.7,0.124000005424,0.0,-0.195000007749,1
1523826234.84104490,100329340,3,75849800,1997,10,0.94,39.8419061,-105.2125544,1814.7,0.152000010014,0.0,-0.265000015497,1
1523826235.04104400,100529339,3,75850000,1997,10,0.94,39.8419057,-105.2125542,1814.62,0.0610000044107,0.0,-0.205000013113,1
1523826235.24109983,100729395,3,75850200,1997,10,0.94,39.8419053,-105.2125539,1814.59,0.0920000076294,0.0,-0.18900001049,1
1523826235.44104695,100929342,3,75850400,1997,10,0.94,39.8419051,-105.2125532,1814.5,0.0670000016689,0.0,-0.204000011086,1
1523826235.64096403,101129259,3,75850600,1997,10,0.94,39.8419052,-105.2125534,1814.55,0.070000000298,0.0,-0.246000006795,1
1523826235.84103703,101329332,3,75850800,1997,10,0.94,39.8419052,-105.2125534,1814.59,0.0530000030994,0.0,-0.280000001192,1
1523826236.04092288,101529218,3,75851000,1997,10,0.94,39.8419056,-105.2125535,1814.66,0.0400000028312,0.0,-0.220000013709,1
1523826236.24106097,101729356,3,75851200,1997,10,0.94,39.8419056,-105.2125535,1814.67,0.0270000007004,0.0,-0.263000011444,1
1523826236.44099092,101929286,3,75851400,1997,10,0.94,39.8419054,-105.2125537,1814.69,0.0800000056624,0.0,-0.283000022173,1
1523826236.64108491,102129380,3,75851600,1997,10,0.94,39.8419052,-105.2125539,1814.68,0.00700000021607,0.0,-0.112000003457,1
1523826236.84099483,102329290,3,75851800,1997,10,0.94,39.8419051,-105.2125539,1814.7,0.0980000048876,0.0,-0.107000008225,1
1523826237.04076481,102529060,3,75852000,1997,10,0.94,39.8419051,-105.2125542,1814.79,0.138000011444,0.0,-0.251000016928,1
1523826237.22140598,102709701,3,75852200,1997,10,0.94,39.8419051,-105.2125542,1814.83,0.110000006855,0.0,-0.254000008106,1
1523826237.44085503,102929150,3,75852400,1997,10,0.94,39.8419051,-105.2125541,1814.82,0.133000001311,0.0,-0.22800001502,1
1523826237.64098191,103129277,3,75852600,1997,10,0.94,39.8419053,-105.2125539,1814.85,0.047000002116,0.0,-0.18900001049,1
1523826237.84089303,103329188,3,75852800,1997,10,0.94,39.8419053,-105.2125533,1814.87,0.0950000062585,0.0,-0.0860000029206,1
1523826238.04077983,103529075,3,75853000,1997,10,0.94,39.8419054,-105.212553,1814.91,0.15000000596,0.0,-0.165000006557,1
1523826238.22154498,103709840,3,75853200,1997,10,0.94,39.8419054,-105.212553,1814.93,0.0640000030398,0.0,-0.234000012279,1
1523826238.44067788,103928973,3,75853400,1997,10,0.94,39.8419055,-105.2125523,1814.94,0.0340000018477,0.0,-0.113000005484,1
1523826238.62150502,104109800,3,75853600,1997,10,0.94,39.8419054,-105.2125519,1814.97,0.070000000298,0.0,-0.16400000453,1
1523826238.82140589,104309701,3,75853800,1997,10,0.94,39.8419052,-105.2125517,1814.98,0.0910000056028,0.0,-0.138000011444,1
1523826239.02152801,104509823,3,75854000,1997,10,0.94,39.8419051,-105.2125517,1814.96,0.139000013471,0.0,-0.101000003517,1
1523826239.24107599,104729371,3,75854200,1997,10,0.94,39.8419051,-105.2125517,1814.97,0.0290000010282,0.0,0.0329999998212,1
1523826239.44086003,104929155,3,75854400,1997,10,0.94,39.841905,-105.2125517,1814.98,0.0440000034869,0.0,-0.0280000008643,1
1523826239.64100194,105129297,3,75854600,1997,10,0.94,39.8419048,-105.2125519,1814.97,0.140000000596,0.0,-0.0230000019073,1
1523826239.82165098,105309946,3,75854800,1997,10,0.94,39.8419046,-105.212552,1814.95,0.0210000015795,0.0,-0.00900000054389,1
1523826240.04106402,105529359,3,75855000,1997,10,0.94,39.8419044,-105.212552,1814.95,0.0550000034273,0.0,0.0270000007004,1
1523826240.24082994,105729125,3,75855200,1997,10,0.94,39.8419043,-105.2125519,1814.92,0.135000005364,0.0,-0.0480000004172,1
1523826240.44104481,105929340,3,75855400,1997,10,0.94,39.8419043,-105.2125518,1814.91,0.0880000069737,0.0,-0.0760000050068,1
1523826240.64107394,106129369,3,75855600,1997,10,0.94,39.8419042,-105.212552,1814.9,0.145000010729,0.0,0.00400000018999,1
1523826240.84104300,106329338,3,75855800,1997,10,0.94,39.8419045,-105.2125518,1814.85,0.325000017881,0.0,-0.0220000017434,1
1523826241.04097795,106529273,3,75856000,1997,10,0.94,39.841905,-105.2125517,1814.83,0.305000007153,0.0,-0.0950000062585,1
1523826241.24088287,106729178,3,75856200,1997,10,0.94,39.8419058,-105.2125512,1814.87,0.649000048637,17.0782699585,0.0110000008717,1
1523826241.44076586,106929061,3,75856400,1997,10,0.94,39.8419069,-105.2125505,1814.84,0.622000038624,17.0782699585,-0.10300000757,1
1523826241.64103293,107129328,3,75856600,1997,10,0.94,39.8419081,-105.2125499,1814.85,0.705000042915,13.9914693832,-0.130000010133,1
1523826241.84122086,107329516,3,75856800,1997,10,0.94,39.8419094,-105.2125493,1814.87,0.828000068665,9.83183956146,-0.205000013113,1
1523826242.04097390,107529269,3,75857000,1997,10,0.94,39.8419107,-105.2125488,1814.89,0.864000022411,7.28027963638,-0.270000010729,1
1523826242.24096394,107729259,3,75857200,1997,10,0.94,39.8419121,-105.2125487,1814.93,0.958000063896,3.41083979607,-0.255000025034,1
1523826242.44087386,107929169,3,75857400,1997,10,0.94,39.8419137,-105.2125484,1814.93,0.997000038624,359.825805664,-0.270000010729,1
1523826242.64108300,108129378,3,75857600,1997,10,0.94,39.8419153,-105.2125483,1814.94,1.07899999619,0.802119970322,-0.219000011683,1
1523826242.84097385,108329269,3,75857800,1997,10,0.94,39.8419171,-105.2125479,1815.01,1.0150001049,5.55842971802,-0.174000009894,1
1523826243.04086494,108529160,3,75858000,1997,10,0.94,39.8419189,-105.2125474,1815.02,1.19400000572,6.53730964661,-0.251000016928,1
1523826243.24120188,108729497,3,75858200,1997,10,0.94,39.8419209,-105.212547,1815.06,1.25600004196,7.32708978653,-0.192000001669,1
1523826243.44097996,108929275,3,75858400,1997,10,0.94,39.841923,-105.2125465,1815.02,1.23900008202,5.78214979172,0.00300000002608,1
1523826243.64114404,109129439,3,75858600,1997,10,0.94,39.8419252,-105.2125457,1814.97,1.15600001812,8.05502986908,0.0050000003539,1
1523826243.84115982,109329455,3,75858800,1997,10,0.94,39.8419273,-105.2125452,1814.95,1.22600007057,4.49670982361,-0.0270000007004,1
1523826244.04121399,109529509,3,75859000,1997,10,0.94,39.8419295,-105.2125449,1814.96,1.1970000267,5.0619597435,-0.0490000024438,1
1523826244.24115896,109729454,3,75859200,1997,10,0.94,39.8419316,-105.2125446,1814.91,1.24300003052,6.04715967178,0.0860000029206,1
1523826244.44098401,109929279,3,75859400,1997,10,0.94,39.8419336,-105.2125442,1814.85,1.14100003242,6.55783987045,0.0140000004321,1
1523826244.64092588,110129221,3,75859600,1997,10,0.94,39.8419354,-105.2125438,1814.79,1.04300010204,7.87144994736,0.0770000070333,1
1523826244.84091401,110329209,3,75859800,1997,10,0.94,39.8419373,-105.2125433,1814.68,1.24300003052,8.64023971558,0.0520000010729,1
1523826245.04084301,110529138,3,75860000,1997,10,0.94,39.8419394,-105.2125425,1814.67,1.21700000763,13.5358695984,-0.0340000018477,1
1523826245.24113488,110729430,3,75860200,1997,10,0.94,39.8419411,-105.2125414,1814.61,0.932000041008,17.1063690186,0.176000013947,1
1523826245.44112992,110929425,3,75860400,1997,10,0.94,39.8419427,-105.2125405,1814.56,1.13800001144,17.8334197998,0.0730000063777,1
1523826245.64110804,111129403,3,75860600,1997,10,0.94,39.8419446,-105.2125396,1814.55,1.14500010014,19.703748703,0.0200000014156,1
1523826245.84097004,111329265,3,75860800,1997,10,0.94,39.8419464,-105.2125391,1814.53,1.19400000572,15.1432094574,0.0659999996424,1
1523826246.04105282,111529348,3,75861000,1997,10,0.94,39.8419484,-105.2125388,1814.5,1.23400008678,10.2060995102,0.0130000002682,1
1523826246.24108887,111729384,3,75861200,1997,10,0.94,39.8419503,-105.2125385,1814.5,0.941000044346,10.6085100174,0.142000004649,1
1523826246.44104195,111929337,3,75861400,1997,10,0.94,39.841952,-105.2125379,1814.49,1.1590000391,11.9737701416,0.00700000021607,1
1523826246.64085698,112129152,3,75861600,1997,10,0.94,39.8419539,-105.2125376,1814.42,1.24700009823,6.17127990723,-0.102000005543,1
1523826246.84079289,112329088,3,75861800,1997,10,0.94,39.8419562,-105.2125371,1814.38,1.41600000858,9.92712974548,0.00800000037998,1
1523826247.04086900,112529164,3,75862000,1997,10,0.94,39.8419583,-105.2125363,1814.39,1.25800001621,13.063249588,0.0500000007451,1
1523826247.24098182,112729277,3,75862200,1997,10,0.94,39.8419604,-105.2125357,1814.36,1.27400004864,7.56722974777,0.0010000000475,1
1523826247.44076490,112929060,3,75862400,1997,10,0.94,39.8419625,-105.2125353,1814.42,1.22200000286,10.3854093552,-0.110000006855,1
1523826247.64088297,113129178,3,75862600,1997,10,0.94,39.8419645,-105.2125348,1814.44,1.1970000267,8.53261947632,-0.0200000014156,1
1523826247.84108186,113329377,3,75862800,1997,10,0.94,39.8419665,-105.2125344,1814.45,1.22500002384,10.4090194702,-0.0580000020564,1
1523826248.04108882,113529384,3,75863000,1997,10,0.94,39.8419684,-105.2125333,1814.57,1.20900011063,20.2603187561,-0.116000004113,1
1523826248.24114799,113729443,3,75863200,1997,10,0.94,39.8419702,-105.2125321,1814.5,1.0490000248,15.1509799957,-0.0710000023246,1
1523826248.44101000,113929305,3,75863400,1997,10,0.94,39.8419718,-105.2125315,1814.45,1.04400002956,16.236989975,-0.0520000010729,1
1523826248.64098382,114129279,3,75863600,1997,10,0.94,39.8419734,-105.2125308,1814.3,0.948000073433,15.6003894806,0.0270000007004,1
1523826248.84109402,114329389,3,75863800,1997,10,0.94,39.8419751,-105.21253,1814.27,1.1740000248,18.377368927,-0.0880000069737,1
1523826249.04106998,114529365,3,75864000,1997,10,0.94,39.8419771,-105.2125291,1814.3,1.31500005722,16.9778194427,-0.00200000009499,1
1523826249.24108481,114729380,3,75864200,1997,10,0.94,39.8419791,-105.2125282,1814.25,1.16400003433,16.2256889343,0.0540000014007,1
1523826249.44126892,114929564,3,75864400,1997,10,0.94,39.8419813,-105.2125269,1814.21,1.29300010204,20.0991897583,0.031000001356,1
1523826249.64087892,115129174,3,75864600,1997,10,0.94,39.8419834,-105.2125256,1814.22,1.23200011253,21.5497589111,0.0590000040829,1
1523826249.84112597,115329421,3,75864800,1997,10,0.94,39.8419852,-105.2125246,1814.21,1.03800010681,18.0878887177,-0.0270000007004,1
1523826250.04082799,115529123,3,75865000,1997,10,0.94,39.8419871,-105.2125238,1814.23,1.17900002003,20.9096603394,-0.0270000007004,1
1523826250.24087691,115729172,3,75865200,1997,10,0.94,39.8419891,-105.2125228,1814.17,1.16900002956,18.8581295013,-0.0610000044107,1
1523826250.44095087,115929246,3,75865400,1997,10,0.94,39.841991,-105.2125217,1814.17,1.17200005054,21.36743927,0.111000008881,1
1523826250.64109182,116129387,3,75865600,1997,10,0.94,39.8419928,-105.2125208,1814.14,1.04300010204,19.1744289398,-0.00700000021607,1
1523826250.84106803,116329363,3,75865800,1997,10,0.94,39.8419947,-105.2125201,1814.15,1.1210000515,21.2958602905,-0.119000002742,1
1523826251.04114199,116529437,3,75866000,1997,10,0.94,39.8419966,-105.212519,1814.15,1.26200008392,22.8286895752,0.0590000040829,1
1523826251.24102688,116729322,3,75866200,1997,10,0.94,39.8419985,-105.2125181,1814.13,1.14100003242,21.1661186218,-0.0560000017285,1
1523826251.44113684,116929432,3,75866400,1997,10,0.94,39.8420005,-105.2125172,1814.08,1.20000004768,19.7479686737,0.00400000018999,1
1523826251.64115286,117129448,3,75866600,1997,10,0.94,39.8420023,-105.2125162,1814.04,1.07100009918,20.0169792175,-0.0920000076294,1
1523826251.84133387,117329629,3,75866800,1997,10,0.94,39.842004,-105.2125155,1814.04,1.01900005341,19.126449585,-0.131000012159,1
1523826252.04111195,117529407,3,75867000,1997,10,0.94,39.8420054,-105.212515,1814.01,0.75100004673,15.4580793381,-0.199000015855,1
1523826252.24124002,117729535,3,75867200,1997,10,0.94,39.8420064,-105.2125146,1814.02,0.56200003624,15.4580793381,-0.207000017166,1
1523826252.44113803,117929433,3,75867400,1997,10,0.94,39.8420072,-105.2125142,1814.0,0.425000011921,15.4580793381,-0.160000011325,1
1523826252.64121985,118129515,3,75867600,1997,10,0.94,39.8420077,-105.2125142,1814.01,0.173000007868,15.4580793381,-0.182000011206,1
1523826252.84078789,118329083,3,75867800,1997,10,0.94,39.8420078,-105.2125142,1813.99,0.0800000056624,15.4580793381,-0.138000011444,1
1523826253.04107285,118529368,3,75868000,1997,10,0.94,39.8420077,-105.2125143,1813.97,0.0230000019073,15.4580793381,-0.0190000012517,1
1523826253.24103498,118729330,3,75868200,1997,10,0.94,39.8420079,-105.2125144,1814.02,0.0610000044107,15.4580793381,-0.0380000025034,1
1523826253.44105482,118929350,3,75868400,1997,10,0.94,39.8420081,-105.2125144,1813.99,0.0860000029206,15.4580793381,0.0500000007451,1
1523826253.64105392,119129349,3,75868600,1997,10,0.94,39.8420083,-105.2125145,1813.97,0.01600000076,15.4580793381,0.0140000004321,1
1523826253.84101200,119329307,3,75868800,1997,10,0.94,39.8420085,-105.2125146,1813.96,0.0510000027716,15.4580793381,0.0550000034273,1
1523826254.04116988,119529465,3,75869000,1997,10,0.94,39.8420087,-105.2125147,1813.98,0.082000002265,15.4580793381,0.0430000014603,1
1523826254.24113894,119729434,3,75869200,1997,10,0.94,39.842009,-105.2125148,1814.01,0.0730000063777,15.4580793381,0.0220000017434,1
1523826254.44109082,119929386,3,75869400,1997,10,0.94,39.8420091,-105.2125149,1814.01,0.0400000028312,15.4580793381,0.120000004768,1
