timestamp,TimeUS,DesRoll,Roll,DesPitch,Pitch,DesYaw,Yaw,ErrRP,ErrYaw
1523826140.14062595,5628921,0.0,3.22,0.0,3.9,0.0,7.44,1.0,0.51
1523826140.17977691,5668072,0.0,3.2,0.0,3.91,0.0,7.4,1.0,0.51
1523826140.22004485,5708340,0.0,3.24,0.0,3.92,0.0,7.34,0.8,0.51
1523826140.25981498,5748110,0.0,3.34,0.0,3.95,0.0,7.3,0.8,0.41
1523826140.29969192,5787987,0.0,3.44,0.0,3.98,0.0,7.3,0.8,0.41
1523826140.33971095,5828006,0.0,3.48,0.0,4.04,0.0,7.29,0.8,0.33
1523826140.37962890,5867924,0.0,3.47,0.0,4.04,0.0,7.26,0.8,0.33
1523826140.42000198,5908297,0.0,3.42,0.0,4.02,0.0,7.29,0.8,0.33
1523826140.45982003,5948115,0.0,3.32,0.0,4.06,0.0,7.26,0.64,0.26
1523826140.49971700,5988012,0.0,3.3,0.0,4.13,0.0,7.18,0.64,0.26
1523826140.54009700,6028392,0.0,3.38,0.0,4.18,0.0,7.16,0.64,0.21
1523826140.57972789,6068023,0.0,3.37,0.0,4.05,0.0,7.24,0.64,0.21
1523826140.62010884,6108404,0.0,3.35,0.0,4.02,0.0,7.27,0.64,0.21
1523826140.65975404,6148049,0.0,3.36,0.0,4.02,0.0,7.27,0.51,0.17
1523826140.69983196,6188127,0.0,3.36,0.0,4.03,0.0,7.25,0.51,0.17
1523826140.73985791,6228153,0.0,3.38,0.0,4.03,0.0,7.22,0.51,0.13
1523826140.77973700,6268032,0.0,3.39,0.0,4.04,0.0,7.23,0.51,0.13
1523826140.81997681,6308272,0.0,3.4,0.0,4.05,0.0,7.24,0.51,0.13
1523826140.85966802,6347963,0.0,3.41,0.0,4.05,0.0,7.25,0.41,0.11
1523826140.89967203,6387967,0.0,3.41,0.0,4.05,0.0,7.24,0.41,0.11
1523826140.93991995,6428215,0.0,3.42,0.0,4.05,0.0,7.23,0.41,0.09
1523826140.97964692,6467942,0.0,3.42,0.0,4.05,0.0,7.27,0.41,0.09
1523826141.02296686,6511262,0.0,3.43,0.0,4.05,0.0,7.3,0.41,0.09
1523826141.06011200,6548407,0.0,3.43,0.0,4.05,0.0,7.33,0.32,0.07
1523826141.10030985,6588605,0.0,3.44,0.0,4.06,0.0,7.37,0.32,0.07
1523826141.14014602,6628441,0.0,3.45,0.0,4.06,0.0,7.41,0.32,0.06
1523826141.17976689,6668062,0.0,3.45,0.0,4.06,0.0,7.37,0.32,0.06
1523826141.22074485,6709040,0.0,3.45,0.0,4.07,0.0,7.34,0.32,0.06
1523826141.25969982,6747995,0.0,3.45,0.0,4.07,0.0,7.3,0.32,0.05
1523826141.29968286,6787978,0.0,3.45,0.0,4.07,0.0,7.27,0.26,0.05
1523826141.33994985,6828245,0.0,3.44,0.0,4.07,0.0,7.24,0.26,0.04
1523826141.37961197,6867907,0.0,3.44,0.0,4.06,0.0,7.23,0.26,0.04
1523826141.42009902,6908394,0.0,3.44,0.0,4.06,0.0,7.22,0.26,0.04
1523826141.45979881,6948094,0.0,3.43,0.0,4.05,0.0,7.18,0.26,0.03
1523826141.49970198,6987997,0.0,3.42,0.0,4.05,0.0,7.11,0.21,0.03
1523826141.54011202,7028407,0.0,3.42,0.0,4.05,0.0,7.04,0.21,0.03
1523826141.57967687,7067972,0.0,3.41,0.0,4.05,0.0,6.95,0.21,0.03
1523826141.62021995,7108515,0.0,3.4,0.0,4.05,0.0,6.87,0.21,0.03
1523826141.65980792,7148103,0.0,3.39,0.0,4.05,0.0,6.8,0.21,0.03
1523826141.69988585,7188181,0.0,3.39,0.0,4.05,0.0,6.74,0.16,0.03
1523826141.73994803,7228243,0.0,3.38,0.0,4.05,0.0,6.69,0.16,0.02
1523826141.77963591,7267931,0.0,3.38,0.0,4.05,0.0,6.68,0.16,0.02
1523826141.82002592,7308321,0.0,3.38,0.0,4.04,0.0,6.68,0.16,0.02
1523826141.85996699,7348262,0.0,3.38,0.0,4.04,0.0,6.66,0.16,0.02
1523826141.89973593,7388031,0.0,3.38,0.0,4.04,0.0,6.63,0.13,0.02
1523826141.93993402,7428229,0.0,3.37,0.0,4.04,0.0,6.6,0.13,0.02
1523826141.97969198,7467987,0.0,3.37,0.0,4.04,0.0,6.56,0.13,0.02
1523826142.02074194,7509037,0.0,3.36,0.0,4.03,0.0,6.52,0.13,0.02
1523826142.05996895,7548264,0.0,3.36,0.0,4.03,0.0,6.48,0.13,0.02
1523826142.10000181,7588297,0.0,3.35,0.0,4.03,0.0,6.42,0.13,0.02
1523826142.14008093,7628376,0.0,3.35,0.0,4.03,0.0,6.37,0.1,0.02
1523826142.17985082,7668146,0.0,3.35,0.0,4.03,0.0,6.3,0.1,0.02
1523826142.22012186,7708417,0.0,3.34,0.0,4.03,0.0,6.24,0.1,0.02
1523826142.26004386,7748339,0.0,3.34,0.0,4.03,0.0,6.2,0.1,0.01
1523826142.29991388,7788209,0.0,3.34,0.0,4.03,0.0,6.19,0.1,0.01
1523826142.33997488,7828270,0.0,3.35,0.0,4.03,0.0,6.18,0.08,0.01
1523826142.37982392,7868119,0.0,3.35,0.0,4.03,0.0,6.14,0.08,0.01
1523826142.41998696,7908282,0.0,3.35,0.0,4.03,0.0,6.1,0.08,0.01
1523826142.46010780,7948403,0.0,3.35,0.0,4.03,0.0,6.09,0.08,0.01
1523826142.49993181,7988227,0.0,3.36,0.0,4.02,0.0,6.11,0.08,0.01
1523826142.54019785,8028493,0.0,3.36,0.0,4.02,0.0,6.13,0.08,0.01
1523826142.57979584,8068091,0.0,3.37,0.0,4.02,0.0,6.13,0.07,0.01
1523826142.62011886,8108414,0.0,3.37,0.0,4.02,0.0,6.14,0.07,0.01
1523826142.65974903,8148044,0.0,3.38,0.0,4.02,0.0,6.15,0.07,0.01
1523826142.69983983,8188135,0.0,3.38,0.0,4.02,0.0,6.16,0.07,0.01
1523826142.74001884,8228314,0.0,3.39,0.0,4.02,0.0,6.17,0.07,0.01
1523826142.77988887,8268184,0.0,3.39,0.0,4.03,0.0,6.14,0.05,0.01
1523826142.82010984,8308405,0.0,3.4,0.0,4.02,0.0,6.11,0.05,0.01
1523826142.85977793,8348073,0.0,3.4,0.0,4.03,0.0,6.07,0.05,0.01
1523826142.89971900,8388014,0.0,3.4,0.0,4.03,0.0,6.02,0.05,0.01
1523826142.93992782,8428223,0.0,3.4,0.0,4.03,0.0,5.98,0.05,0.0
1523826142.97982001,8468115,0.0,3.41,0.0,4.03,0.0,5.97,0.04,0.0
1523826143.02062082,8508916,0.0,3.41,0.0,4.03,0.0,5.96,0.04,0.0
1523826143.05989099,8548186,0.0,3.41,0.0,4.03,0.0,5.96,0.04,0.0
1523826143.10014796,8588443,0.0,3.41,0.0,4.03,0.0,5.97,0.04,0.0
1523826143.14061403,8628909,0.0,3.42,0.0,4.03,0.0,5.98,0.04,0.0
1523826143.17968988,8667985,0.0,3.42,0.0,4.04,0.0,5.98,0.04,0.0
1523826143.22024584,8708541,0.0,3.42,0.0,4.04,0.0,5.97,0.03,0.0
1523826143.25998902,8748284,0.0,3.42,0.0,4.04,0.0,5.96,0.03,0.0
1523826143.29996300,8788258,0.0,3.42,0.0,4.04,0.0,5.94,0.03,0.0
1523826143.34019899,8828494,0.0,3.43,0.0,4.04,0.0,5.91,0.03,0.0
1523826143.37980294,8868098,0.0,3.43,0.0,4.04,0.0,5.93,0.03,0.0
1523826143.41995096,8908246,0.0,3.43,0.0,4.04,0.0,5.94,0.02,0.0
1523826143.45986390,8948159,0.0,3.43,0.0,4.04,0.0,5.93,0.02,0.0
1523826143.49993587,8988231,0.0,3.43,0.0,4.04,0.0,5.91,0.02,0.0
1523826143.54004288,9028338,0.0,3.43,0.0,4.04,0.0,5.89,0.02,0.0
1523826143.57977200,9068067,0.0,3.44,0.0,4.04,0.0,5.92,0.02,0.0
1523826143.61999488,9108290,0.0,3.44,0.0,4.04,0.0,5.95,0.02,0.0
1523826143.65988398,9148179,0.0,3.44,0.0,4.04,0.0,5.97,0.02,0.0
1523826143.69980192,9188097,0.0,3.45,0.0,4.04,0.0,5.98,0.02,0.0
1523826143.74001384,9228309,0.0,3.45,0.0,4.04,0.0,5.99,0.02,0.0
1523826143.77966094,9267956,0.0,3.45,0.0,4.04,0.0,5.95,0.02,0.0
1523826143.82008100,9308376,0.0,3.45,0.0,4.04,0.0,5.92,0.02,0.0
1523826143.85958791,9347883,0.0,3.44,0.0,4.04,0.0,5.89,0.01,0.0
1523826143.89982200,9388117,0.0,3.44,0.0,4.04,0.0,5.86,0.01,0.0
1523826143.93999600,9428291,0.0,3.44,0.0,4.03,0.0,5.84,0.01,0.0
1523826143.97964501,9467940,0.0,3.44,0.0,4.03,0.0,5.84,0.01,0.0
1523826144.02052188,9508817,0.0,3.44,0.0,4.03,0.0,5.84,0.01,0.0
1523826144.05994201,9548237,0.0,3.44,0.0,4.03,0.0,5.85,0.01,0.0
1523826144.09964681,9587942,0.0,3.44,0.0,4.03,0.0,5.86,0.01,0.0
1523826144.14046788,9628763,0.0,3.44,0.0,4.03,0.0,5.87,0.01,0.0
1523826144.18005800,9668353,0.0,3.43,0.0,4.03,0.0,5.8,0.01,0.0
1523826144.22007084,9708366,0.0,3.43,0.0,4.03,0.0,5.74,0.01,0.0
1523826144.25995493,9748250,0.0,3.43,0.0,4.03,0.0,5.73,0.01,0.0
1523826144.29991889,9788214,0.0,3.43,0.0,4.03,0.0,5.74,0.01,0.0
1523826144.34022593,9828521,0.0,3.43,0.0,4.02,0.0,5.76,0.01,0.0
1523826144.37996101,9868256,0.0,3.43,0.0,4.02,0.0,5.74,0.01,0.0
1523826144.41999698,9908292,0.0,3.42,0.0,4.02,0.0,5.72,0.01,0.0
1523826144.45987391,9948169,0.0,3.42,0.0,4.02,0.0,5.71,0.01,0.0
1523826144.50003004,9988325,0.0,3.42,0.0,4.02,0.0,5.72,0.01,0.0
1523826144.54020596,10028501,0.0,3.42,0.0,4.02,0.0,5.72,0.01,0.0
1523826144.57978296,10068078,0.0,3.42,0.0,4.02,0.0,5.71,0.01,0.0
1523826144.61998296,10108278,0.0,3.42,0.0,4.02,0.0,5.71,0.01,0.0
1523826144.65971398,10148009,0.0,3.42,0.0,4.02,0.0,5.72,0.01,0.0
1523826144.69975090,10188046,0.0,3.42,0.0,4.02,0.0,5.75,0.0,0.0
1523826144.74006391,10228359,0.0,3.42,0.0,4.02,0.0,5.77,0.0,0.0
1523826144.77967596,10267971,0.0,3.42,0.0,4.02,0.0,5.77,0.0,0.0
1523826144.81990981,10308205,0.0,3.42,0.0,4.02,0.0,5.77,0.0,0.0
1523826144.85985994,10348155,0.0,3.43,0.0,4.01,0.0,5.76,0.0,0.0
1523826144.89981294,10388108,0.0,3.43,0.0,4.01,0.0,5.76,0.0,0.0
1523826144.93993092,10428226,0.0,3.43,0.0,4.01,0.0,5.76,0.0,0.0
1523826144.97992182,10468217,0.0,3.43,0.0,4.01,0.0,5.75,0.0,0.0
1523826145.02066302,10508958,0.0,3.43,0.0,4.01,0.0,5.75,0.0,0.0
1523826145.05997300,10548268,0.0,3.43,0.0,4.01,0.0,5.77,0.0,0.0
1523826145.09958792,10587883,0.0,3.44,0.0,4.01,0.0,5.81,0.0,0.0
1523826145.14016891,10628464,0.0,3.44,0.0,4.01,0.0,5.85,0.0,0.0
1523826145.18031597,10668611,0.0,3.45,0.0,4.01,0.0,5.89,0.0,0.0
1523826145.22009587,10708391,0.0,3.45,0.0,4.01,0.0,5.92,0.0,0.0
1523826145.25975585,10748051,0.0,3.45,0.0,4.01,0.0,5.93,0.0,0.0
1523826145.29985404,10788149,0.0,3.45,0.0,4.01,0.0,5.9,0.0,0.0
1523826145.34013486,10828430,0.0,3.45,0.0,4.0,0.0,5.88,0.0,0.0
1523826145.37990403,10868199,0.0,3.45,0.0,4.0,0.0,5.91,0.0,0.0
1523826145.42019391,10908489,0.0,3.46,0.0,4.0,0.0,5.94,0.0,0.0
1523826145.45980000,10948095,0.0,3.46,0.0,4.0,0.0,5.97,0.0,0.0
1523826145.49962997,10987925,0.0,3.46,0.0,4.0,0.0,5.99,0.0,0.0
1523826145.54008985,11028385,0.0,3.47,0.0,4.0,0.0,6.01,0.0,0.0
1523826145.57958698,11067882,0.0,3.47,0.0,4.0,0.0,6.0,0.0,0.0
1523826145.62009192,11108387,0.0,3.47,0.0,4.0,0.0,5.99,0.0,0.0
1523826145.65970397,11147999,0.0,3.47,0.0,3.99,0.0,5.97,0.0,0.0
1523826145.69984984,11188145,0.0,3.47,0.0,4.0,0.0,5.93,0.0,0.0
1523826145.73993587,11228231,0.0,3.47,0.0,3.99,0.0,5.9,0.0,0.0
1523826145.77989793,11268193,0.0,3.46,0.0,3.99,0.0,5.9,0.0,0.0
1523826145.82000399,11308299,0.0,3.46,0.0,4.0,0.0,5.91,0.0,0.0
1523826145.85988092,11348176,0.0,3.46,0.0,4.0,0.0,5.9,0.0,0.0
1523826145.89978480,11388080,0.0,3.46,0.0,4.0,0.0,5.88,0.0,0.0
1523826145.94004393,11428339,0.0,3.45,0.0,4.0,0.0,5.86,0.0,0.0
1523826145.97982788,11468123,0.0,3.45,0.0,4.0,0.0,5.88,0.0,0.0
1523826146.02055192,11508847,0.0,3.45,0.0,4.0,0.0,5.89,0.0,0.0
1523826146.05974102,11548036,0.0,3.46,0.0,4.0,0.0,5.92,0.0,0.0
1523826146.09969997,11587995,0.0,3.46,0.0,4.0,0.0,5.98,0.0,0.0
1523826146.14028096,11628576,0.0,3.46,0.0,4.0,0.0,6.04,0.0,0.01
1523826146.18009496,11668390,0.0,3.46,0.0,4.0,0.0,5.97,0.0,0.01
1523826146.22016597,11708461,0.0,3.45,0.0,4.0,0.0,5.91,0.0,0.01
1523826146.25970483,11748000,0.0,3.45,0.0,4.01,0.0,5.91,0.0,0.01
1523826146.29990697,11788202,0.0,3.46,0.0,4.01,0.0,5.97,0.0,0.01
1523826146.33999991,11828295,0.0,3.46,0.0,4.01,0.0,6.03,0.0,0.01
1523826146.37991881,11868214,0.0,3.47,0.0,4.01,0.0,6.09,0.0,0.01
1523826146.42025590,11908551,0.0,3.48,0.0,4.0,0.0,6.15,0.0,0.01
1523826146.46003485,11948330,0.0,3.48,0.0,4.0,0.0,6.17,0.0,0.01
1523826146.49985480,11988150,0.0,3.48,0.0,4.0,0.0,6.16,0.0,0.01
1523826146.54006290,12028358,0.0,3.47,0.0,4.0,0.0,6.14,0.0,0.01
1523826146.57977796,12068073,0.0,3.47,0.0,3.99,0.0,6.13,0.0,0.01
1523826146.61999989,12108295,0.0,3.47,0.0,3.99,0.0,6.12,0.0,0.01
1523826146.65973401,12148029,0.0,3.47,0.0,3.99,0.0,6.11,0.0,0.0
1523826146.69995189,12188247,0.0,3.47,0.0,3.99,0.0,6.11,0.0,0.0
1523826146.73993897,12228234,0.0,3.47,0.0,3.99,0.0,6.1,0.0,0.0
1523826146.77993989,12268235,0.0,3.47,0.0,3.99,0.0,6.08,0.0,0.0
1523826146.81997490,12308270,0.0,3.47,0.0,3.99,0.0,6.06,0.0,0.0
1523826146.85984492,12348140,0.0,3.47,0.0,3.99,0.0,6.05,0.0,0.0
1523826146.89969182,12387987,0.0,3.47,0.0,3.98,0.0,6.03,0.0,0.0
1523826146.94015002,12428445,0.0,3.47,0.0,3.98,0.0,6.02,0.0,0.0
1523826146.97971392,12468009,0.0,3.47,0.0,3.98,0.0,6.04,0.0,0.0
1523826147.02082896,12509124,0.0,3.47,0.0,3.98,0.0,6.05,0.0,0.0
1523826147.06000686,12548302,0.0,3.47,0.0,3.98,0.0,6.04,0.0,0.0
1523826147.09992886,12588224,0.0,3.46,0.0,3.98,0.0,6.02,0.0,0.0
1523826147.14015102,12628446,0.0,3.46,0.0,3.98,0.0,6.0,0.0,0.0
1523826147.18009901,12668394,0.0,3.46,0.0,3.98,0.0,6.02,0.0,0.0
1523826147.22036195,12708657,0.0,3.46,0.0,3.98,0.0,6.02,0.0,0.0
1523826147.25981784,12748113,0.0,3.46,0.0,3.98,0.0,6.02,0.0,0.0
1523826147.29971385,12788009,0.0,3.46,0.0,3.98,0.0,6.02,0.0,0.0
1523826147.34006596,12828361,0.0,3.46,0.0,3.98,0.0,6.01,0.0,0.0
1523826147.37979889,12868094,0.0,3.46,0.0,3.99,0.0,6.0,0.0,0.0
1523826147.42006493,12908360,0.0,3.47,0.0,3.99,0.0,6.0,0.0,0.0
1523826147.46009398,12948389,0.0,3.46,0.0,3.99,0.0,6.0,0.0,0.0
1523826147.49994683,12988242,0.0,3.46,0.0,3.99,0.0,6.01,0.0,0.0
1523826147.54012990,13028425,0.0,3.46,0.0,3.99,0.0,6.01,0.0,0.0
1523826147.57977986,13068075,0.0,3.46,0.0,3.99,0.0,5.98,0.0,0.0
1523826147.62007499,13108370,0.0,3.46,0.0,3.99,0.0,5.95,0.0,0.0
1523826147.65978694,13148082,0.0,3.46,0.0,3.99,0.0,5.95,0.0,0.0
1523826147.69997883,13188274,0.0,3.46,0.0,3.99,0.0,5.96,0.0,0.0
1523826147.73997593,13228271,0.0,3.46,0.0,3.99,0.0,5.97,0.0,0.0
1523826147.77993298,13268228,0.0,3.46,0.0,3.99,0.0,5.93,0.0,0.0
1523826147.82007384,13308369,0.0,3.46,0.0,3.99,0.0,5.9,0.0,0.0
1523826147.85984087,13348136,0.0,3.45,0.0,3.99,0.0,5.85,0.0,0.0
1523826147.89975882,13388054,0.0,3.45,0.0,3.99,0.0,5.8,0.0,0.0
1523826147.94005990,13428355,0.0,3.44,0.0,3.99,0.0,5.75,0.0,0.0
1523826147.97977495,13468070,0.0,3.44,0.0,3.99,0.0,5.74,0.0,0.0
1523826148.02072001,13509015,0.0,3.44,0.0,3.99,0.0,5.73,0.0,0.0
1523826148.05998802,13548283,0.0,3.44,0.0,3.99,0.0,5.73,0.0,0.0
1523826148.09979987,13588095,0.0,3.44,0.0,3.99,0.0,5.73,0.0,0.0
1523826148.13992286,13628218,0.0,3.44,0.0,3.99,0.0,5.73,0.0,0.0
1523826148.18000603,13668301,0.0,3.44,0.0,3.99,0.0,5.76,0.0,0.0
1523826148.22049904,13708794,0.0,3.44,0.0,3.99,0.0,5.78,0.0,0.0
1523826148.25981092,13748106,0.0,3.44,0.0,3.99,0.0,5.79,0.0,0.0
1523826148.29964304,13787938,0.0,3.45,0.0,3.99,0.0,5.79,0.0,0.0
1523826148.33999991,13828295,0.0,3.45,0.0,3.99,0.0,5.79,0.0,0.0
1523826148.37989783,13868193,0.0,3.46,0.0,3.99,0.0,5.82,0.0,0.0
1523826148.42002487,13908320,0.0,3.46,0.0,3.99,0.0,5.85,0.0,0.0
1523826148.46009684,13948392,0.0,3.46,0.0,3.99,0.0,5.87,0.0,0.0
1523826148.49994588,13988241,0.0,3.47,0.0,3.98,0.0,5.89,0.0,0.0
1523826148.54054785,14028843,0.0,3.47,0.0,3.98,0.0,5.9,0.0,0.0
1523826148.57987690,14068172,0.0,3.47,0.0,3.98,0.0,5.9,0.0,0.0
1523826148.62001300,14108308,0.0,3.47,0.0,3.98,0.0,5.9,0.0,0.0
1523826148.65984297,14148138,0.0,3.47,0.0,3.98,0.0,5.9,0.0,0.0
1523826148.69974184,14188037,0.0,3.47,0.0,3.98,0.0,5.9,0.0,0.0
1523826148.73998094,14228276,0.0,3.47,0.0,3.98,0.0,5.91,0.0,0.0
1523826148.77991199,14268207,0.0,3.48,0.0,3.98,0.0,5.95,0.0,0.0
1523826148.82000303,14308298,0.0,3.48,0.0,3.98,0.0,5.98,0.0,0.0
1523826148.85977197,14348067,0.0,3.48,0.0,3.98,0.0,6.0,0.0,0.0
1523826148.89967585,14387971,0.0,3.48,0.0,3.98,0.0,6.01,0.0,0.0
1523826148.94007301,14428368,0.0,3.48,0.0,3.98,0.0,6.02,0.0,0.0
1523826148.97968984,14467985,0.0,3.49,0.0,3.97,0.0,6.09,0.0,0.0
1523826149.02057290,14508868,0.0,3.49,0.0,3.97,0.0,6.15,0.0,0.0
1523826149.05995584,14548251,0.0,3.5,0.0,3.97,0.0,6.2,0.0,0.0
1523826149.09970689,14588002,0.0,3.5,0.0,3.97,0.0,6.22,0.0,0.0
1523826149.13993382,14628229,0.0,3.5,0.0,3.97,0.0,6.25,0.0,0.0
1523826149.17999792,14668293,0.0,3.5,0.0,3.97,0.0,6.21,0.0,0.0
1523826149.22026992,14708565,0.0,3.49,0.0,3.97,0.0,6.17,0.0,0.0
1523826149.26009202,14748387,0.0,3.49,0.0,3.97,0.0,6.17,0.0,0.0
1523826149.29988003,14788175,0.0,3.49,0.0,3.97,0.0,6.2,0.0,0.0
1523826149.34001088,14828306,0.0,3.49,0.0,3.97,0.0,6.22,0.0,0.0
1523826149.37968683,14867982,0.0,3.49,0.0,3.97,0.0,6.26,0.0,0.0
1523826149.41999292,14908288,0.0,3.49,0.0,3.97,0.0,6.29,0.0,0.0
1523826149.46000981,14948305,0.0,3.49,0.0,3.97,0.0,6.31,0.0,0.0
1523826149.50024295,14988538,0.0,3.49,0.0,3.98,0.0,6.32,0.0,0.0
1523826149.54006696,15028362,0.0,3.49,0.0,3.98,0.0,6.33,0.0,0.0
1523826149.57980084,15068096,0.0,3.49,0.0,3.98,0.0,6.34,0.0,0.0
1523826149.62006593,15108361,0.0,3.49,0.0,3.98,0.0,6.35,0.0,0.0
1523826149.65968895,15147984,0.0,3.49,0.0,3.98,0.0,6.37,0.0,0.0
1523826149.69985485,15188150,0.0,3.49,0.0,3.98,0.0,6.39,0.0,0.0
1523826149.73997903,15228274,0.0,3.49,0.0,3.98,0.0,6.4,0.0,0.0
1523826149.77973485,15268030,0.0,3.48,0.0,3.98,0.0,6.33,0.0,0.0
1523826149.81999803,15308293,0.0,3.48,0.0,3.98,0.0,6.27,0.0,0.0
1523826149.85963202,15347927,0.0,3.47,0.0,3.98,0.0,6.22,0.0,0.0
1523826149.89983797,15388133,0.0,3.47,0.0,3.98,0.0,6.19,0.0,0.0
1523826149.93995786,15428253,0.0,3.47,0.0,3.98,0.0,6.16,0.0,0.01
1523826149.97981191,15468107,0.0,3.46,0.0,3.99,0.0,6.1,0.0,0.01
1523826150.02057481,15508870,0.0,3.45,0.0,3.99,0.0,6.04,0.0,0.01
1523826150.05990982,15548205,0.0,3.44,0.0,3.99,0.0,5.97,0.0,0.01
1523826150.09983683,15588132,0.0,3.44,0.0,3.99,0.0,5.9,0.0,0.01
1523826150.14000797,15628303,0.0,3.43,0.0,4.0,0.0,5.84,0.0,0.01
1523826150.17982697,15668122,0.0,3.42,0.0,4.0,0.0,5.75,0.0,0.01
1523826150.22012281,15708418,0.0,3.41,0.0,4.0,0.0,5.67,0.0,0.01
1523826150.26014996,15748445,0.0,3.41,0.0,4.0,0.0,5.59,0.0,0.01
1523826150.30004096,15788336,0.0,3.4,0.0,4.0,0.0,5.52,0.0,0.01
1523826150.33998799,15828283,0.0,3.39,0.0,4.0,0.0,5.45,0.0,0.01
1523826150.37993288,15868228,0.0,3.39,0.0,4.0,0.0,5.38,0.0,0.01
1523826150.42001891,15908314,0.0,3.39,0.0,4.0,0.0,5.31,0.0,0.01
1523826150.45981503,15948110,0.0,3.38,0.0,4.0,0.0,5.25,0.0,0.01
1523826150.49964499,15987940,0.0,3.38,0.0,4.01,0.0,5.18,0.0,0.01
1523826150.54021192,16028507,0.0,3.37,0.0,4.01,0.0,5.12,0.0,0.01
1523826150.57993484,16068230,0.0,3.37,0.0,4.01,0.0,5.09,0.0,0.01
1523826150.62015986,16108455,0.0,3.37,0.0,4.01,0.0,5.06,0.0,0.01
1523826150.65984797,16148143,0.0,3.37,0.0,4.01,0.0,5.04,0.0,0.01
1523826150.69981885,16188114,0.0,3.38,0.0,4.0,0.0,5.04,0.0,0.01
1523826150.74002194,16228317,0.0,3.38,0.0,4.0,0.0,5.05,0.0,0.01
1523826150.77978396,16268079,0.0,3.38,0.0,4.0,0.0,5.01,0.0,0.01
1523826150.82001495,16308310,0.0,3.39,0.0,4.0,0.0,4.98,0.0,0.01
1523826150.85969186,16347987,0.0,3.39,0.0,4.0,0.0,4.93,0.0,0.01
1523826150.89979291,16388088,0.0,3.38,0.0,4.0,0.0,4.84,0.0,0.01
1523826150.93991780,16428213,0.0,3.38,0.0,4.0,0.0,4.76,0.0,0.01
1523826150.97975683,16468052,0.0,3.39,0.0,3.99,0.0,4.74,0.0,0.01
1523826151.02058101,16508876,0.0,3.39,0.0,3.99,0.0,4.72,0.0,0.01
1523826151.05994296,16548238,0.0,3.4,0.0,3.99,0.0,4.74,0.0,0.01
1523826151.09981489,16588110,0.0,3.41,0.0,3.99,0.0,4.8,0.0,0.01
1523826151.13993502,16628230,0.0,3.42,0.0,3.99,0.0,4.85,0.0,0.01
1523826151.17963886,16667934,0.0,3.43,0.0,3.99,0.0,4.88,0.0,0.01
1523826151.22031403,16708609,0.0,3.44,0.0,3.98,0.0,4.91,0.0,0.01
1523826151.25987792,16748173,0.0,3.44,0.0,3.98,0.0,4.92,0.0,0.01
1523826151.30018592,16788481,0.0,3.45,0.0,3.98,0.0,4.93,0.0,0.01
1523826151.34003091,16828326,0.0,3.45,0.0,3.98,0.0,4.94,0.0,0.01
1523826151.37987781,16868173,0.0,3.46,0.0,3.98,0.0,4.99,0.0,0.01
1523826151.41997695,16908272,0.0,3.47,0.0,3.98,0.0,5.03,0.0,0.01
1523826151.45963001,16947925,0.0,3.47,0.0,3.98,0.0,5.04,0.0,0.01
1523826151.49985385,16988149,0.0,3.48,0.0,3.98,0.0,5.02,0.0,0.01
1523826151.54024196,17028537,0.0,3.48,0.0,3.98,0.0,5.01,0.0,0.01
1523826151.57982492,17068120,0.0,3.49,0.0,3.97,0.0,5.05,0.0,0.01
1523826151.61996984,17108265,0.0,3.49,0.0,3.97,0.0,5.08,0.0,0.01
1523826151.65984583,17148141,0.0,3.5,0.0,3.97,0.0,5.12,0.0,0.01
1523826151.70010900,17188404,0.0,3.5,0.0,3.97,0.0,5.17,0.0,0.01
1523826151.73997903,17228274,0.0,3.51,0.0,3.97,0.0,5.21,0.0,0.01
1523826151.77965283,17267948,0.0,3.52,0.0,3.97,0.0,5.32,0.0,0.01
1523826151.82000494,17308300,0.0,3.53,0.0,3.97,0.0,5.42,0.0,0.01
1523826151.85963488,17347930,0.0,3.54,0.0,3.96,0.0,5.51,0.0,0.01
1523826151.89971685,17388012,0.0,3.54,0.0,3.96,0.0,5.57,0.0,0.01
1523826151.94006896,17428364,0.0,3.55,0.0,3.96,0.0,5.64,0.0,0.01
1523826151.97966099,17467956,0.0,3.55,0.0,3.95,0.0,5.6,0.0,0.01
1523826152.02067304,17508968,0.0,3.54,0.0,3.95,0.0,5.56,0.0,0.01
1523826152.05982780,17548123,0.0,3.54,0.0,3.95,0.0,5.53,0.0,0.01
1523826152.09996796,17588263,0.0,3.53,0.0,3.95,0.0,5.49,0.0,0.01
1523826152.13998103,17628276,0.0,3.53,0.0,3.95,0.0,5.46,0.0,0.01
1523826152.17979193,17668087,0.0,3.52,0.0,3.95,0.0,5.48,0.0,0.01
1523826152.22026896,17708564,0.0,3.52,0.0,3.95,0.0,5.5,0.0,0.01
1523826152.25978589,17748081,0.0,3.52,0.0,3.95,0.0,5.52,0.0,0.01
1523826152.30012393,17788419,0.0,3.52,0.0,3.95,0.0,5.54,0.0,0.01
1523826152.34005404,17828349,0.0,3.51,0.0,3.95,0.0,5.56,0.0,0.01
1523826152.37967896,17867974,0.0,3.51,0.0,3.95,0.0,5.63,0.0,0.01
1523826152.42005897,17908354,0.0,3.51,0.0,3.95,0.0,5.69,0.0,0.01
1523826152.45998383,17948279,0.0,3.51,0.0,3.94,0.0,5.77,0.0,0.01
1523826152.49964094,17987936,0.0,3.52,0.0,3.94,0.0,5.87,0.0,0.01
1523826152.54009295,18028388,0.0,3.52,0.0,3.94,0.0,5.96,0.0,0.01
1523826152.57967496,18067970,0.0,3.52,0.0,3.95,0.0,6.01,0.0,0.01
1523826152.62005496,18108350,0.0,3.52,0.0,3.95,0.0,6.06,0.0,0.01
1523826152.65969992,18147995,0.0,3.52,0.0,3.95,0.0,6.1,0.0,0.01
1523826152.70001984,18188315,0.0,3.52,0.0,3.95,0.0,6.14,0.0,0.01
1523826152.73996997,18228265,0.0,3.52,0.0,3.95,0.0,6.17,0.0,0.01
1523826152.77991581,18268211,0.0,3.52,0.0,3.94,0.0,6.21,0.0,0.01
1523826152.82013893,18308434,0.0,3.52,0.0,3.94,0.0,6.24,0.0,0.01
1523826152.85964799,18347943,0.0,3.53,0.0,3.94,0.0,6.27,0.0,0.01
1523826152.89980602,18388101,0.0,3.53,0.0,3.94,0.0,6.3,0.0,0.01
1523826152.93981481,18428110,0.0,3.53,0.0,3.94,0.0,6.33,0.0,0.01
1523826152.97961497,18467910,0.0,3.53,0.0,3.94,0.0,6.34,0.0,0.01
1523826153.02067780,18508973,0.0,3.53,0.0,3.95,0.0,6.34,0.0,0.01
1523826153.06004500,18548340,0.0,3.53,0.0,3.95,0.0,6.37,0.0,0.01
1523826153.09976888,18588064,0.0,3.54,0.0,3.95,0.0,6.42,0.0,0.01
1523826153.13983488,18628130,0.0,3.54,0.0,3.95,0.0,6.47,0.0,0.01
1523826153.17998981,18668285,0.0,3.54,0.0,3.95,0.0,6.51,0.0,0.01
1523826153.22005296,18708348,0.0,3.54,0.0,3.95,0.0,6.55,0.0,0.01
1523826153.25970984,18748005,0.0,3.53,0.0,3.95,0.0,6.55,0.0,0.01
1523826153.30010390,18788399,0.0,3.53,0.0,3.95,0.0,6.52,0.0,0.01
1523826153.34036398,18828659,0.0,3.52,0.0,3.95,0.0,6.49,0.0,0.0
1523826153.37978482,18868080,0.0,3.53,0.0,3.95,0.0,6.49,0.0,0.0
1523826153.42010188,18908397,0.0,3.53,0.0,3.95,0.0,6.48,0.0,0.0
1523826153.45993280,18948228,0.0,3.51,0.0,3.95,0.0,6.47,0.0,0.0
1523826153.49977398,18988069,0.0,3.54,0.0,3.95,0.0,6.48,0.0,0.0
1523826153.54009485,19028390,0.0,3.51,0.0,3.96,0.0,6.46,0.0,0.0
1523826153.57989192,19068187,0.0,3.5,0.0,3.96,0.0,6.45,0.0,0.0
1523826153.62017298,19108468,0.0,3.52,0.0,3.96,0.0,6.45,0.0,0.0
1523826153.65985894,19148154,0.0,3.49,0.0,3.96,0.0,6.41,0.0,0.0
1523826153.69981289,19188108,0.0,3.51,0.0,3.96,0.0,6.38,0.0,0.0
1523826153.74004102,19228336,0.0,3.5,0.0,3.97,0.0,6.34,0.0,0.01
1523826153.77973986,19268035,0.0,3.49,0.0,3.97,0.0,6.26,0.0,0.01
1523826153.82023597,19308531,0.0,3.51,0.0,3.97,0.0,6.19,0.0,0.01
1523826153.85993981,19348235,0.0,3.49,0.0,3.97,0.0,6.15,0.0,0.01
1523826153.89967394,19387969,0.0,3.51,0.0,3.98,0.0,6.15,0.0,0.01
1523826153.94005895,19428354,0.0,3.51,0.0,3.98,0.0,6.13,0.0,0.0
1523826153.97988987,19468185,0.0,3.5,0.0,3.97,0.0,6.13,0.0,0.0
1523826154.02055883,19508854,0.0,3.5,0.0,3.97,0.0,6.13,0.0,0.0
1523826154.05986094,19548156,0.0,3.49,0.0,3.97,0.0,6.12,0.0,0.0
1523826154.09979701,19588092,0.0,3.5,0.0,3.96,0.0,6.12,0.0,0.0
1523826154.14008784,19628383,0.0,3.49,0.0,3.96,0.0,6.11,0.0,0.0
1523826154.17985988,19668155,0.0,3.48,0.0,3.96,0.0,6.09,0.0,0.0
1523826154.21996903,19708264,0.0,3.5,0.0,3.97,0.0,6.08,0.0,0.0
1523826154.25975680,19748052,0.0,3.49,0.0,3.97,0.0,6.05,0.0,0.0
1523826154.29971790,19788013,0.0,3.5,0.0,3.98,0.0,6.03,0.0,0.0
1523826154.34027481,19828570,0.0,3.5,0.0,3.99,0.0,5.99,0.0,0.01
1523826154.37973595,19868031,0.0,3.49,0.0,3.99,0.0,5.93,0.0,0.01
1523826154.41998601,19908281,0.0,3.5,0.0,3.99,0.0,5.88,0.0,0.01
1523826154.45998788,19948283,0.0,3.49,0.0,3.99,0.0,5.85,0.0,0.0
1523826154.50008893,19988384,0.0,3.48,0.0,3.99,0.0,5.83,0.0,0.0
1523826154.54006886,20028364,0.0,3.49,0.0,3.99,0.0,5.82,0.0,0.01
1523826154.57984090,20068136,0.0,3.47,0.0,3.99,0.0,5.77,0.0,0.01
1523826154.61998391,20108279,0.0,3.48,0.0,3.98,0.0,5.73,0.0,0.01
1523826154.65985489,20148150,0.0,3.48,0.0,3.98,0.0,5.7,0.0,0.0
1523826154.69973803,20188033,0.0,3.48,0.0,3.98,0.0,5.68,0.0,0.0
1523826154.73992491,20228220,0.0,3.48,0.0,3.98,0.0,5.66,0.0,0.0
1523826154.77992201,20268217,0.0,3.48,0.0,3.98,0.0,5.64,0.0,0.0
1523826154.82000685,20308302,0.0,3.49,0.0,3.98,0.0,5.63,0.0,0.0
1523826154.85980701,20348102,0.0,3.48,0.0,3.98,0.0,5.63,0.0,0.0
1523826154.89969897,20387994,0.0,3.48,0.0,3.98,0.0,5.65,0.0,0.0
1523826154.93994904,20428244,0.0,3.48,0.0,3.97,0.0,5.67,0.0,0.0
1523826154.97987390,20468169,0.0,3.47,0.0,3.97,0.0,5.65,0.0,0.0
1523826155.02066588,20508961,0.0,3.47,0.0,3.97,0.0,5.64,0.0,0.0
1523826155.05995297,20548248,0.0,3.47,0.0,3.97,0.0,5.62,0.0,0.0
1523826155.10005093,20588346,0.0,3.47,0.0,3.97,0.0,5.61,0.0,0.0
1523826155.13992691,20628222,0.0,3.47,0.0,3.98,0.0,5.59,0.0,0.0
1523826155.17983294,20668128,0.0,3.46,0.0,3.98,0.0,5.56,0.0,0.0
1523826155.21996784,20708263,0.0,3.47,0.0,3.98,0.0,5.53,0.0,0.0
1523826155.26008987,20748385,0.0,3.47,0.0,3.98,0.0,5.51,0.0,0.0
1523826155.29978800,20788083,0.0,3.47,0.0,3.98,0.0,5.49,0.0,0.0
1523826155.34019399,20828489,0.0,3.47,0.0,3.98,0.0,5.48,0.0,0.01
1523826155.38019991,20868495,0.0,3.46,0.0,3.99,0.0,5.37,0.0,0.01
1523826155.42017198,20908467,0.0,3.46,0.0,3.99,0.0,5.28,0.0,0.01
1523826155.45958281,20947878,0.0,3.45,0.0,3.99,0.0,5.2,0.0,0.01
1523826155.49977899,20988074,0.0,3.45,0.0,3.99,0.0,5.15,0.0,0.01
1523826155.53998995,21028285,0.0,3.45,0.0,3.99,0.0,5.11,0.0,0.01
1523826155.57978582,21068081,0.0,3.45,0.0,3.99,0.0,5.05,0.0,0.01
1523826155.61995292,21108248,0.0,3.45,0.0,3.99,0.0,5.01,0.0,0.01
1523826155.65971398,21148009,0.0,3.44,0.0,3.99,0.0,4.94,0.0,0.01
1523826155.69980884,21188104,0.0,3.44,0.0,3.98,0.0,4.86,0.0,0.01
1523826155.74007082,21228366,0.0,3.44,0.0,3.98,0.0,4.78,0.0,0.01
1523826155.77977395,21268069,0.0,3.43,0.0,3.98,0.0,4.72,0.0,0.01
1523826155.81999898,21308294,0.0,3.43,0.0,3.98,0.0,4.66,0.0,0.01
1523826155.85996103,21348256,0.0,3.43,0.0,3.97,0.0,4.6,0.0,0.01
1523826155.89967585,21387971,0.0,3.43,0.0,3.98,0.0,4.54,0.0,0.01
1523826155.93994999,21428245,0.0,3.43,0.0,3.98,0.0,4.48,0.0,0.01
1523826155.97982287,21468118,0.0,3.43,0.0,3.98,0.0,4.43,0.0,0.01
1523826156.02056694,21508862,0.0,3.43,0.0,3.98,0.0,4.38,0.0,0.01
1523826156.06016684,21548462,0.0,3.43,0.0,3.98,0.0,4.35,0.0,0.01
1523826156.09977198,21588067,0.0,3.43,0.0,3.98,0.0,4.34,0.0,0.01
1523826156.13976002,21628055,0.0,3.44,0.0,3.98,0.0,4.32,0.0,0.01
1523826156.17966795,21667963,0.0,3.44,0.0,3.98,0.0,4.31,0.0,0.01
1523826156.21995282,21708248,0.0,3.44,0.0,3.98,0.0,4.31,0.0,0.01
1523826156.25986886,21748164,0.0,3.45,0.0,3.97,0.0,4.32,0.0,0.01
1523826156.29974103,21788036,0.0,3.45,0.0,3.97,0.0,4.34,0.0,0.01
1523826156.33991599,21828211,0.0,3.46,0.0,3.97,0.0,4.36,0.0,0.01
1523826156.38002086,21868316,0.0,3.47,0.0,3.97,0.0,4.46,0.0,0.01
1523826156.42023492,21908530,0.0,3.49,0.0,3.96,0.0,4.55,0.0,0.01
1523826156.45983481,21948130,0.0,3.49,0.0,3.96,0.0,4.59,0.0,0.01
1523826156.49968886,21987984,0.0,3.5,0.0,3.96,0.0,4.59,0.0,0.01
1523826156.54008698,22028382,0.0,3.5,0.0,3.96,0.0,4.59,0.0,0.01
1523826156.57977986,22068075,0.0,3.5,0.0,3.96,0.0,4.55,0.0,0.01
1523826156.62007594,22108371,0.0,3.5,0.0,3.96,0.0,4.51,0.0,0.01
1523826156.65982604,22148121,0.0,3.51,0.0,3.96,0.0,4.49,0.0,0.01
1523826156.70020580,22188501,0.0,3.51,0.0,3.96,0.0,4.51,0.0,0.01
1523826156.73990297,22228198,0.0,3.51,0.0,3.96,0.0,4.52,0.0,0.0
1523826156.77992702,22268222,0.0,3.52,0.0,3.96,0.0,4.54,0.0,0.0
1523826156.81995201,22308247,0.0,3.52,0.0,3.96,0.0,4.55,0.0,0.0
1523826156.85984898,22348144,0.0,3.52,0.0,3.97,0.0,4.56,0.0,0.0
1523826156.89970398,22387999,0.0,3.52,0.0,3.97,0.0,4.57,0.0,0.0
1523826156.94001794,22428313,0.0,3.52,0.0,3.97,0.0,4.58,0.0,0.0
1523826156.98000503,22468300,0.0,3.53,0.0,3.97,0.0,4.61,0.0,0.0
1523826157.02082086,22509116,0.0,3.53,0.0,3.98,0.0,4.63,0.0,0.0
1523826157.05993199,22548227,0.0,3.53,0.0,3.98,0.0,4.67,0.0,0.0
1523826157.09971786,22588013,0.0,3.54,0.0,3.98,0.0,4.71,0.0,0.0
1523826157.13980699,22628102,0.0,3.54,0.0,3.98,0.0,4.75,0.0,0.01
1523826157.17984200,22668137,0.0,3.55,0.0,3.98,0.0,4.82,0.0,0.01
1523826157.22004294,22708338,0.0,3.55,0.0,3.98,0.0,4.88,0.0,0.01
1523826157.25969291,22747988,0.0,3.55,0.0,3.97,0.0,4.94,0.0,0.01
1523826157.30003190,22788327,0.0,3.56,0.0,3.97,0.0,5.0,0.0,0.01
1523826157.34008288,22828378,0.0,3.56,0.0,3.97,0.0,5.05,0.0,0.01
1523826157.37997293,22868268,0.0,3.56,0.0,3.97,0.0,5.06,0.0,0.01
1523826157.41997886,22908274,0.0,3.56,0.0,3.97,0.0,5.06,0.0,0.01
1523826157.46034288,22948638,0.0,3.55,0.0,3.97,0.0,5.06,0.0,0.0
1523826157.49981689,22988112,0.0,3.55,0.0,3.97,0.0,5.04,0.0,0.0
1523826157.54015183,23028447,0.0,3.55,0.0,3.98,0.0,5.02,0.0,0.0
1523826157.57991600,23068211,0.0,3.54,0.0,3.98,0.0,5.05,0.0,0.0
1523826157.62002587,23108321,0.0,3.54,0.0,3.98,0.0,5.08,0.0,0.0
1523826157.65991902,23148214,0.0,3.54,0.0,3.98,0.0,5.1,0.0,0.0
1523826157.69967103,23187966,0.0,3.54,0.0,3.98,0.0,5.11,0.0,0.0
1523826157.74003100,23228326,0.0,3.54,0.0,3.98,0.0,5.13,0.0,0.0
1523826157.77977085,23268066,0.0,3.53,0.0,3.98,0.0,5.14,0.0,0.0
1523826157.82008886,23308384,0.0,3.53,0.0,3.98,0.0,5.14,0.0,0.0
1523826157.85981894,23348114,0.0,3.53,0.0,3.98,0.0,5.16,0.0,0.0
1523826157.89970493,23388000,0.0,3.53,0.0,3.98,0.0,5.19,0.0,0.0
1523826157.94017291,23428468,0.0,3.52,0.0,3.98,0.0,5.21,0.0,0.0
1523826157.97988200,23468177,0.0,3.52,0.0,3.98,0.0,5.19,0.0,0.0
1523826158.02088499,23509180,0.0,3.51,0.0,3.99,0.0,5.17,0.0,0.0
1523826158.05986381,23548159,0.0,3.51,0.0,3.99,0.0,5.16,0.0,0.0
1523826158.09982395,23588119,0.0,3.51,0.0,3.99,0.0,5.16,0.0,0.0
1523826158.14006901,23628364,0.0,3.5,0.0,3.99,0.0,5.16,0.0,0.0
1523826158.17971587,23668011,0.0,3.5,0.0,3.99,0.0,5.14,0.0,0.0
1523826158.22010183,23708397,0.0,3.49,0.0,3.99,0.0,5.12,0.0,0.0
1523826158.25981188,23748107,0.0,3.49,0.0,3.99,0.0,5.08,0.0,0.0
1523826158.29983902,23788134,0.0,3.48,0.0,4.0,0.0,5.04,0.0,0.0
1523826158.33995295,23828248,0.0,3.48,0.0,4.0,0.0,5.0,0.0,0.0
1523826158.37969685,23867992,0.0,3.47,0.0,4.0,0.0,4.96,0.0,0.0
1523826158.42070198,23908997,0.0,3.47,0.0,4.0,0.0,4.94,0.0,0.0
1523826158.45974994,23948045,0.0,3.46,0.0,4.01,0.0,4.92,0.0,0.0
1523826158.50019097,23988486,0.0,3.46,0.0,4.01,0.0,4.92,0.0,0.0
1523826158.54000092,24028296,0.0,3.45,0.0,4.01,0.0,4.91,0.0,0.01
1523826158.57977080,24068066,0.0,3.45,0.0,4.01,0.0,4.91,0.0,0.01
1523826158.61998487,24108280,0.0,3.44,0.0,4.01,0.0,4.91,0.0,0.01
1523826158.66000104,24148296,0.0,3.44,0.0,4.02,0.0,4.9,0.0,0.01
1523826158.69984984,24188145,0.0,3.44,0.0,4.02,0.0,4.9,0.0,0.01
1523826158.74002481,24228320,0.0,3.43,0.0,4.02,0.0,4.9,0.0,0.01
1523826158.77995300,24268248,0.0,3.43,0.0,4.02,0.0,4.9,0.0,0.01
1523826158.82005191,24308347,0.0,3.43,0.0,4.02,0.0,4.89,0.0,0.01
1523826158.85974097,24348036,0.0,3.42,0.0,4.02,0.0,4.89,0.0,0.01
1523826158.89991784,24388213,0.0,3.42,0.0,4.02,0.0,4.88,0.0,0.01
1523826158.93971992,24428015,0.0,3.42,0.0,4.03,0.0,4.87,0.0,0.01
1523826158.97998500,24468280,0.0,3.41,0.0,4.03,0.0,4.87,0.0,0.01
1523826159.02074385,24509039,0.0,3.41,0.0,4.03,0.0,4.87,0.0,0.01
1523826159.05987787,24548173,0.0,3.41,0.0,4.03,0.0,4.86,0.0,0.01
1523826159.10002589,24588321,0.0,3.4,0.0,4.03,0.0,4.85,0.0,0.01
1523826159.13996100,24628256,0.0,3.4,0.0,4.03,0.0,4.84,0.0,0.01
1523826159.17967081,24667966,0.0,3.39,0.0,4.04,0.0,4.83,0.0,0.01
1523826159.22001195,24708307,0.0,3.39,0.0,4.04,0.0,4.83,0.0,0.01
1523826159.25977802,24748073,0.0,3.39,0.0,4.04,0.0,4.82,0.0,0.01
1523826159.29975891,24788054,0.0,3.38,0.0,4.04,0.0,4.81,0.0,0.01
1523826159.34018993,24828485,0.0,3.38,0.0,4.04,0.0,4.81,0.0,0.01
1523826159.37994981,24868245,0.0,3.38,0.0,4.04,0.0,4.8,0.0,0.01
1523826159.41999793,24908293,0.0,3.37,0.0,4.05,0.0,4.79,0.0,0.01
1523826159.46019197,24948487,0.0,3.37,0.0,4.05,0.0,4.79,0.0,0.01
1523826159.50023198,24988527,0.0,3.37,0.0,4.05,0.0,4.78,0.0,0.01
1523826159.54003382,25028329,0.0,3.36,0.0,4.05,0.0,4.78,0.0,0.01
1523826159.58011103,25068406,0.0,3.36,0.0,4.05,0.0,4.77,0.0,0.01
1523826159.62025785,25108553,0.0,3.36,0.0,4.05,0.0,4.77,0.0,0.01
1523826159.65968299,25147978,0.0,3.36,0.0,4.06,0.0,4.77,0.0,0.01
1523826159.69987798,25188173,0.0,3.35,0.0,4.06,0.0,4.77,0.0,0.01
1523826159.73980188,25228097,0.0,3.35,0.0,4.06,0.0,4.76,0.0,0.01
1523826159.77970982,25268005,0.0,3.35,0.0,4.06,0.0,4.77,0.0,0.01
1523826159.81999302,25308288,0.0,3.34,0.0,4.06,0.0,4.78,0.0,0.01
1523826159.85968590,25347981,0.0,3.34,0.0,4.06,0.0,4.79,0.0,0.01
1523826159.89972186,25388017,0.0,3.34,0.0,4.07,0.0,4.79,0.0,0.01
1523826159.94013500,25428430,0.0,3.34,0.0,4.07,0.0,4.79,0.0,0.01
1523826159.97986698,25468162,0.0,3.33,0.0,4.07,0.0,4.8,0.0,0.01
1523826160.02065992,25508955,0.0,3.33,0.0,4.07,0.0,4.81,0.0,0.01
1523826160.06013203,25548427,0.0,3.33,0.0,4.07,0.0,4.82,0.0,0.01
1523826160.09990191,25588197,0.0,3.33,0.0,4.07,0.0,4.82,0.0,0.01
1523826160.14004493,25628340,0.0,3.33,0.0,4.08,0.0,4.83,0.0,0.01
1523826160.17985392,25668149,0.0,3.33,0.0,4.08,0.0,4.83,0.0,0.01
1523826160.21998286,25708278,0.0,3.32,0.0,4.08,0.0,4.84,0.0,0.01
1523826160.25999498,25748290,0.0,3.32,0.0,4.08,0.0,4.84,0.0,0.01
1523826160.29988885,25788184,0.0,3.32,0.0,4.08,0.0,4.84,0.0,0.01
1523826160.34017801,25828473,0.0,3.32,0.0,4.09,0.0,4.85,0.0,0.01
1523826160.37966895,25867964,0.0,3.32,0.0,4.09,0.0,4.85,0.0,0.01
1523826160.42002082,25908316,0.0,3.31,0.0,4.09,0.0,4.86,0.0,0.01
1523826160.46012998,25948425,0.0,3.31,0.0,4.09,0.0,4.86,0.0,0.01
1523826160.49992394,25988219,0.0,3.31,0.0,4.09,0.0,4.86,0.0,0.01
1523826160.54000187,26028297,0.0,3.31,0.0,4.09,0.0,4.87,0.0,0.0
1523826160.58004498,26068340,0.0,3.3,0.0,4.1,0.0,4.88,0.0,0.0
1523826160.62011981,26108415,0.0,3.3,0.0,4.1,0.0,4.88,0.0,0.0
1523826160.65971088,26148006,0.0,3.3,0.0,4.1,0.0,4.88,0.0,0.01
1523826160.69974089,26188036,0.0,3.3,0.0,4.1,0.0,4.88,0.0,0.01
1523826160.73986101,26228156,0.0,3.29,0.0,4.1,0.0,4.87,0.0,0.0
1523826160.77992797,26268223,0.0,3.29,0.0,4.1,0.0,4.87,0.0,0.0
1523826160.82023501,26308530,0.0,3.29,0.0,4.1,0.0,4.87,0.0,0.0
1523826160.85984397,26348139,0.0,3.29,0.0,4.1,0.0,4.87,0.0,0.01
1523826160.89995980,26388255,0.0,3.28,0.0,4.1,0.0,4.86,0.0,0.01
1523826160.93991590,26428211,0.0,3.28,0.0,4.11,0.0,4.85,0.0,0.01
1523826160.97979593,26468091,0.0,3.28,0.0,4.11,0.0,4.84,0.0,0.01
1523826161.02059388,26508889,0.0,3.27,0.0,4.11,0.0,4.84,0.0,0.01
1523826161.05980301,26548098,0.0,3.27,0.0,4.11,0.0,4.83,0.0,0.01
1523826161.09966087,26587956,0.0,3.27,0.0,4.11,0.0,4.83,0.0,0.01
1523826161.14000487,26628300,0.0,3.27,0.0,4.12,0.0,4.83,0.0,0.01
1523826161.17992997,26668225,0.0,3.27,0.0,4.12,0.0,4.82,0.0,0.01
1523826161.22033691,26708632,0.0,3.27,0.0,4.12,0.0,4.81,0.0,0.01
1523826161.25977397,26748069,0.0,3.26,0.0,4.12,0.0,4.8,0.0,0.01
1523826161.29982901,26788124,0.0,3.26,0.0,4.13,0.0,4.8,0.0,0.01
1523826161.33999896,26828294,0.0,3.26,0.0,4.13,0.0,4.79,0.0,0.01
1523826161.38020182,26868497,0.0,3.26,0.0,4.13,0.0,4.78,0.0,0.01
1523826161.42015791,26908453,0.0,3.26,0.0,4.13,0.0,4.78,0.0,0.01
1523826161.45970798,26948003,0.0,3.25,0.0,4.13,0.0,4.78,0.0,0.01
1523826161.50013590,26988431,0.0,3.25,0.0,4.13,0.0,4.76,0.0,0.01
1523826161.54009986,27028395,0.0,3.25,0.0,4.13,0.0,4.75,0.0,0.01
1523826161.58016396,27068459,0.0,3.25,0.0,4.14,0.0,4.74,0.0,0.01
1523826161.61990881,27108204,0.0,3.24,0.0,4.14,0.0,4.74,0.0,0.01
1523826161.65985489,27148150,0.0,3.24,0.0,4.14,0.0,4.74,0.0,0.01
1523826161.69985199,27188147,0.0,3.24,0.0,4.14,0.0,4.74,0.0,0.01
1523826161.81998801,27308283,0.0,3.24,0.0,4.14,0.0,4.74,0.0,0.01
1523826161.85992694,27348222,0.0,3.24,0.0,4.14,0.0,4.74,0.0,0.01
1523826161.89978385,27388079,0.0,3.23,0.0,4.14,0.0,4.74,0.0,0.01
1523826161.93976688,27428062,0.0,3.23,0.0,4.14,0.0,4.74,0.0,0.0
1523826161.97994184,27468237,0.0,3.23,0.0,4.15,0.0,4.74,0.0,0.0
1523826162.02051091,27508806,0.0,3.23,0.0,4.15,0.0,4.74,0.0,0.0
1523826162.05991697,27548212,0.0,3.22,0.0,4.15,0.0,4.74,0.0,0.0
1523826162.09992099,27588216,0.0,3.22,0.0,4.15,0.0,4.74,0.0,0.0
1523826162.13994193,27628237,0.0,3.22,0.0,4.15,0.0,4.74,0.0,0.0
1523826162.18038297,27668678,0.0,3.22,0.0,4.15,0.0,4.74,0.0,0.0
1523826162.22017002,27708465,0.0,3.22,0.0,4.15,0.0,4.74,0.0,0.0
1523826162.25979900,27748094,0.0,3.22,0.0,4.15,0.0,4.73,0.0,0.01
1523826162.29977083,27788066,0.0,3.21,0.0,4.15,0.0,4.73,0.0,0.01
1523826162.34006596,27828361,0.0,3.21,0.0,4.15,0.0,4.72,0.0,0.01
1523826162.38000298,27868298,0.0,3.21,0.0,4.16,0.0,4.71,0.0,0.01
1523826162.42017984,27908475,0.0,3.21,0.0,4.16,0.0,4.71,0.0,0.01
1523826162.45965195,27947947,0.0,3.21,0.0,4.16,0.0,4.7,0.0,0.01
1523826162.50003695,27988332,0.0,3.2,0.0,4.16,0.0,4.7,0.0,0.01
1523826162.54003096,28028326,0.0,3.2,0.0,4.16,0.0,4.7,0.0,0.01
1523826162.58000588,28068301,0.0,3.2,0.0,4.16,0.0,4.68,0.0,0.01
1523826162.62004089,28108336,0.0,3.2,0.0,4.16,0.0,4.67,0.0,0.01
1523826162.65993381,28148229,0.0,3.2,0.0,4.17,0.0,4.66,0.0,0.01
1523826162.69982100,28188116,0.0,3.19,0.0,4.17,0.0,4.65,0.0,0.01
1523826162.73987889,28228174,0.0,3.19,0.0,4.17,0.0,4.64,0.0,0.02
1523826162.77992082,28268216,0.0,3.19,0.0,4.17,0.0,4.62,0.0,0.02
1523826162.82017493,28308470,0.0,3.19,0.0,4.17,0.0,4.61,0.0,0.02
1523826162.85981488,28348110,0.0,3.19,0.0,4.17,0.0,4.59,0.0,0.02
1523826162.89985800,28388153,0.0,3.18,0.0,4.17,0.0,4.58,0.0,0.02
1523826162.93980789,28428103,0.0,3.18,0.0,4.17,0.0,4.57,0.0,0.02
1523826162.98023200,28468527,0.0,3.18,0.0,4.17,0.0,4.56,0.0,0.02
1523826163.02061796,28508913,0.0,3.18,0.0,4.17,0.0,4.56,0.0,0.02
1523826163.05993986,28548235,0.0,3.18,0.0,4.17,0.0,4.54,0.0,0.02
1523826163.09969497,28587990,0.0,3.17,0.0,4.17,0.0,4.53,0.0,0.02
1523826163.13994598,28628241,0.0,3.17,0.0,4.17,0.0,4.52,0.0,0.03
1523826163.18002391,28668319,0.0,3.17,0.0,4.17,0.0,4.5,0.0,0.03
1523826163.22001481,28708310,0.0,3.17,0.0,4.18,0.0,4.49,0.0,0.03
1523826163.25979185,28748087,0.0,3.16,0.0,4.18,0.0,4.47,0.0,0.03
1523826163.29972482,28788020,0.0,3.16,0.0,4.18,0.0,4.45,0.0,0.03
1523826163.33984303,28828138,0.0,3.16,0.0,4.18,0.0,4.44,0.0,0.03
1523826163.37995386,28868249,0.0,3.15,0.0,4.18,0.0,4.43,0.0,0.03
1523826163.41986895,28908164,0.0,3.15,0.0,4.18,0.0,4.41,0.0,0.03
1523826163.46002698,28948322,0.0,3.15,0.0,4.18,0.0,4.4,0.0,0.03
1523826163.49987483,28988170,0.0,3.15,0.0,4.18,0.0,4.39,0.0,0.03
1523826163.54006886,29028364,0.0,3.14,0.0,4.18,0.0,4.38,0.0,0.03
1523826163.58024192,29068537,0.0,3.14,0.0,4.18,0.0,4.37,0.0,0.03
1523826163.62002182,29108317,0.0,3.14,0.0,4.18,0.0,4.35,0.0,0.03
1523826163.65992594,29148221,0.0,3.14,0.0,4.18,0.0,4.34,0.0,0.03
1523826163.70004487,29188340,0.0,3.14,0.0,4.19,0.0,4.33,0.0,0.03
1523826163.73982501,29228120,0.0,3.13,0.0,4.19,0.0,4.32,0.0,0.03
1523826163.78026581,29268561,0.0,3.13,0.0,4.19,0.0,4.31,0.0,0.03
1523826163.82008600,29308381,0.0,3.13,0.0,4.19,0.0,4.3,0.0,0.03
1523826163.85988283,29348178,0.0,3.13,0.0,4.19,0.0,4.29,0.0,0.02
1523826163.89980793,29388103,0.0,3.12,0.0,4.19,0.0,4.29,0.0,0.02
1523826163.93992186,29428217,0.0,3.12,0.0,4.19,0.0,4.28,0.0,0.02
1523826163.97993684,29468232,0.0,3.12,0.0,4.19,0.0,4.28,0.0,0.02
1523826164.02077198,29509067,0.0,3.12,0.0,4.19,0.0,4.27,0.0,0.02
1523826164.05990481,29548200,0.0,3.12,0.0,4.19,0.0,4.27,0.0,0.02
1523826164.09987903,29588174,0.0,3.12,0.0,4.2,0.0,4.27,0.0,0.02
1523826164.13967085,29627966,0.0,3.12,0.0,4.2,0.0,4.27,0.0,0.02
1523826164.18013382,29668429,0.0,3.12,0.0,4.2,0.0,4.26,0.0,0.02
1523826164.22015381,29708449,0.0,3.11,0.0,4.2,0.0,4.26,0.0,0.02
1523826164.25986385,29748159,0.0,3.11,0.0,4.2,0.0,4.26,0.0,0.01
1523826164.29964995,29787945,0.0,3.12,0.0,4.2,0.0,4.26,0.0,0.01
1523826164.33980703,29828102,0.0,3.12,0.0,4.2,0.0,4.26,0.0,0.01
1523826164.38024783,29868543,0.0,3.11,0.0,4.2,0.0,4.26,0.0,0.01
1523826164.42020583,29908501,0.0,3.11,0.0,4.2,0.0,4.26,0.0,0.01
1523826164.45972180,29948017,0.0,3.11,0.0,4.2,0.0,4.25,0.0,0.01
1523826164.50014591,29988441,0.0,3.11,0.0,4.2,0.0,4.25,0.0,0.01
1523826164.54019189,30028487,0.0,3.11,0.0,4.2,0.0,4.24,0.0,0.01
1523826164.57997394,30068269,0.0,3.11,0.0,4.2,0.0,4.23,0.0,0.01
1523826164.62024188,30108537,0.0,3.1,0.0,4.2,0.0,4.23,0.0,0.01
1523826164.65974689,30148042,0.0,3.1,0.0,4.21,0.0,4.21,0.0,0.02
1523826164.69984484,30188140,0.0,3.1,0.0,4.21,0.0,4.2,0.0,0.02
1523826164.74015999,30228455,0.0,3.1,0.0,4.21,0.0,4.18,0.0,0.02
1523826164.78003883,30268334,0.0,3.1,0.0,4.21,0.0,4.16,0.0,0.02
1523826164.82015181,30308447,0.0,3.09,0.0,4.21,0.0,4.15,0.0,0.02
1523826164.85994387,30348239,0.0,3.09,0.0,4.21,0.0,4.14,0.0,0.02
1523826164.89988685,30388182,0.0,3.09,0.0,4.21,0.0,4.13,0.0,0.02
1523826164.93985987,30428155,0.0,3.09,0.0,4.21,0.0,4.11,0.0,0.02
1523826164.97982502,30468120,0.0,3.09,0.0,4.21,0.0,4.1,0.0,0.02
1523826165.02078891,30509084,0.0,3.09,0.0,4.21,0.0,4.09,0.0,0.02
1523826165.06016684,30548462,0.0,3.08,0.0,4.22,0.0,4.08,0.0,0.02
1523826165.09973884,30588034,0.0,3.08,0.0,4.22,0.0,4.07,0.0,0.02
1523826165.13977790,30628073,0.0,3.08,0.0,4.22,0.0,4.06,0.0,0.03
1523826165.17981887,30668114,0.0,3.08,0.0,4.22,0.0,4.05,0.0,0.03
1523826165.22025394,30708549,0.0,3.08,0.0,4.22,0.0,4.03,0.0,0.03
1523826165.25997281,30748268,0.0,3.07,0.0,4.22,0.0,4.02,0.0,0.02
1523826165.29980993,30788105,0.0,3.07,0.0,4.22,0.0,4.01,0.0,0.02
1523826165.33991981,30828215,0.0,3.07,0.0,4.22,0.0,4.0,0.0,0.02
1523826165.38015795,30868453,0.0,3.07,0.0,4.22,0.0,4.0,0.0,0.02
1523826165.42003202,30908327,0.0,3.07,0.0,4.22,0.0,3.99,0.0,0.02
1523826165.45990396,30948199,0.0,3.07,0.0,4.22,0.0,3.98,0.0,0.02
1523826165.49996090,30988256,0.0,3.07,0.0,4.23,0.0,3.97,0.0,0.02
1523826165.53997183,31028267,0.0,3.07,0.0,4.23,0.0,3.96,0.0,0.02
1523826165.58010602,31068401,0.0,3.06,0.0,4.23,0.0,3.95,0.0,0.02
1523826165.62005401,31108349,0.0,3.06,0.0,4.23,0.0,3.93,0.0,0.02
1523826165.66002393,31148319,0.0,3.06,0.0,4.23,0.0,3.91,0.0,0.03
1523826165.69999504,31188290,0.0,3.06,0.0,4.23,0.0,3.9,0.0,0.03
1523826165.73992181,31228217,0.0,3.06,0.0,4.23,0.0,3.88,0.0,0.03
1523826165.78009892,31268394,0.0,3.06,0.0,4.23,0.0,3.86,0.0,0.03
1523826165.82000995,31308305,0.0,3.05,0.0,4.23,0.0,3.84,0.0,0.03
1523826165.85970497,31348000,0.0,3.05,0.0,4.23,0.0,3.83,0.0,0.03
1523826165.89984584,31388141,0.0,3.05,0.0,4.23,0.0,3.81,0.0,0.03
1523826165.93983889,31428134,0.0,3.05,0.0,4.23,0.0,3.8,0.0,0.03
1523826165.97999692,31468292,0.0,3.05,0.0,4.23,0.0,3.78,0.0,0.03
1523826166.02086186,31509157,0.0,3.05,0.0,4.23,0.0,3.76,0.0,0.03
1523826166.05977488,31548070,0.0,3.05,0.0,4.23,0.0,3.75,0.0,0.03
1523826166.09971786,31588013,0.0,3.05,0.0,4.23,0.0,3.74,0.0,0.03
1523826166.13990903,31628204,0.0,3.05,0.0,4.23,0.0,3.73,0.0,0.03
1523826166.17995286,31668248,0.0,3.05,0.0,4.23,0.0,3.72,0.0,0.03
1523826166.22009492,31708390,0.0,3.04,0.0,4.23,0.0,3.71,0.0,0.03
1523826166.26003790,31748333,0.0,3.04,0.0,4.23,0.0,3.7,0.0,0.02
1523826166.29992580,31788221,0.0,3.04,0.0,4.23,0.0,3.7,0.0,0.02
1523826166.34010983,31828405,0.0,3.04,0.0,4.23,0.0,3.7,0.0,0.02
1523826166.38004184,31868337,0.0,3.05,0.0,4.23,0.0,3.7,0.0,0.02
1523826166.42010403,31908399,0.0,3.05,0.0,4.23,0.0,3.69,0.0,0.02
1523826166.45984101,31948136,0.0,3.05,0.0,4.23,0.0,3.69,0.0,0.01
1523826166.49980497,31988100,0.0,3.04,0.0,4.23,0.0,3.69,0.0,0.01
1523826166.54001188,32028307,0.0,3.04,0.0,4.23,0.0,3.69,0.0,0.01
1523826166.58027101,32068566,0.0,3.04,0.0,4.23,0.0,3.69,0.0,0.01
1523826166.61999297,32108288,0.0,3.05,0.0,4.23,0.0,3.69,0.0,0.01
1523826166.65992498,32148220,0.0,3.04,0.0,4.23,0.0,3.68,0.0,0.01
1523826166.69986081,32188156,0.0,3.04,0.0,4.23,0.0,3.67,0.0,0.01
1523826166.73984885,32228144,0.0,3.04,0.0,4.23,0.0,3.66,0.0,0.02
1523826166.77998590,32268281,0.0,3.04,0.0,4.23,0.0,3.64,0.0,0.02
1523826166.82012582,32308421,0.0,3.04,0.0,4.23,0.0,3.63,0.0,0.02
1523826166.85982490,32348120,0.0,3.04,0.0,4.23,0.0,3.62,0.0,0.02
1523826166.89990497,32388200,0.0,3.04,0.0,4.23,0.0,3.61,0.0,0.02
1523826166.94007087,32428366,0.0,3.04,0.0,4.23,0.0,3.6,0.0,0.02
1523826166.98015690,32468452,0.0,3.04,0.0,4.23,0.0,3.6,0.0,0.02
1523826167.02048302,32508778,0.0,3.04,0.0,4.23,0.0,3.59,0.0,0.02
1523826167.05991888,32548214,0.0,3.04,0.0,4.23,0.0,3.58,0.0,0.02
1523826167.09983087,32588126,0.0,3.04,0.0,4.24,0.0,3.57,0.0,0.02
1523826167.13981199,32628107,0.0,3.04,0.0,4.24,0.0,3.56,0.0,0.02
1523826167.17987895,32668174,0.0,3.04,0.0,4.24,0.0,3.55,0.0,0.02
1523826167.22002888,32708324,0.0,3.03,0.0,4.23,0.0,3.54,0.0,0.02
1523826167.25957704,32747872,0.0,3.03,0.0,4.23,0.0,3.53,0.0,0.02
1523826167.29985595,32788151,0.0,3.03,0.0,4.23,0.0,3.53,0.0,0.02
1523826167.33963299,32827928,0.0,3.03,0.0,4.23,0.0,3.52,0.0,0.01
1523826167.38014984,32868445,0.0,3.03,0.0,4.23,0.0,3.52,0.0,0.01
1523826167.42005301,32908348,0.0,3.03,0.0,4.23,0.0,3.52,0.0,0.01
1523826167.45997381,32948269,0.0,3.03,0.0,4.23,0.0,3.52,0.0,0.01
1523826167.49982381,32988119,0.0,3.03,0.0,4.23,0.0,3.51,0.0,0.01
1523826167.54007602,33028371,0.0,3.03,0.0,4.23,0.0,3.51,0.0,0.01
1523826167.58007383,33068369,0.0,3.03,0.0,4.23,0.0,3.51,0.0,0.01
1523826167.62027597,33108571,0.0,3.03,0.0,4.23,0.0,3.5,0.0,0.01
1523826167.65989184,33148187,0.0,3.03,0.0,4.23,0.0,3.5,0.0,0.01
1523826167.70005989,33188355,0.0,3.03,0.0,4.24,0.0,3.5,0.0,0.01
1523826167.73987889,33228174,0.0,3.03,0.0,4.24,0.0,3.5,0.0,0.0
1523826167.77982497,33268120,0.0,3.03,0.0,4.24,0.0,3.5,0.0,0.0
1523826167.82027483,33308570,0.0,3.03,0.0,4.24,0.0,3.5,0.0,0.0
1523826167.85969186,33347987,0.0,3.03,0.0,4.24,0.0,3.5,0.0,0.0
1523826167.89980984,33388105,0.0,3.03,0.0,4.24,0.0,3.51,0.0,0.0
1523826167.93994284,33428238,0.0,3.03,0.0,4.24,0.0,3.51,0.0,0.0
1523826167.97983289,33468128,0.0,3.03,0.0,4.24,0.0,3.5,0.0,0.0
1523826168.02055383,33508849,0.0,3.03,0.0,4.24,0.0,3.5,0.0,0.0
1523826168.05975699,33548052,0.0,3.03,0.0,4.24,0.0,3.49,0.0,0.0
1523826168.09999394,33588289,0.0,3.03,0.0,4.24,0.0,3.49,0.0,0.0
1523826168.13996387,33628259,0.0,3.03,0.0,4.24,0.0,3.48,0.0,0.01
1523826168.17984080,33668136,0.0,3.03,0.0,4.24,0.0,3.48,0.0,0.01
1523826168.22002387,33708319,0.0,3.03,0.0,4.24,0.0,3.47,0.0,0.01
1523826168.25998497,33748280,0.0,3.03,0.0,4.24,0.0,3.47,0.0,0.0
1523826168.29982686,33788122,0.0,3.03,0.0,4.24,0.0,3.46,0.0,0.0
1523826168.33971500,33828010,0.0,3.03,0.0,4.24,0.0,3.46,0.0,0.01
1523826168.38001895,33868314,0.0,3.03,0.0,4.24,0.0,3.46,0.0,0.01
1523826168.42060184,33908897,0.0,3.03,0.0,4.24,0.0,3.45,0.0,0.01
1523826168.45995402,33948249,0.0,3.03,0.0,4.24,0.0,3.45,0.0,0.0
1523826168.49978399,33988079,0.0,3.03,0.0,4.24,0.0,3.44,0.0,0.0
1523826168.54013395,34028429,0.0,3.03,0.0,4.24,0.0,3.44,0.0,0.0
1523826168.58021903,34068514,0.0,3.03,0.0,4.24,0.0,3.44,0.0,0.0
1523826168.62049294,34108788,0.0,3.03,0.0,4.24,0.0,3.44,0.0,0.0
1523826168.65966392,34147959,0.0,3.03,0.0,4.24,0.0,3.44,0.0,0.0
1523826168.69962001,34187915,0.0,3.03,0.0,4.24,0.0,3.43,0.0,0.0
1523826168.74002600,34228321,0.0,3.03,0.0,4.24,0.0,3.43,0.0,0.01
1523826168.77988791,34268183,0.0,3.03,0.0,4.24,0.0,3.42,0.0,0.01
1523826168.82005501,34308350,0.0,3.03,0.0,4.24,0.0,3.41,0.0,0.01
1523826168.85975599,34348051,0.0,3.03,0.0,4.24,0.0,3.41,0.0,0.01
1523826168.90003300,34388328,0.0,3.03,0.0,4.24,0.0,3.4,0.0,0.01
1523826168.93983698,34428132,0.0,3.03,0.0,4.24,0.0,3.39,0.0,0.01
1523826168.97999382,34468289,0.0,3.03,0.0,4.24,0.0,3.39,0.0,0.01
1523826169.02050781,34508803,0.0,3.03,0.0,4.24,0.0,3.38,0.0,0.01
1523826169.05988193,34548177,0.0,3.03,0.0,4.24,0.0,3.38,0.0,0.01
1523826169.09986401,34588159,0.0,3.03,0.0,4.24,0.0,3.38,0.0,0.01
1523826169.13990402,34628199,0.0,3.03,0.0,4.24,0.0,3.39,0.0,0.01
1523826169.17998004,34668275,0.0,3.03,0.0,4.24,0.0,3.38,0.0,0.01
1523826169.22034287,34708638,0.0,3.03,0.0,4.24,0.0,3.38,0.0,0.01
1523826169.25983191,34748127,0.0,3.03,0.0,4.24,0.0,3.37,0.0,0.0
1523826169.29969597,34787991,0.0,3.02,0.0,4.24,0.0,3.37,0.0,0.0
1523826169.34014893,34828444,0.0,3.02,0.0,4.24,0.0,3.37,0.0,0.01
1523826169.38001299,34868308,0.0,3.03,0.0,4.24,0.0,3.38,0.0,0.01
1523826169.42006993,34908365,0.0,3.03,0.0,4.24,0.0,3.39,0.0,0.01
1523826169.45996881,34948264,0.0,3.03,0.0,4.24,0.0,3.39,0.0,0.01
1523826169.50015688,34988452,0.0,3.03,0.0,4.24,0.0,3.39,0.0,0.01
1523826169.54002500,35028320,0.0,3.03,0.0,4.24,0.0,3.4,0.0,0.01
1523826169.58007693,35068372,0.0,3.03,0.0,4.24,0.0,3.4,0.0,0.01
1523826169.61983204,35108127,0.0,3.03,0.0,4.24,0.0,3.41,0.0,0.01
1523826169.65989494,35148190,0.0,3.03,0.0,4.24,0.0,3.41,0.0,0.01
1523826169.69967699,35187972,0.0,3.03,0.0,4.24,0.0,3.41,0.0,0.01
1523826169.73991895,35228214,0.0,3.03,0.0,4.24,0.0,3.41,0.0,0.01
1523826169.77999687,35268292,0.0,3.03,0.0,4.24,0.0,3.41,0.0,0.01
1523826169.81988692,35308182,0.0,3.03,0.0,4.24,0.0,3.4,0.0,0.01
1523826169.85993695,35348232,0.0,3.03,0.0,4.24,0.0,3.39,0.0,0.01
1523826169.89971495,35388010,0.0,3.03,0.0,4.24,0.0,3.39,0.0,0.01
1523826169.93987489,35428170,0.0,3.03,0.0,4.24,0.0,3.38,0.0,0.01
1523826169.97999382,35468289,0.0,3.03,0.0,4.24,0.0,3.38,0.0,0.01
1523826170.02069688,35508992,0.0,3.03,0.0,4.24,0.0,3.37,0.0,0.01
1523826170.05996299,35548258,0.0,3.03,0.0,4.24,0.0,3.37,0.0,0.01
1523826170.09976387,35588059,0.0,3.03,0.0,4.24,0.0,3.36,0.0,0.01
1523826170.13977289,35628068,0.0,3.03,0.0,4.24,0.0,3.35,0.0,0.01
1523826170.18009591,35668391,0.0,3.03,0.0,4.24,0.0,3.35,0.0,0.01
1523826170.22001791,35708313,0.0,3.03,0.0,4.24,0.0,3.36,0.0,0.01
1523826170.25979686,35748092,0.0,3.02,0.0,4.24,0.0,3.35,0.0,0.01
1523826170.29977298,35788068,0.0,3.02,0.0,4.24,0.0,3.35,0.0,0.01
1523826170.33972502,35828020,0.0,3.02,0.0,4.24,0.0,3.35,0.0,0.01
1523826170.38019991,35868495,0.0,3.02,0.0,4.24,0.0,3.34,0.0,0.01
1523826170.42019391,35908489,0.0,3.02,0.0,4.24,0.0,3.33,0.0,0.01
1523826170.45971394,35948009,0.0,3.02,0.0,4.24,0.0,3.33,0.0,0.01
1523826170.50024199,35988537,0.0,3.02,0.0,4.24,0.0,3.32,0.0,0.01
1523826170.53999090,36028286,0.0,3.02,0.0,4.24,0.0,3.32,0.0,0.01
1523826170.57998991,36068285,0.0,3.02,0.0,4.24,0.0,3.32,0.0,0.01
1523826170.62009382,36108389,0.0,3.02,0.0,4.24,0.0,3.31,0.0,0.01
1523826170.65980291,36148098,0.0,3.02,0.0,4.24,0.0,3.31,0.0,0.0
1523826170.69976091,36188056,0.0,3.02,0.0,4.24,0.0,3.3,0.0,0.0
1523826170.73969388,36227989,0.0,3.02,0.0,4.24,0.0,3.3,0.0,0.0
1523826170.77999401,36268289,0.0,3.02,0.0,4.24,0.0,3.3,0.0,0.0
1523826170.82036185,36308657,0.0,3.02,0.0,4.24,0.0,3.29,0.0,0.0
1523826170.85969591,36347991,0.0,3.02,0.0,4.24,0.0,3.29,0.0,0.0
1523826170.89987302,36388168,0.0,3.02,0.0,4.24,0.0,3.28,0.0,0.0
1523826170.93996882,36428264,0.0,3.02,0.0,4.24,0.0,3.28,0.0,0.0
1523826170.98001194,36468307,0.0,3.02,0.0,4.24,0.0,3.27,0.0,0.0
1523826171.02075887,36509054,0.0,3.02,0.0,4.24,0.0,3.27,0.0,0.0
1523826171.06001687,36548312,0.0,3.02,0.0,4.24,0.0,3.26,0.0,0.0
1523826171.09969902,36587994,0.0,3.02,0.0,4.24,0.0,3.27,0.0,0.0
1523826171.14011288,36628408,0.0,3.02,0.0,4.24,0.0,3.27,0.0,0.01
1523826171.18008184,36668377,0.0,3.02,0.0,4.24,0.0,3.27,0.0,0.01
1523826171.22002602,36708321,0.0,3.02,0.0,4.23,0.0,3.28,0.0,0.01
1523826171.25982690,36748122,0.0,3.02,0.0,4.23,0.0,3.28,0.0,0.01
1523826171.29989386,36788189,0.0,3.03,0.0,4.23,0.0,3.28,0.0,0.01
1523826171.33993602,36828231,0.0,3.03,0.0,4.23,0.0,3.29,0.0,0.01
1523826171.37983799,36868133,0.0,3.03,0.0,4.23,0.0,3.29,0.0,0.01
1523826171.41998696,36908282,0.0,3.03,0.0,4.23,0.0,3.3,0.0,0.01
1523826171.45993996,36948235,0.0,3.03,0.0,4.23,0.0,3.3,0.0,0.0
1523826171.50007486,36988370,0.0,3.03,0.0,4.23,0.0,3.3,0.0,0.0
1523826171.53999281,37028288,0.0,3.03,0.0,4.23,0.0,3.29,0.0,0.01
1523826171.57999802,37068293,0.0,3.03,0.0,4.23,0.0,3.29,0.0,0.01
1523826171.61996102,37108256,0.0,3.03,0.0,4.23,0.0,3.28,0.0,0.01
1523826171.65965080,37147946,0.0,3.03,0.0,4.23,0.0,3.27,0.0,0.0
1523826171.69975495,37188050,0.0,3.03,0.0,4.23,0.0,3.27,0.0,0.0
1523826171.73985481,37228150,0.0,3.03,0.0,4.23,0.0,3.27,0.0,0.0
1523826171.78017402,37268469,0.0,3.03,0.0,4.23,0.0,3.27,0.0,0.0
1523826171.82007790,37308373,0.0,3.03,0.0,4.23,0.0,3.27,0.0,0.0
1523826171.85970497,37348000,0.0,3.03,0.0,4.23,0.0,3.27,0.0,0.0
1523826171.89988399,37388179,0.0,3.03,0.0,4.23,0.0,3.27,0.0,0.0
1523826171.93996787,37428263,0.0,3.03,0.0,4.23,0.0,3.27,0.0,0.0
1523826171.97998786,37468283,0.0,3.03,0.0,4.23,0.0,3.27,0.0,0.0
1523826172.02064991,37508945,0.0,3.03,0.0,4.23,0.0,3.27,0.0,0.0
1523826172.06006789,37548363,0.0,3.03,0.0,4.23,0.0,3.27,0.0,0.0
1523826172.10000491,37588300,0.0,3.03,0.0,4.23,0.0,3.26,0.0,0.0
1523826172.13985300,37628148,0.0,3.03,0.0,4.23,0.0,3.26,0.0,0.0
1523826172.18004203,37668337,0.0,3.03,0.0,4.23,0.0,3.25,0.0,0.0
1523826172.22002482,37708320,0.0,3.03,0.0,4.23,0.0,3.25,0.0,0.0
1523826172.25968003,37747975,0.0,3.03,0.0,4.23,0.0,3.25,0.0,0.0
1523826172.29987383,37788169,0.0,3.04,0.0,4.23,0.0,3.25,0.0,0.0
1523826172.33977604,37828071,0.0,3.04,0.0,4.23,0.0,3.26,0.0,0.0
1523826172.37992883,37868224,0.0,3.04,0.0,4.23,0.0,3.26,0.0,0.0
1523826172.42026091,37908556,0.0,3.04,0.0,4.23,0.0,3.27,0.0,0.0
1523826172.45979691,37948092,0.0,3.04,0.0,4.23,0.0,3.27,0.0,0.0
1523826172.49980092,37988096,0.0,3.04,0.0,4.23,0.0,3.26,0.0,0.0
1523826172.54013491,38028430,0.0,3.04,0.0,4.23,0.0,3.26,0.0,0.0
1523826172.57976198,38068057,0.0,3.04,0.0,4.23,0.0,3.25,0.0,0.0
1523826172.61997581,38108271,0.0,3.04,0.0,4.23,0.0,3.24,0.0,0.0
1523826172.65971184,38148007,0.0,3.04,0.0,4.23,0.0,3.23,0.0,0.0
1523826172.70001483,38188310,0.0,3.04,0.0,4.23,0.0,3.23,0.0,0.0
1523826172.73996592,38228261,0.0,3.04,0.0,4.23,0.0,3.23,0.0,0.01
1523826172.77986383,38268159,0.0,3.04,0.0,4.23,0.0,3.22,0.0,0.01
1523826172.82032895,38308624,0.0,3.04,0.0,4.23,0.0,3.2,0.0,0.01
1523826172.85990787,38348203,0.0,3.04,0.0,4.23,0.0,3.2,0.0,0.01
1523826172.89991689,38388212,0.0,3.04,0.0,4.23,0.0,3.19,0.0,0.01
1523826172.93986702,38428162,0.0,3.04,0.0,4.23,0.0,3.19,0.0,0.0
1523826172.97985983,38468155,0.0,3.04,0.0,4.23,0.0,3.18,0.0,0.0
1523826173.02069187,38508987,0.0,3.04,0.0,4.22,0.0,3.18,0.0,0.0
1523826173.06016493,38548460,0.0,3.04,0.0,4.23,0.0,3.18,0.0,0.0
1523826173.09991384,38588209,0.0,3.04,0.0,4.22,0.0,3.18,0.0,0.0
1523826173.13990498,38628200,0.0,3.04,0.0,4.22,0.0,3.18,0.0,0.0
1523826173.17993593,38668231,0.0,3.04,0.0,4.22,0.0,3.18,0.0,0.0
1523826173.22015285,38708448,0.0,3.04,0.0,4.22,0.0,3.18,0.0,0.0
1523826173.25982189,38748117,0.0,3.04,0.0,4.22,0.0,3.17,0.0,0.0
1523826173.29992294,38788218,0.0,3.04,0.0,4.22,0.0,3.17,0.0,0.0
1523826173.33971000,38828005,0.0,3.04,0.0,4.22,0.0,3.17,0.0,0.0
1523826173.38013887,38868434,0.0,3.04,0.0,4.22,0.0,3.16,0.0,0.0
1523826173.42002392,38908319,0.0,3.04,0.0,4.22,0.0,3.15,0.0,0.0
1523826173.45998693,38948282,0.0,3.03,0.0,4.23,0.0,3.15,0.0,0.0
1523826173.50001383,38988309,0.0,3.03,0.0,4.22,0.0,3.15,0.0,0.0
1523826173.54004288,39028338,0.0,3.04,0.0,4.22,0.0,3.15,0.0,0.0
1523826173.57988095,39068176,0.0,3.03,0.0,4.22,0.0,3.15,0.0,0.0
1523826173.62015200,39108447,0.0,3.04,0.0,4.22,0.0,3.16,0.0,0.0
1523826173.65975690,39148052,0.0,3.04,0.0,4.22,0.0,3.16,0.0,0.0
1523826173.70005798,39188353,0.0,3.04,0.0,4.22,0.0,3.16,0.0,0.0
1523826173.74006987,39228365,0.0,3.04,0.0,4.22,0.0,3.16,0.0,0.0
1523826173.78003287,39268328,0.0,3.04,0.0,4.22,0.0,3.17,0.0,0.0
1523826173.82046700,39308762,0.0,3.04,0.0,4.22,0.0,3.17,0.0,0.0
1523826173.85966301,39347958,0.0,3.04,0.0,4.22,0.0,3.17,0.0,0.0
1523826173.89983702,39388132,0.0,3.04,0.0,4.22,0.0,3.17,0.0,0.0
1523826173.93989182,39428187,0.0,3.04,0.0,4.22,0.0,3.17,0.0,0.01
1523826173.97994590,39468241,0.0,3.04,0.0,4.22,0.0,3.18,0.0,0.01
1523826174.02084994,39509145,0.0,3.04,0.0,4.22,0.0,3.19,0.0,0.01
1523826174.06001186,39548307,0.0,3.04,0.0,4.22,0.0,3.19,0.0,0.01
1523826174.09996796,39588263,0.0,3.04,0.0,4.22,0.0,3.19,0.0,0.01
1523826174.13981700,39628112,0.0,3.04,0.0,4.22,0.0,3.19,0.0,0.01
1523826174.18004990,39668345,0.0,3.04,0.0,4.22,0.0,3.19,0.0,0.01
1523826174.21997690,39708272,0.0,3.04,0.0,4.22,0.0,3.2,0.0,0.01
1523826174.25977087,39748066,0.0,3.04,0.0,4.22,0.0,3.2,0.0,0.0
1523826174.29981995,39788115,0.0,3.04,0.0,4.22,0.0,3.2,0.0,0.0
1523826174.33999991,39828295,0.0,3.04,0.0,4.22,0.0,3.2,0.0,0.0
1523826174.37988091,39868176,0.0,3.04,0.0,4.22,0.0,3.19,0.0,0.0
1523826174.42000794,39908303,0.0,3.04,0.0,4.22,0.0,3.19,0.0,0.0
1523826174.45984983,39948145,0.0,3.04,0.0,4.22,0.0,3.19,0.0,0.0
1523826174.50029588,39988591,0.0,3.04,0.0,4.22,0.0,3.19,0.0,0.0
1523826174.54011393,40028409,0.0,3.04,0.0,4.22,0.0,3.19,0.0,0.0
1523826174.57998180,40068277,0.0,3.03,0.0,4.22,0.0,3.18,0.0,0.0
1523826174.62026787,40108563,0.0,3.03,0.0,4.22,0.0,3.17,0.0,0.0
1523826174.66001487,40148310,0.0,3.03,0.0,4.22,0.0,3.17,0.0,0.0
1523826174.69970798,40188003,0.0,3.03,0.0,4.22,0.0,3.16,0.0,0.0
1523826174.74005103,40228346,0.0,3.03,0.0,4.22,0.0,3.16,0.0,0.0
1523826174.77994084,40268236,0.0,3.03,0.0,4.22,0.0,3.15,0.0,0.0
1523826174.82008290,40308378,0.0,3.03,0.0,4.22,0.0,3.15,0.0,0.0
1523826174.86008787,40348383,0.0,3.03,0.0,4.22,0.0,3.14,0.0,0.0
1523826174.89968300,40387978,0.0,3.03,0.0,4.22,0.0,3.14,0.0,0.0
1523826174.93969893,40427994,0.0,3.03,0.0,4.22,0.0,3.14,0.0,0.0
1523826174.98021889,40468514,0.0,3.03,0.0,4.22,0.0,3.13,0.0,0.0
1523826175.02094984,40509245,0.0,3.03,0.0,4.22,0.0,3.13,0.0,0.0
1523826175.05976391,40548059,0.0,3.02,0.0,4.22,0.0,3.12,0.0,0.0
1523826175.09969497,40587990,0.0,3.02,0.0,4.22,0.0,3.11,0.0,0.0
1523826175.13987684,40628172,0.0,3.02,0.0,4.23,0.0,3.1,0.0,0.01
1523826175.17989397,40668189,0.0,3.02,0.0,4.23,0.0,3.09,0.0,0.01
1523826175.22007489,40708370,0.0,3.02,0.0,4.23,0.0,3.08,0.0,0.01
1523826175.25967789,40747973,0.0,3.02,0.0,4.23,0.0,3.07,0.0,0.01
1523826175.30002594,40788321,0.0,3.02,0.0,4.23,0.0,3.07,0.0,0.01
1523826175.33974600,40828041,0.0,3.02,0.0,4.23,0.0,3.06,0.0,0.01
1523826175.37998295,40868278,0.0,3.02,0.0,4.23,0.0,3.05,0.0,0.01
1523826175.42001796,40908313,0.0,3.01,0.0,4.23,0.0,3.03,0.0,0.01
1523826175.45976901,40948064,0.0,3.01,0.0,4.23,0.0,3.03,0.0,0.01
1523826175.49989295,40988188,0.0,3.01,0.0,4.23,0.0,3.02,0.0,0.01
1523826175.54003596,41028331,0.0,3.01,0.0,4.23,0.0,3.02,0.0,0.01
1523826175.57995796,41068253,0.0,3.01,0.0,4.23,0.0,3.0,0.0,0.01
1523826175.62024784,41108543,0.0,3.01,0.0,4.23,0.0,2.99,0.0,0.01
1523826175.65983391,41148129,0.0,3.01,0.0,4.22,0.0,2.99,0.0,0.01
1523826175.69983983,41188135,0.0,3.01,0.0,4.22,0.0,2.99,0.0,0.01
1523826175.73992801,41228223,0.0,3.02,0.0,4.22,0.0,2.99,0.0,0.01
1523826175.77993584,41268231,0.0,3.02,0.0,4.22,0.0,3.0,0.0,0.01
1523826175.82006192,41308357,0.0,3.02,0.0,4.22,0.0,3.0,0.0,0.01
1523826175.85992098,41348216,0.0,3.02,0.0,4.22,0.0,3.0,0.0,0.01
1523826175.90000391,41388299,0.0,3.02,0.0,4.22,0.0,3.0,0.0,0.01
1523826175.94008493,41428380,0.0,3.02,0.0,4.22,0.0,3.0,0.0,0.0
1523826175.97996593,41468261,0.0,3.02,0.0,4.22,0.0,3.0,0.0,0.0
1523826176.02086997,41509165,0.0,3.02,0.0,4.22,0.0,3.0,0.0,0.0
1523826176.06004500,41548340,0.0,3.02,0.0,4.22,0.0,3.0,0.0,0.01
1523826176.09995103,41588246,0.0,3.02,0.0,4.22,0.0,3.0,0.0,0.01
1523826176.13997698,41628272,0.0,3.02,0.0,4.22,0.0,3.01,0.0,0.0
1523826176.17996001,41668255,0.0,3.02,0.0,4.21,0.0,3.01,0.0,0.0
1523826176.21996284,41708258,0.0,3.02,0.0,4.21,0.0,3.01,0.0,0.0
1523826176.25997782,41748273,0.0,3.02,0.0,4.21,0.0,3.01,0.0,0.01
1523826176.29964495,41787940,0.0,3.02,0.0,4.21,0.0,3.01,0.0,0.01
1523826176.34016299,41828458,0.0,3.02,0.0,4.21,0.0,3.02,0.0,0.01
1523826176.38000393,41868299,0.0,3.02,0.0,4.21,0.0,3.01,0.0,0.01
1523826176.42029786,41908593,0.0,3.02,0.0,4.21,0.0,3.0,0.0,0.01
1523826176.45964789,41947943,0.0,3.02,0.0,4.21,0.0,3.0,0.0,0.0
1523826176.49980497,41988100,0.0,3.02,0.0,4.21,0.0,3.0,0.0,0.0
1523826176.54000092,42028296,0.0,3.02,0.0,4.21,0.0,3.0,0.0,0.01
1523826176.58026290,42068558,0.0,3.03,0.0,4.21,0.0,3.0,0.0,0.01
1523826176.62020898,42108504,0.0,3.03,0.0,4.21,0.0,3.01,0.0,0.01
1523826176.65990400,42148199,0.0,3.03,0.0,4.21,0.0,3.01,0.0,0.01
1523826176.70003796,42188333,0.0,3.03,0.0,4.21,0.0,3.01,0.0,0.01
1523826176.73993683,42228232,0.0,3.03,0.0,4.2,0.0,3.01,0.0,0.01
1523826176.78004503,42268340,0.0,3.03,0.0,4.2,0.0,3.02,0.0,0.01
1523826176.82003498,42308330,0.0,3.03,0.0,4.2,0.0,3.02,0.0,0.01
1523826176.85988188,42348177,0.0,3.03,0.0,4.2,0.0,3.02,0.0,0.01
1523826176.90021586,42388511,0.0,3.03,0.0,4.2,0.0,3.03,0.0,0.01
1523826176.93996286,42428258,0.0,3.03,0.0,4.2,0.0,3.04,0.0,0.01
1523826176.97997999,42468275,0.0,3.04,0.0,4.2,0.0,3.04,0.0,0.01
1523826177.02056694,42508862,0.0,3.04,0.0,4.2,0.0,3.04,0.0,0.01
1523826177.06006885,42548364,0.0,3.04,0.0,4.2,0.0,3.05,0.0,0.01
1523826177.09965301,42587948,0.0,3.04,0.0,4.2,0.0,3.05,0.0,0.01
1523826177.13970494,42628000,0.0,3.04,0.0,4.2,0.0,3.05,0.0,0.01
1523826177.17995191,42668247,0.0,3.04,0.0,4.2,0.0,3.05,0.0,0.01
1523826177.22024894,42708544,0.0,3.04,0.0,4.2,0.0,3.05,0.0,0.01
1523826177.25977182,42748067,0.0,3.04,0.0,4.2,0.0,3.05,0.0,0.0
1523826177.29976583,42788061,0.0,3.04,0.0,4.2,0.0,3.05,0.0,0.0
1523826177.33986402,42828159,0.0,3.04,0.0,4.2,0.0,3.05,0.0,0.0
1523826177.37997985,42868275,0.0,3.04,0.0,4.2,0.0,3.04,0.0,0.0
1523826177.42013001,42908425,0.0,3.04,0.0,4.2,0.0,3.04,0.0,0.0
