timestamp,TimeUS,Roll,Pitch,Yaw,VN,VE,VD,dPD,PN,PE,PD,GX,GY,GZ,OH
1523828624.84295273,6508355,2.49,-0.71,0.0,0.0,0.0,0.0,0.0,0.0,0.0,0.0,0.0,0.0,0.0,0.0
1523828624.88036489,6545767,2.49,-0.71,0.0,0.0,0.0,0.0,0.0,0.0,0.0,0.0,0.0,0.0,0.0,0.0
1523828624.92035890,6585761,2.49,-0.71,0.0,0.0,0.0,0.0,0.0,0.0,0.0,0.0,0.0,0.0,0.0,0.0
1523828624.96026087,6625663,2.49,-0.71,0.0,0.0,0.0,0.0,0.0,0.0,0.0,0.0,0.0,0.0,0.0,0.0
1523828625.00026393,6665666,2.49,-0.71,0.0,0.0,0.0,0.0,0.0,0.0,0.0,0.0,0.0,0.0,0.0,0.0
1523828625.04110575,6706508,2.49,-0.71,0.0,0.0,0.0,0.0,0.0,0.0,0.0,0.0,0.0,0.0,0.0,0.0
1523828625.08027887,6745681,2.49,-0.71,0.0,0.0,0.0,0.0,0.0,0.0,0.0,0.0,0.0,0.0,0.0,0.0
1523828625.12028694,6785689,2.49,-0.71,0.0,0.0,0.0,0.0,0.0,0.0,0.0,0.0,0.0,0.0,0.0,0.0
1523828625.16011286,6825515,2.49,-0.71,0.0,0.0,0.0,0.0,0.0,0.0,0.0,0.0,0.0,0.0,0.0,0.0
1523828625.20030975,6865712,2.49,-0.71,0.0,0.0,0.0,0.0,0.0,0.0,0.0,0.0,0.0,0.0,0.0,0.0
1523828625.24037790,6905780,2.49,-0.71,0.0,0.0,0.0,0.0,0.0,0.0,0.0,0.0,0.0,0.0,0.0,0.0
1523828625.28019476,6945597,2.49,-0.71,0.0,0.0,0.0,0.0,0.0,0.0,0.0,0.0,0.0,0.0,0.0,0.0
1523828625.32007480,6985477,2.49,-0.71,0.0,0.0,0.0,0.0,0.0,0.0,0.0,0.0,0.0,0.0,0.0,0.0
1523828625.36026692,7025669,2.49,-0.71,0.0,0.0,0.0,0.0,0.0,0.0,0.0,0.0,0.0,0.0,0.0,0.0
1523828625.40023685,7065639,2.49,-0.71,0.0,0.0,0.0,0.0,0.0,0.0,0.0,0.0,0.0,0.0,0.0,0.0
1523828625.44048381,7105886,2.49,-0.71,0.0,0.0,0.0,0.0,0.0,0.0,0.0,0.0,0.0,0.0,0.0,0.0
1523828625.48017693,7145579,2.49,-0.71,0.0,0.0,0.0,0.0,0.0,0.0,0.0,0.0,0.0,0.0,0.0,0.0
1523828625.52004480,7185447,2.49,-0.71,0.0,0.0,0.0,0.0,0.0,0.0,0.0,0.0,0.0,0.0,0.0,0.0
1523828625.56021690,7225619,2.49,-0.71,0.0,0.0,0.0,0.0,0.0,0.0,0.0,0.0,0.0,0.0,0.0,0.0
1523828625.60022378,7265626,2.49,-0.71,0.0,0.0,0.0,0.0,0.0,0.0,0.0,0.0,0.0,0.0,0.0,0.0
1523828625.64036775,7305770,2.49,-0.71,0.0,0.0,0.0,0.0,0.0,0.0,0.0,0.0,0.0,0.0,0.0,0.0
1523828625.67999387,7345396,2.49,-0.71,0.0,0.0,0.0,0.0,0.0,0.0,0.0,0.0,0.0,0.0,0.0,0.0
1523828625.71993685,7385339,2.49,-0.71,0.0,0.0,0.0,0.0,0.0,0.0,0.0,0.0,0.0,0.0,0.0,0.0
1523828625.76017690,7425579,2.49,-0.71,0.0,0.0,0.0,0.0,0.0,0.0,0.0,0.0,0.0,0.0,0.0,0.0
1523828625.80010676,7465509,2.49,-0.71,0.0,0.0,0.0,0.0,0.0,0.0,0.0,0.0,0.0,0.0,0.0,0.0
1523828625.84077287,7506175,2.49,-0.71,0.0,0.0,0.0,0.0,0.0,0.0,0.0,0.0,0.0,0.0,0.0,0.0
1523828625.88031483,7545717,2.49,-0.71,0.0,0.0,0.0,0.0,0.0,0.0,0.0,0.0,0.0,0.0,0.0,0.0
1523828625.92039871,7585801,2.49,-0.71,0.0,0.0,0.0,0.0,0.0,0.0,0.0,0.0,0.0,0.0,0.0,0.0
1523828625.96038795,7625790,2.49,-0.71,0.0,0.0,0.0,0.0,0.0,0.0,0.0,0.0,0.0,0.0,0.0,0.0
1523828626.00043774,7665840,2.49,-0.71,0.0,0.0,0.0,0.0,0.0,0.0,0.0,0.0,0.0,0.0,0.0,0.0
1523828626.04075980,7706162,2.49,-0.71,0.0,0.0,0.0,0.0,0.0,0.0,0.0,0.0,0.0,0.0,0.0,0.0
1523828626.08014178,7745544,2.49,-0.71,0.0,0.0,0.0,0.0,0.0,0.0,0.0,0.0,0.0,0.0,0.0,0.0
1523828626.12041378,7785816,2.49,-0.71,0.0,0.0,0.0,0.0,0.0,0.0,0.0,0.0,0.0,0.0,0.0,0.0
1523828626.16027379,7825676,2.49,-0.71,0.0,0.0,0.0,0.0,0.0,0.0,0.0,0.0,0.0,0.0,0.0,0.0
1523828626.20041490,7865817,2.49,-0.71,0.0,0.0,0.0,0.0,0.0,0.0,0.0,0.0,0.0,0.0,0.0,0.0
1523828626.24043274,7905835,2.49,-0.71,0.0,0.0,0.0,0.0,0.0,0.0,0.0,0.0,0.0,0.0,0.0,0.0
1523828626.28042793,7945830,2.49,-0.71,0.0,0.0,0.0,0.0,0.0,0.0,0.0,0.0,0.0,0.0,0.0,0.0
1523828626.32014585,7985548,2.49,-0.71,0.0,0.0,0.0,0.0,0.0,0.0,0.0,0.0,0.0,0.0,0.0,0.0
1523828626.36019278,8025595,2.49,-0.71,0.0,0.0,0.0,0.0,0.0,0.0,0.0,0.0,0.0,0.0,0.0,0.0
1523828626.40018082,8065583,2.49,-0.71,0.0,0.0,0.0,0.0,0.0,0.0,0.0,0.0,0.0,0.0,0.0,0.0
1523828626.44052982,8105932,2.49,-0.71,0.0,0.0,0.0,0.0,0.0,0.0,0.0,0.0,0.0,0.0,0.0,0.0
1523828626.48014092,8145543,2.49,-0.71,0.0,0.0,0.0,0.0,0.0,0.0,0.0,0.0,0.0,0.0,0.0,0.0
1523828626.51996374,8185366,2.49,-0.71,0.0,0.0,0.0,0.0,0.0,0.0,0.0,0.0,0.0,0.0,0.0,0.0
1523828626.55997992,8225382,2.49,-0.71,0.0,0.0,0.0,0.0,0.0,0.0,0.0,0.0,0.0,0.0,0.0,0.0
1523828626.60020876,8265611,2.49,-0.71,0.0,0.0,0.0,0.0,0.0,0.0,0.0,0.0,0.0,0.0,0.0,0.0
1523828626.64036894,8305771,2.49,-0.71,0.0,0.0,0.0,0.0,0.0,0.0,0.0,0.0,0.0,0.0,0.0,0.0
1523828626.68013978,8345542,2.49,-0.71,0.0,0.0,0.0,0.0,0.0,0.0,0.0,0.0,0.0,0.0,0.0,0.0
1523828626.72011781,8385520,2.49,-0.71,0.0,0.0,0.0,0.0,0.0,0.0,0.0,0.0,0.0,0.0,0.0,0.0
1523828626.76038980,8425792,2.49,-0.71,0.0,0.0,0.0,0.0,0.0,0.0,0.0,0.0,0.0,0.0,0.0,0.0
1523828626.80026484,8465667,2.49,-0.71,0.0,0.0,0.0,0.0,0.0,0.0,0.0,0.0,0.0,0.0,0.0,0.0
1523828626.84084988,8506252,2.49,-0.71,0.0,0.0,0.0,0.0,0.0,0.0,0.0,0.0,0.0,0.0,0.0,0.0
1523828626.88031292,8545715,2.49,-0.71,0.0,0.0,0.0,0.0,0.0,0.0,0.0,0.0,0.0,0.0,0.0,0.0
1523828626.91997385,8585376,2.49,-0.71,0.0,0.0,0.0,0.0,0.0,0.0,0.0,0.0,0.0,0.0,0.0,0.0
1523828626.96041083,8625813,2.49,-0.71,0.0,0.0,0.0,0.0,0.0,0.0,0.0,0.0,0.0,0.0,0.0,0.0
1523828627.00058174,8665984,2.49,-0.71,0.0,0.0,0.0,0.0,0.0,0.0,0.0,0.0,0.0,0.0,0.0,0.0
1523828627.04030085,8705703,2.49,-0.71,0.0,0.0,0.0,0.0,0.0,0.0,0.0,0.0,0.0,0.0,0.0,0.0
1523828627.08045387,8745856,2.49,-0.71,0.0,0.0,0.0,0.0,0.0,0.0,0.0,0.0,0.0,0.0,0.0,0.0
1523828627.12011576,8785518,2.49,-0.71,0.0,0.0,0.0,0.0,0.0,0.0,0.0,0.0,0.0,0.0,0.0,0.0
1523828627.16011977,8825522,2.49,-0.71,0.0,0.0,0.0,0.0,0.0,0.0,0.0,0.0,0.0,0.0,0.0,0.0
1523828627.20018482,8865587,2.49,-0.71,0.0,0.0,0.0,0.0,0.0,0.0,0.0,0.0,0.0,0.0,0.0,0.0
1523828627.24056077,8905963,2.49,-0.71,0.0,0.0,0.0,0.0,0.0,0.0,0.0,0.0,0.0,0.0,0.0,0.0
1523828627.28013873,8945541,2.49,-0.71,0.0,0.0,0.0,0.0,0.0,0.0,0.0,0.0,0.0,0.0,0.0,0.0
1523828627.32003474,8985437,2.49,-0.71,0.0,0.0,0.0,0.0,0.0,0.0,0.0,0.0,0.0,0.0,0.0,0.0
1523828627.36021185,9025614,2.49,-0.71,0.0,0.0,0.0,0.0,0.0,0.0,0.0,0.0,0.0,0.0,0.0,0.0
1523828627.40046978,9065872,2.49,-0.71,0.0,0.0,0.0,0.0,0.0,0.0,0.0,0.0,0.0,0.0,0.0,0.0
1523828627.44035983,9105762,2.49,-0.71,0.0,0.0,0.0,0.0,0.0,0.0,0.0,0.0,0.0,0.0,0.0,0.0
1523828627.47995090,9145353,2.49,-0.71,0.0,0.0,0.0,0.0,0.0,0.0,0.0,0.0,0.0,0.0,0.0,0.0
1523828627.52011180,9185514,2.49,-0.71,0.0,0.0,0.0,0.0,0.0,0.0,0.0,0.0,0.0,0.0,0.0,0.0
1523828627.56028485,9225687,2.49,-0.71,0.0,0.0,0.0,0.0,0.0,0.0,0.0,0.0,0.0,0.0,0.0,0.0
1523828627.60013771,9265540,2.49,-0.71,0.0,0.0,0.0,0.0,0.0,0.0,0.0,0.0,0.0,0.0,0.0,0.0
1523828627.64028072,9305683,2.49,-0.71,0.0,0.0,0.0,0.0,0.0,0.0,0.0,0.0,0.0,0.0,0.0,0.0
1523828627.68005490,9345457,2.49,-0.71,0.0,0.0,0.0,0.0,0.0,0.0,0.0,0.0,0.0,0.0,0.0,0.0
1523828627.72036576,9385768,2.49,-0.71,0.0,0.0,0.0,0.0,0.0,0.0,0.0,0.0,0.0,0.0,0.0,0.0
1523828627.76014090,9425543,2.49,-0.71,0.0,0.0,0.0,0.0,0.0,0.0,0.0,0.0,0.0,0.0,0.0,0.0
1523828627.80031490,9465717,2.49,-0.71,0.0,0.0,0.0,0.0,0.0,0.0,0.0,0.0,0.0,0.0,0.0,0.0
1523828627.84079885,9506201,2.49,-0.71,0.0,0.0,0.0,0.0,0.0,0.0,0.0,0.0,0.0,0.0,0.0,0.0
1523828627.88038874,9545791,2.49,-0.71,0.0,0.0,0.0,0.0,0.0,0.0,0.0,0.0,0.0,0.0,0.0,0.0
1523828627.92009974,9585502,2.49,-0.71,0.0,0.0,0.0,0.0,0.0,0.0,0.0,0.0,0.0,0.0,0.0,0.0
1523828627.96051788,9625920,2.49,-0.71,0.0,0.0,0.0,0.0,0.0,0.0,0.0,0.0,0.0,0.0,0.0,0.0
1523828628.00044394,9665846,2.49,-0.71,0.0,0.0,0.0,0.0,0.0,0.0,0.0,0.0,0.0,0.0,0.0,0.0
1523828628.04081774,9706220,2.49,-0.71,0.0,0.0,0.0,0.0,0.0,0.0,0.0,0.0,0.0,0.0,0.0,0.0
1523828628.07994771,9745350,2.49,-0.71,0.0,0.0,0.0,0.0,0.0,0.0,0.0,0.0,0.0,0.0,0.0,0.0
1523828628.12040186,9785804,2.49,-0.71,0.0,0.0,0.0,0.0,0.0,0.0,0.0,0.0,0.0,0.0,0.0,0.0
1523828628.16019392,9825596,2.49,-0.71,0.0,0.0,0.0,0.0,0.0,0.0,0.0,0.0,0.0,0.0,0.0,0.0
1523828628.20043588,9865838,2.49,-0.71,0.0,0.0,0.0,0.0,0.0,0.0,0.0,0.0,0.0,0.0,0.0,0.0
1523828628.24045777,9905860,2.49,-0.71,0.0,0.0,0.0,0.0,0.0,0.0,0.0,0.0,0.0,0.0,0.0,0.0
1523828628.28027391,9945676,2.49,-0.71,0.0,0.0,0.0,0.0,0.0,0.0,0.0,0.0,0.0,0.0,0.0,0.0
1523828628.32044792,9985850,2.49,-0.71,0.0,0.0,0.0,0.0,0.0,0.0,0.0,0.0,0.0,0.0,0.0,0.0
1523828628.36048079,10025883,2.49,-0.71,0.0,0.0,0.0,0.0,0.0,0.0,0.0,0.0,0.0,0.0,0.0,0.0
1523828628.40042472,10065827,2.49,-0.71,0.0,0.0,0.0,0.0,0.0,0.0,0.0,0.0,0.0,0.0,0.0,0.0
1523828628.44026875,10105671,2.49,-0.71,0.0,0.0,0.0,0.0,0.0,0.0,0.0,0.0,0.0,0.0,0.0,0.0
1523828628.48010778,10145510,2.49,-0.71,0.0,0.0,0.0,0.0,0.0,0.0,0.0,0.0,0.0,0.0,0.0,0.0
1523828628.52006078,10185463,2.49,-0.71,0.0,0.0,0.0,0.0,0.0,0.0,0.0,0.0,0.0,0.0,0.0,0.0
1523828628.56028485,10225687,2.49,-0.71,0.0,0.0,0.0,0.0,0.0,0.0,0.0,0.0,0.0,0.0,0.0,0.0
1523828628.60047984,10265882,2.49,-0.71,0.0,0.0,0.0,0.0,0.0,0.0,0.0,0.0,0.0,0.0,0.0,0.0
1523828628.64024091,10305643,2.49,-0.71,0.0,0.0,0.0,0.0,0.0,0.0,0.0,0.0,0.0,0.0,0.0,0.0
1523828628.68041182,10345814,2.49,-0.71,0.0,0.0,0.0,0.0,0.0,0.0,0.0,0.0,0.0,0.0,0.0,0.0
1523828628.72024274,10385645,2.49,-0.71,0.0,0.0,0.0,0.0,0.0,0.0,0.0,0.0,0.0,0.0,0.0,0.0
1523828628.76020479,10425607,2.49,-0.71,0.0,0.0,0.0,0.0,0.0,0.0,0.0,0.0,0.0,0.0,0.0,0.0
1523828628.80020094,10465603,2.49,-0.71,0.0,0.0,0.0,0.0,0.0,0.0,0.0,0.0,0.0,0.0,0.0,0.0
1523828628.84099078,10506393,2.49,-0.71,0.0,0.0,0.0,0.0,0.0,0.0,0.0,0.0,0.0,0.0,0.0,0.0
1523828628.88023090,10545633,2.49,-0.71,0.0,0.0,0.0,0.0,0.0,0.0,0.0,0.0,0.0,0.0,0.0,0.0
1523828628.92008471,10585487,2.49,-0.71,0.0,0.0,0.0,0.0,0.0,0.0,0.0,0.0,0.0,0.0,0.0,0.0
1523828628.96032381,10625726,2.49,-0.71,0.0,0.0,0.0,0.0,0.0,0.0,0.0,0.0,0.0,0.0,0.0,0.0
1523828629.00057483,10665977,2.49,-0.71,0.0,0.0,0.0,0.0,0.0,0.0,0.0,0.0,0.0,0.0,0.0,0.0
1523828629.04037976,10705782,2.49,-0.71,0.0,0.0,0.0,0.0,0.0,0.0,0.0,0.0,0.0,0.0,0.0,0.0
1523828629.08023381,10745636,2.49,-0.71,0.0,0.0,0.0,0.0,0.0,0.0,0.0,0.0,0.0,0.0,0.0,0.0
1523828629.11998677,10785389,2.49,-0.71,0.0,0.0,0.0,0.0,0.0,0.0,0.0,0.0,0.0,0.0,0.0,0.0
1523828629.16035891,10825761,2.49,-0.71,0.0,0.0,0.0,0.0,0.0,0.0,0.0,0.0,0.0,0.0,0.0,0.0
1523828629.20017886,10865581,2.49,-0.71,0.0,0.0,0.0,0.0,0.0,0.0,0.0,0.0,0.0,0.0,0.0,0.0
1523828629.24041677,10905819,2.49,-0.71,0.0,0.0,0.0,0.0,0.0,0.0,0.0,0.0,0.0,0.0,0.0,0.0
1523828629.28020477,10945607,2.49,-0.71,0.0,0.0,0.0,0.0,0.0,0.0,0.0,0.0,0.0,0.0,0.0,0.0
1523828629.32039475,10985797,2.49,-0.71,0.0,0.0,0.0,0.0,0.0,0.0,0.0,0.0,0.0,0.0,0.0,0.0
1523828629.36038589,11025788,2.49,-0.71,0.0,0.0,0.0,0.0,0.0,0.0,0.0,0.0,0.0,0.0,0.0,0.0
1523828629.40043187,11065834,2.49,-0.71,0.0,0.0,0.0,0.0,0.0,0.0,0.0,0.0,0.0,0.0,0.0,0.0
1523828629.44028282,11105685,2.49,-0.71,0.0,0.0,0.0,0.0,0.0,0.0,0.0,0.0,0.0,0.0,0.0,0.0
1523828629.48014593,11145548,2.49,-0.71,0.0,0.0,0.0,0.0,0.0,0.0,0.0,0.0,0.0,0.0,0.0,0.0
1523828629.51994872,11185351,2.49,-0.71,0.0,0.0,0.0,0.0,0.0,0.0,0.0,0.0,0.0,0.0,0.0,0.0
1523828629.56012774,11225530,2.49,-0.71,0.0,0.0,0.0,0.0,0.0,0.0,0.0,0.0,0.0,0.0,0.0,0.0
1523828629.60042286,11265825,2.49,-0.71,0.0,0.0,0.0,0.0,0.0,0.0,0.0,0.0,0.0,0.0,0.0,0.0
1523828629.64048791,11305890,2.49,-0.71,0.0,0.0,0.0,0.0,0.0,0.0,0.0,0.0,0.0,0.0,0.0,0.0
1523828629.68017983,11345582,2.49,-0.71,0.0,0.0,0.0,0.0,0.0,0.0,0.0,0.0,0.0,0.0,0.0,0.0
1523828629.71998191,11385384,2.49,-0.71,0.0,0.0,0.0,0.0,0.0,0.0,0.0,0.0,0.0,0.0,0.0,0.0
1523828629.76017690,11425579,2.49,-0.71,0.0,0.0,0.0,0.0,0.0,0.0,0.0,0.0,0.0,0.0,0.0,0.0
1523828629.80048490,11465887,2.49,-0.71,0.0,0.0,0.0,0.0,0.0,0.0,0.0,0.0,0.0,0.0,0.0,0.0
1523828629.84075379,11506156,2.49,-0.71,0.0,0.0,0.0,0.0,0.0,0.0,0.0,0.0,0.0,0.0,0.0,0.0
1523828629.88019490,11545597,2.49,-0.71,0.0,0.0,0.0,0.0,0.0,0.0,0.0,0.0,0.0,0.0,0.0,0.0
1523828629.92014980,11585552,2.49,-0.71,0.0,0.0,0.0,0.0,0.0,0.0,0.0,0.0,0.0,0.0,0.0,0.0
1523828629.96049094,11625893,2.49,-0.71,0.0,0.0,0.0,0.0,0.0,0.0,0.0,0.0,0.0,0.0,0.0,0.0
1523828630.00053787,11665940,2.49,-0.71,0.0,0.0,0.0,0.0,0.0,0.0,0.0,0.0,0.0,0.0,0.0,0.0
1523828630.04040194,11705804,2.49,-0.71,0.0,0.0,0.0,0.0,0.0,0.0,0.0,0.0,0.0,0.0,0.0,0.0
1523828630.08041883,11745821,2.49,-0.71,0.0,0.0,0.0,0.0,0.0,0.0,0.0,0.0,0.0,0.0,0.0,0.0
1523828630.12009573,11785498,2.49,-0.71,0.0,0.0,0.0,0.0,0.0,0.0,0.0,0.0,0.0,0.0,0.0,0.0
1523828630.16018677,11825589,2.49,-0.71,0.0,0.0,0.0,0.0,0.0,0.0,0.0,0.0,0.0,0.0,0.0,0.0
1523828630.20041275,11865815,2.49,-0.71,0.0,0.0,0.0,0.0,0.0,0.0,0.0,0.0,0.0,0.0,0.0,0.0
1523828630.24069977,11906102,2.49,-0.71,0.0,0.0,0.0,0.0,0.0,0.0,0.0,0.0,0.0,0.0,0.0,0.0
1523828630.28040290,11945805,2.49,-0.71,0.0,0.0,0.0,0.0,0.0,0.0,0.0,0.0,0.0,0.0,0.0,0.0
1523828630.32007980,11985482,2.49,-0.71,0.0,0.0,0.0,0.0,0.0,0.0,0.0,0.0,0.0,0.0,0.0,0.0
1523828630.36042571,12025828,2.49,-0.71,0.0,0.0,0.0,0.0,0.0,0.0,0.0,0.0,0.0,0.0,0.0,0.0
1523828630.40044379,12065846,2.49,-0.71,0.0,0.0,0.0,0.0,0.0,0.0,0.0,0.0,0.0,0.0,0.0,0.0
1523828630.44036984,12105772,2.49,-0.71,0.0,0.0,0.0,0.0,0.0,0.0,0.0,0.0,0.0,0.0,0.0,0.0
1523828630.47998691,12145389,2.49,-0.71,0.0,0.0,0.0,0.0,0.0,0.0,0.0,0.0,0.0,0.0,0.0,0.0
1523828630.52015185,12185554,2.49,-0.71,0.0,0.0,0.0,0.0,0.0,0.0,0.0,0.0,0.0,0.0,0.0,0.0
1523828630.56019783,12225600,2.49,-0.71,0.0,0.0,0.0,0.0,0.0,0.0,0.0,0.0,0.0,0.0,0.0,0.0
1523828630.60057688,12265979,2.49,-0.71,0.0,0.0,0.0,0.0,0.0,0.0,0.0,0.0,0.0,0.0,0.0,0.0
1523828630.64029789,12305700,2.49,-0.71,0.0,0.0,0.0,0.0,0.0,0.0,0.0,0.0,0.0,0.0,0.0,0.0
1523828630.68021488,12345617,2.49,-0.71,0.0,0.0,0.0,0.0,0.0,0.0,0.0,0.0,0.0,0.0,0.0,0.0
1523828630.72006679,12385469,2.49,-0.71,0.0,0.0,0.0,0.0,0.0,0.0,0.0,0.0,0.0,0.0,0.0,0.0
1523828630.76000977,12425412,2.49,-0.71,0.0,0.0,0.0,0.0,0.0,0.0,0.0,0.0,0.0,0.0,0.0,0.0
1523828630.80043292,12465835,2.49,-0.71,0.0,0.0,0.0,0.0,0.0,0.0,0.0,0.0,0.0,0.0,0.0,0.0
1523828630.84085488,12506257,2.49,-0.71,0.0,0.0,0.0,0.0,0.0,0.0,0.0,0.0,0.0,0.0,0.0,0.0
1523828630.88028193,12545684,2.49,-0.71,0.0,0.0,0.0,0.0,0.0,0.0,0.0,0.0,0.0,0.0,0.0,0.0
1523828630.92020583,12585608,2.49,-0.71,0.0,0.0,0.0,0.0,0.0,0.0,0.0,0.0,0.0,0.0,0.0,0.0
1523828630.96038580,12625788,2.49,-0.71,0.0,0.0,0.0,0.0,0.0,0.0,0.0,0.0,0.0,0.0,0.0,0.0
1523828631.00043583,12665838,2.49,-0.71,0.0,0.0,0.0,0.0,0.0,0.0,0.0,0.0,0.0,0.0,0.0,0.0
1523828631.04030776,12705710,2.49,-0.71,0.0,0.0,0.0,0.0,0.0,0.0,0.0,0.0,0.0,0.0,0.0,0.0
1523828631.07996583,12745368,2.49,-0.71,0.0,0.0,0.0,0.0,0.0,0.0,0.0,0.0,0.0,0.0,0.0,0.0
1523828631.12025690,12785659,2.49,-0.71,0.0,0.0,0.0,0.0,0.0,0.0,0.0,0.0,0.0,0.0,0.0,0.0
1523828631.16026282,12825665,2.49,-0.71,0.0,0.0,0.0,0.0,0.0,0.0,0.0,0.0,0.0,0.0,0.0,0.0
1523828631.20051289,12865915,2.49,-0.71,0.0,0.0,0.0,0.0,0.0,0.0,0.0,0.0,0.0,0.0,0.0,0.0
1523828631.24062681,12906029,2.49,-0.71,0.0,0.0,0.0,0.0,0.0,0.0,0.0,0.0,0.0,0.0,0.0,0.0
1523828631.28017282,12945575,2.49,-0.71,0.0,0.0,0.0,0.0,0.0,0.0,0.0,0.0,0.0,0.0,0.0,0.0
1523828631.32014775,12985550,2.49,-0.71,0.0,0.0,0.0,0.0,0.0,0.0,0.0,0.0,0.0,0.0,0.0,0.0
1523828631.36023474,13025637,2.49,-0.71,0.0,0.0,0.0,0.0,0.0,0.0,0.0,0.0,0.0,0.0,0.0,0.0
1523828631.40048194,13065884,2.49,-0.71,0.0,0.0,0.0,0.0,0.0,0.0,0.0,0.0,0.0,0.0,0.0,0.0
1523828631.44035673,13105759,2.49,-0.71,0.0,0.0,0.0,0.0,0.0,0.0,0.0,0.0,0.0,0.0,0.0,0.0
1523828631.48013592,13145538,2.49,-0.71,0.0,0.0,0.0,0.0,0.0,0.0,0.0,0.0,0.0,0.0,0.0,0.0
1523828631.52016377,13185566,2.49,-0.71,0.0,0.0,0.0,0.0,0.0,0.0,0.0,0.0,0.0,0.0,0.0,0.0
1523828631.56027293,13225675,2.49,-0.71,0.0,0.0,0.0,0.0,0.0,0.0,0.0,0.0,0.0,0.0,0.0,0.0
1523828631.60046482,13265867,2.49,-0.71,0.0,0.0,0.0,0.0,0.0,0.0,0.0,0.0,0.0,0.0,0.0,0.0
1523828631.64024472,13305647,2.49,-0.71,0.0,0.0,0.0,0.0,0.0,0.0,0.0,0.0,0.0,0.0,0.0,0.0
1523828631.68003774,13345440,2.49,-0.71,0.0,0.0,0.0,0.0,0.0,0.0,0.0,0.0,0.0,0.0,0.0,0.0
1523828631.72013378,13385536,2.49,-0.71,0.0,0.0,0.0,0.0,0.0,0.0,0.0,0.0,0.0,0.0,0.0,0.0
1523828631.76015782,13425560,2.49,-0.71,0.0,0.0,0.0,0.0,0.0,0.0,0.0,0.0,0.0,0.0,0.0,0.0
1523828631.80042386,13465826,2.49,-0.71,0.0,0.0,0.0,0.0,0.0,0.0,0.0,0.0,0.0,0.0,0.0,0.0
1523828631.84074378,13506146,2.49,-0.71,0.0,0.0,0.0,0.0,0.0,0.0,0.0,0.0,0.0,0.0,0.0,0.0
1523828631.88035393,13545756,2.49,-0.71,0.0,0.0,0.0,0.0,0.0,0.0,0.0,0.0,0.0,0.0,0.0,0.0
1523828631.92005992,13585462,2.49,-0.71,0.0,0.0,0.0,0.0,0.0,0.0,0.0,0.0,0.0,0.0,0.0,0.0
1523828631.96013379,13625536,2.49,-0.71,0.0,0.0,0.0,0.0,0.0,0.0,0.0,0.0,0.0,0.0,0.0,0.0
1523828632.00087976,13666282,2.49,-0.71,0.0,0.0,0.0,0.0,0.0,0.0,0.0,0.0,0.0,0.0,0.0,0.0
1523828632.04056382,13705966,2.49,-0.71,0.0,0.0,0.0,0.0,0.0,0.0,0.0,0.0,0.0,0.0,0.0,0.0
1523828632.08024693,13745649,2.49,-0.71,0.0,0.0,0.0,0.0,0.0,0.0,0.0,0.0,0.0,0.0,0.0,0.0
1523828632.12031174,13785714,2.49,-0.71,0.0,0.0,0.0,0.0,0.0,0.0,0.0,0.0,0.0,0.0,0.0,0.0
1523828632.16032171,13825724,2.49,-0.71,0.0,0.0,0.0,0.0,0.0,0.0,0.0,0.0,0.0,0.0,0.0,0.0
1523828632.20068288,13866085,2.49,-0.71,0.0,0.0,0.0,0.0,0.0,0.0,0.0,0.0,0.0,0.0,0.0,0.0
1523828632.24022889,13905631,2.49,-0.71,0.0,0.0,0.0,0.0,0.0,0.0,0.0,0.0,0.0,0.0,0.0,0.0
1523828632.28029871,13945701,2.49,-0.71,0.0,0.0,0.0,0.0,0.0,0.0,0.0,0.0,0.0,0.0,0.0,0.0
1523828632.31992483,13985327,2.49,-0.71,0.0,0.0,0.0,0.0,0.0,0.0,0.0,0.0,0.0,0.0,0.0,0.0
1523828632.36031985,14025722,2.49,-0.71,0.0,0.0,0.0,0.0,0.0,0.0,0.0,0.0,0.0,0.0,0.0,0.0
1523828632.40043879,14065841,2.49,-0.71,0.0,0.0,0.0,0.0,0.0,0.0,0.0,0.0,0.0,0.0,0.0,0.0
1523828632.44057989,14105982,2.49,-0.71,0.0,0.0,0.0,0.0,0.0,0.0,0.0,0.0,0.0,0.0,0.0,0.0
1523828632.48009276,14145495,2.49,-0.71,0.0,0.0,0.0,0.0,0.0,0.0,0.0,0.0,0.0,0.0,0.0,0.0
1523828632.52036190,14185764,2.49,-0.71,0.0,0.0,0.0,0.0,0.0,0.0,0.0,0.0,0.0,0.0,0.0,0.0
1523828632.56015491,14225557,2.49,-0.71,0.0,0.0,0.0,0.0,0.0,0.0,0.0,0.0,0.0,0.0,0.0,0.0
1523828632.60043383,14265836,2.49,-0.71,0.0,0.0,0.0,0.0,0.0,0.0,0.0,0.0,0.0,0.0,0.0,0.0
1523828632.64036274,14305765,2.49,-0.71,0.0,0.0,0.0,0.0,0.0,0.0,0.0,0.0,0.0,0.0,0.0,0.0
1523828632.68004584,14345448,2.49,-0.71,0.0,0.0,0.0,0.0,0.0,0.0,0.0,0.0,0.0,0.0,0.0,0.0
1523828632.72003293,14385435,2.49,-0.71,0.0,0.0,0.0,0.0,0.0,0.0,0.0,0.0,0.0,0.0,0.0,0.0
1523828632.76010990,14425512,2.49,-0.71,0.0,0.0,0.0,0.0,0.0,0.0,0.0,0.0,0.0,0.0,0.0,0.0
1523828632.80057287,14465975,2.49,-0.71,0.0,0.0,0.0,0.0,0.0,0.0,0.0,0.0,0.0,0.0,0.0,0.0
1523828632.84103179,14506434,2.49,-0.71,0.0,0.0,0.0,0.0,0.0,0.0,0.0,0.0,0.0,0.0,0.0,0.0
1523828632.88017678,14545579,2.49,-0.71,0.0,0.0,0.0,0.0,0.0,0.0,0.0,0.0,0.0,0.0,0.0,0.0
1523828632.92003584,14585438,2.49,-0.71,0.0,0.0,0.0,0.0,0.0,0.0,0.0,0.0,0.0,0.0,0.0,0.0
1523828632.96016383,14625566,2.49,-0.71,0.0,0.0,0.0,0.0,0.0,0.0,0.0,0.0,0.0,0.0,0.0,0.0
1523828633.00077677,14666179,2.49,-0.71,0.0,0.0,0.0,0.0,0.0,0.0,0.0,0.0,0.0,0.0,0.0,0.0
1523828633.04043388,14705836,2.49,-0.71,0.0,0.0,0.0,0.0,0.0,0.0,0.0,0.0,0.0,0.0,0.0,0.0
1523828633.08026886,14745671,2.49,-0.71,0.0,0.0,0.0,0.0,0.0,0.0,0.0,0.0,0.0,0.0,0.0,0.0
1523828633.12011671,14785519,2.49,-0.71,0.0,0.0,0.0,0.0,0.0,0.0,0.0,0.0,0.0,0.0,0.0,0.0
1523828633.16048574,14825888,2.49,-0.71,0.0,0.0,0.0,0.0,0.0,0.0,0.0,0.0,0.0,0.0,0.0,0.0
1523828633.20058489,14865987,2.49,-0.71,0.0,0.0,0.0,0.0,0.0,0.0,0.0,0.0,0.0,0.0,0.0,0.0
1523828633.24043274,14905835,2.49,-0.71,0.0,0.0,0.0,0.0,0.0,0.0,0.0,0.0,0.0,0.0,0.0,0.0
1523828633.28023481,14945637,2.49,-0.71,0.0,0.0,0.0,0.0,0.0,0.0,0.0,0.0,0.0,0.0,0.0,0.0
1523828633.32045293,14985855,2.49,-0.71,0.0,0.0,0.0,0.0,0.0,0.0,0.0,0.0,0.0,0.0,0.0,0.0
1523828633.36037993,15025782,2.49,-0.71,0.0,0.0,0.0,0.0,0.0,0.0,0.0,0.0,0.0,0.0,0.0,0.0
1523828633.40071392,15066116,2.49,-0.71,0.0,0.0,0.0,0.0,0.0,0.0,0.0,0.0,0.0,0.0,0.0,0.0
1523828633.44040680,15105809,2.49,-0.71,0.0,0.0,0.0,0.0,0.0,0.0,0.0,0.0,0.0,0.0,0.0,0.0
1523828633.48034191,15145744,2.49,-0.71,0.0,0.0,0.0,0.0,0.0,0.0,0.0,0.0,0.0,0.0,0.0,0.0
1523828633.52011871,15185521,2.49,-0.71,0.0,0.0,0.0,0.0,0.0,0.0,0.0,0.0,0.0,0.0,0.0,0.0
1523828633.56017089,15225573,2.49,-0.71,0.0,0.0,0.0,0.0,0.0,0.0,0.0,0.0,0.0,0.0,0.0,0.0
1523828633.60064173,15266044,2.49,-0.71,0.0,0.0,0.0,0.0,0.0,0.0,0.0,0.0,0.0,0.0,0.0,0.0
1523828633.64029789,15305700,2.49,-0.71,0.0,0.0,0.0,0.0,0.0,0.0,0.0,0.0,0.0,0.0,0.0,0.0
1523828633.68022275,15345625,2.49,-0.71,0.0,0.0,0.0,0.0,0.0,0.0,0.0,0.0,0.0,0.0,0.0,0.0
1523828633.72000885,15385411,2.49,-0.71,0.0,0.0,0.0,0.0,0.0,0.0,0.0,0.0,0.0,0.0,0.0,0.0
1523828633.76024294,15425645,2.49,-0.71,0.0,0.0,0.0,0.0,0.0,0.0,0.0,0.0,0.0,0.0,0.0,0.0
1523828633.80096793,15466370,2.49,-0.71,0.0,0.0,0.0,0.0,0.0,0.0,0.0,0.0,0.0,0.0,0.0,0.0
1523828633.84076881,15506171,2.49,-0.71,0.0,0.0,0.0,0.0,0.0,0.0,0.0,0.0,0.0,0.0,0.0,0.0
1523828633.88027573,15545678,2.49,-0.71,0.0,0.0,0.0,0.0,0.0,0.0,0.0,0.0,0.0,0.0,0.0,0.0
1523828633.92011786,15585520,2.49,-0.71,0.0,0.0,0.0,0.0,0.0,0.0,0.0,0.0,0.0,0.0,0.0,0.0
1523828633.96014094,15625543,2.49,-0.71,0.0,0.0,0.0,0.0,0.0,0.0,0.0,0.0,0.0,0.0,0.0,0.0
1523828634.00061584,15666018,2.49,-0.71,0.0,0.0,0.0,0.0,0.0,0.0,0.0,0.0,0.0,0.0,0.0,0.0
1523828634.04045486,15705857,2.49,-0.71,0.0,0.0,0.0,0.0,0.0,0.0,0.0,0.0,0.0,0.0,0.0,0.0
1523828634.08034086,15745743,2.49,-0.71,0.0,0.0,0.0,0.0,0.0,0.0,0.0,0.0,0.0,0.0,0.0,0.0
1523828634.12025380,15785656,2.49,-0.71,0.0,0.0,0.0,0.0,0.0,0.0,0.0,0.0,0.0,0.0,0.0,0.0
1523828634.16055584,15825958,2.49,-0.71,0.0,0.0,0.0,0.0,0.0,0.0,0.0,0.0,0.0,0.0,0.0,0.0
1523828634.20077777,15866180,2.49,-0.71,0.0,0.0,0.0,0.0,0.0,0.0,0.0,0.0,0.0,0.0,0.0,0.0
1523828634.24120879,15906611,5.14,3.14,0.01,-0.000228334974963,0.000306246540276,0.0263054464012,0.0,0.0,0.0,0.000726336613297,0.0,0.0,0.0,0.0
1523828634.28248382,15947886,5.12,3.15,9.87,-0.000338489102433,0.000438039278379,0.0529941394925,0.0,0.0,0.0,-0.0201352704316,0.0,0.0,0.0,0.0
1523828634.32097888,15986381,5.1,3.15,9.87,-0.000517559354194,0.000297549995594,0.0795277059078,0.0,0.0,0.0,-0.0375436618924,0.0,0.0,0.0,0.0
1523828634.36167979,16027082,5.09,3.15,9.87,-0.000302636617562,0.000396277464461,0.106521032751,0.0,0.0,0.0,-0.0518376603723,0.0,0.0,0.0,0.0
1523828634.40173292,16067135,5.07,3.15,9.87,-0.000208091922104,0.000265868788119,0.13275937736,0.0,0.0,0.0,-0.0633082017303,0.0,0.0,0.0,0.0
1523828634.44200182,16107404,5.06,3.16,9.87,-0.000140699761687,-0.000183663112693,0.159481137991,0.0,0.0,0.0,-0.0715099796653,0.0,0.0,0.0,0.0
1523828634.48097372,16146376,5.04,3.16,9.88,-0.000283150613541,-0.000904751592316,0.184470698237,0.0,0.0,0.0,-0.0770130231977,0.0,0.0,0.0,0.0
1523828634.52205682,16187459,5.02,3.16,9.89,-2.64520622295e-06,-0.00127756525762,0.209036573768,0.0,0.0,0.0,-0.0795982480049,0.0,0.0,0.0,0.0
1523828634.56112289,16226525,5.01,3.17,9.89,-0.000151016429299,-0.00178568123374,0.232672825456,0.0,0.0,0.0,-0.0799284875393,0.0,0.0,0.0,0.0
1523828634.60154486,16266947,4.99,3.17,9.88,-0.00047781484318,-0.00251413113438,0.254957377911,0.0,0.0,0.0,-0.077800758183,0.0,0.0,0.0,0.0
1523828634.64165878,16307061,4.98,3.17,9.88,-0.000730798987206,-0.00372503534891,0.275610685349,0.0,0.0,0.0,-0.0789969190955,0.0,0.0,0.0,0.0
1523828634.68101978,16346422,4.96,3.17,9.86,-0.0010977354832,-0.0048931450583,0.295986175537,0.0,0.0,0.0,-0.0777070447803,0.0,0.0,0.0,0.0
1523828634.72193480,16387337,4.95,3.18,9.83,-0.0012736201752,-0.00621629087254,0.314594447613,0.0,0.0,0.0,-0.0785111784935,0.0,0.0,0.0,0.0
1523828634.76131487,16426717,4.94,3.18,9.8,-0.00155885948334,-0.00723884394392,0.33221539855,0.0,0.0,0.0,-0.0810425430536,0.0,0.0,0.0,0.0
1523828634.80171084,16467113,4.92,3.18,9.76,-0.00180432992056,-0.00890191365033,0.349253118038,0.0,0.0,0.0,-0.0810301750898,0.0,0.0,0.0,0.0
1523828634.84234881,16507751,4.91,3.19,9.73,-0.00200342619792,-0.0103632649407,0.364764362574,0.0,0.0,0.0,-0.0833678394556,0.0,0.0,0.0,0.0
1523828634.88119173,16546594,4.9,3.19,9.69,-0.00205175229348,-0.0116448523477,0.37963488698,0.0,0.0,0.0,-0.083203420043,0.0,0.0,0.0,0.0
1523828634.92198372,16587386,4.89,3.19,9.65,-0.00235673575662,-0.0130393588915,0.393706738949,0.0,0.0,0.0,-0.0838682577014,0.0,0.0,0.0,0.0
1523828634.96106172,16626464,4.88,3.19,9.61,-0.00242899172008,-0.0145759675652,0.406703740358,0.0,0.0,0.0,-0.08519218117,0.0,0.0,0.0,0.0
1523828635.00171876,16667121,4.87,3.2,9.57,-0.00282714446075,-0.0162080135196,0.4189273417,0.0,0.0,0.0,-0.0841002762318,0.0,0.0,0.0,0.0
1523828635.04209375,16707496,4.86,3.2,9.54,-0.00336788455024,-0.0174656398594,0.429186552763,0.0,0.0,0.0,-0.0888328030705,0.0,0.0,0.0,0.0
1523828635.08122087,16746623,4.85,3.2,9.51,-0.00356479082257,-0.0192340612411,0.43952691555,0.0,0.0,0.0,-0.0908977240324,0.0,0.0,0.0,0.0
1523828635.12222171,16787624,4.84,3.2,9.47,-0.00403622165322,-0.020901247859,0.450414091349,0.0,0.0,0.0,-0.0876453891397,0.0,0.0,0.0,0.0
1523828635.16157675,16826979,4.83,3.2,9.48,-0.00414257170632,-0.0224002059549,0.461639225483,0.0,0.0,0.0,-0.0796839147806,0.0,0.0,0.0,0.0
1523828635.20159292,16866995,4.82,3.2,9.51,-0.00388181046583,-0.0239464342594,0.47236841917,0.0,0.0,0.0,-0.0706104040146,0.0,0.0,0.0,0.0
1523828635.24186182,16907264,4.81,3.2,9.56,-0.00349644059315,-0.0252622961998,0.48406496644,0.0,0.0,0.0,-0.0566741079092,0.0,0.0,-0.01,0.0
1523828635.28092384,16946326,4.8,3.2,9.64,-0.00329018081538,-0.0268952641636,0.496163636446,0.0,0.0,0.0,-0.0416447147727,0.0,0.0,-0.01,0.0
1523828635.32189274,16987295,4.8,3.2,9.73,-0.00300249783322,-0.0281806383282,0.508214533329,0.0,0.0,0.0,-0.0239693410695,0.0,0.0,-0.01,0.0
1523828635.36151075,17026913,4.79,3.2,9.84,-0.00244254735298,-0.0298235788941,0.519907653332,0.0,0.0,0.0,-0.00488119013608,0.0,0.0,-0.02,0.0
1523828635.40143585,17066838,4.78,3.2,9.97,-0.0021615610458,-0.0316016897559,0.531256377697,0.0,0.0,0.0,0.0148805091158,0.0,0.0,-0.02,0.0
1523828635.44203687,17107439,4.77,3.2,10.09,-0.00191584823187,-0.0328940227628,0.542987346649,0.0,0.0,0.0,0.0377728193998,0.0,0.0,-0.03,0.0
1523828635.48102593,17146428,4.76,3.19,10.25,-0.00163931434508,-0.0344342403114,0.55463385582,0.0,0.0,0.0,0.0610302016139,0.0,0.0,-0.03,0.0
1523828635.52227688,17187679,4.76,3.19,10.41,-0.00146637065336,-0.0359874553978,0.566242933273,0.0,0.0,0.0,0.0849776417017,0.0,0.0,-0.03,0.0
1523828635.56118488,17226587,4.75,3.19,10.58,-0.00108329986688,-0.0374640375376,0.577428996563,0.0,0.0,0.0,0.10955503583,0.0,0.0,-0.03,0.0
1523828635.60173988,17267142,4.74,3.19,10.75,-0.000815244740807,-0.0388651899993,0.588582277298,0.0,0.0,0.0,0.134419679642,0.0,0.0,-0.03,0.0
1523828635.64177275,17307175,4.73,3.19,10.92,-0.000425472011557,-0.0403284877539,0.599128365517,0.0,0.0,0.0,0.159052163363,0.0,0.0,-0.04,0.0
1523828635.68112278,17346525,4.73,3.19,11.1,-8.39334097691e-05,-0.0418163314462,0.60909986496,0.0,0.0,0.0,0.183995530009,0.0,0.0,-0.04,0.0
1523828635.72227287,17387675,4.72,3.19,11.27,0.000491294253152,-0.0431890413165,0.61943680048,0.0,0.0,0.0,0.209295213223,0.0,0.0,-0.04,0.0
1523828635.76119971,17426602,4.71,3.19,11.44,0.000471017323434,-0.0446601510048,0.629475712776,0.0,0.0,0.0,0.234945908189,0.0,0.0,-0.05,0.0
1523828635.80165291,17467055,4.7,3.19,11.61,0.000487983052153,-0.0462064109743,0.639800846577,0.0,0.0,0.0,0.260893702507,0.0,0.0,-0.05,0.0
1523828635.84237194,17507774,4.7,3.19,11.76,0.000779515714385,-0.0473726242781,0.649953663349,0.0,0.0,0.0,0.287405580282,0.0,0.0,-0.06,0.0
1523828635.88119888,17546601,4.69,3.19,11.93,0.000938156386837,-0.0486454479396,0.659608364105,0.0,0.0,0.0,0.314184755087,0.0,0.0,-0.06,0.0
1523828635.92204881,17587451,4.69,3.19,12.07,0.00152135815006,-0.0502476356924,0.668453335762,0.0,0.0,0.0,0.340368628502,0.0,0.0,-0.06,0.0
1523828635.96120882,17626611,4.68,3.19,12.22,0.00182768306695,-0.0518329627812,0.677147507668,0.0,0.0,0.0,0.366071462631,0.0,0.0,-0.07,0.0
1523828636.00169683,17667099,4.67,3.19,12.37,0.00238260277547,-0.0535844154656,0.685920715332,0.0,0.0,0.0,0.392179429531,0.0,0.0,-0.07,0.0
1523828636.04224277,17707645,4.67,3.2,12.5,0.00252612796612,-0.0550979301333,0.693599522114,0.0,0.0,0.0,0.416363298893,0.0,0.0,-0.07,0.0
1523828636.08092189,17746324,4.66,3.2,12.63,0.00243465811945,-0.0564785599709,0.701004087925,0.0,0.0,0.0,0.441817879677,0.0,0.0,-0.07,0.0
1523828636.12218690,17787589,4.65,3.2,12.75,0.00211112806574,-0.0580607093871,0.707678377628,0.0,0.0,0.0,0.464118391275,0.0,0.0,-0.07,0.0
1523828636.16137671,17826779,4.64,3.2,12.87,0.00249271048233,-0.0591731369495,0.713340520859,0.0,0.0,0.0,0.485642880201,0.0,0.0,-0.08,0.0
1523828636.20165873,17867061,4.64,3.2,12.98,0.00255658710375,-0.0606347471476,0.719621598721,0.0,0.0,0.0,0.508732795715,0.0,0.0,-0.08,0.0
1523828636.24196982,17907372,4.63,3.2,13.08,0.00261218240485,-0.0619398280978,0.722206473351,0.0,0.0,0.0,0.52573287487,0.0,0.0,-0.09,0.0
1523828636.28096175,17946364,4.62,3.2,13.18,0.00303656631149,-0.0632979348302,0.726047754288,0.0,0.0,0.0,0.544658780098,0.0,0.0,-0.09,0.0
1523828636.32190681,17987309,4.62,3.2,13.28,0.00313900900073,-0.0650106146932,0.72928583622,0.0,0.0,0.0,0.562840461731,0.0,0.0,-0.09,0.0
1523828636.36135483,18026757,4.61,3.2,13.36,0.00338253122754,-0.0667290464044,0.731072962284,0.0,0.0,0.0,0.578376173973,0.0,0.0,-0.1,0.0
1523828636.40153885,18066941,4.6,3.2,13.45,0.00354523467831,-0.0687789842486,0.734360635281,0.0,0.0,0.0,0.595988988876,0.0,0.0,-0.09,0.0
1523828636.44222975,18107632,4.6,3.2,13.53,0.00367982639,-0.0703535825014,0.734615027905,0.0,0.0,0.0,0.608086109161,0.0,0.0,-0.1,0.0
1523828636.48112679,18146529,4.59,3.2,13.61,0.00411171792075,-0.0717804282904,0.736664950848,0.0,0.0,0.0,0.623335778713,0.0,0.0,-0.1,0.0
1523828636.52192974,18187332,4.58,3.2,13.68,0.00466461060569,-0.0736437812448,0.737747013569,0.0,0.0,0.0,0.636901199818,0.0,0.0,-0.1,0.0
1523828636.56133080,18226733,4.57,3.2,13.75,0.00474619725719,-0.0753702521324,0.737446129322,0.0,0.0,0.0,0.649682343006,0.0,0.0,-0.11,0.0
1523828636.60137081,18266773,4.57,3.2,13.81,0.00547491572797,-0.07713175565,0.739066064358,0.0,0.0,0.0,0.664156258106,0.0,0.0,-0.11,0.0
1523828636.64185572,18307258,4.56,3.2,13.87,0.00591138936579,-0.0782712325454,0.735389947891,0.0,0.0,0.0,0.670016407967,0.0,0.0,-0.11,0.0
1523828636.68121386,18346616,4.55,3.2,13.93,0.00612050062045,-0.0798326432705,0.732690632343,0.0,0.0,0.0,0.677485942841,0.0,0.0,-0.11,0.0
1523828636.72208571,18387488,4.54,3.2,13.99,0.00659702392295,-0.0814790278673,0.730909764767,0.0,0.0,0.0,0.687024116516,0.0,0.0,-0.11,0.0
1523828636.76117587,18426578,4.54,3.2,14.04,0.00687690917403,-0.0831027328968,0.72969943285,0.0,0.0,0.0,0.696452319622,0.0,0.0,-0.12,0.0
1523828636.80175471,18467157,4.53,3.21,14.09,0.00723156053573,-0.0850832164288,0.729562163353,0.0,0.0,0.0,0.707867741585,0.0,0.0,-0.12,0.0
1523828636.84245777,18507860,4.52,3.21,14.14,0.00728047732264,-0.0865437686443,0.72521841526,0.0,0.0,0.0,0.712437093258,0.0,0.0,-0.12,0.0
1523828636.88129592,18546698,4.52,3.21,14.19,0.00742472242564,-0.088286742568,0.722882270813,0.0,0.0,0.0,0.719437122345,0.0,0.0,-0.12,0.0
1523828636.92209291,18587495,4.51,3.21,14.23,0.00761027960107,-0.0898781493306,0.719825387001,0.0,0.0,0.0,0.725678443909,0.0,0.0,-0.12,0.0
1523828636.96110892,18626511,4.5,3.21,14.27,0.00786187127233,-0.0916444063187,0.716496407986,0.0,0.0,0.0,0.73134303093,0.0,0.0,-0.12,0.0
1523828637.00199986,18667402,4.5,3.21,14.31,0.00788817554712,-0.0933285877109,0.7140173316,0.0,0.0,0.0,0.739326179028,0.0,0.0,-0.12,0.0
1523828637.04216075,18707563,4.49,3.21,14.35,0.00816114339978,-0.0944830030203,0.709025204182,0.0,0.0,0.0,0.741453766823,0.0,0.0,-0.12,0.0
1523828637.08111477,18746517,4.49,3.21,14.38,0.00843281112611,-0.0963850840926,0.705737471581,0.0,0.0,0.0,0.746250867844,0.0,0.0,-0.12,0.0
1523828637.12194180,18787344,4.48,3.2,14.41,0.0085136462003,-0.0983437299728,0.701147139072,0.0,0.0,0.0,0.749226391315,0.0,0.0,-0.12,0.0
1523828637.16103292,18826435,4.47,3.2,14.44,0.00885732937604,-0.0999033972621,0.694901645184,0.0,0.0,0.0,0.749451577663,0.0,0.0,-0.13,0.0
1523828637.20205092,18867453,4.47,3.2,14.48,0.00906165130436,-0.101740472019,0.690336763859,0.0,0.0,0.0,0.751803636551,0.0,0.0,-0.13,0.0
1523828637.24185491,18907257,4.46,3.2,14.51,0.00916264858097,-0.10283537209,0.682581782341,0.0,0.0,0.0,0.749129354954,0.0,0.0,-0.13,0.0
1523828637.28097272,18946375,4.46,3.2,14.54,0.00941456202418,-0.104654707015,0.676954865456,0.0,0.0,0.0,0.74950581789,0.0,0.0,-0.13,0.0
1523828637.32219982,18987602,4.45,3.2,14.57,0.00957704335451,-0.106512516737,0.670908689499,0.0,0.0,0.0,0.748460590839,0.0,0.0,-0.13,0.0
1523828637.36106873,19026471,4.45,3.2,14.6,0.00987295713276,-0.108116291463,0.663672864437,0.0,0.0,0.0,0.746305048466,0.0,0.0,-0.14,0.0
1523828637.40155387,19066956,4.44,3.2,14.63,0.0100946025923,-0.109912037849,0.658053934574,0.0,0.0,0.0,0.74706786871,0.0,0.0,-0.14,0.0
1523828637.44226885,19107671,4.44,3.2,14.66,0.0103585897014,-0.111100062728,0.64841324091,0.0,0.0,0.0,0.740154504776,-0.01,0.0,-0.14,0.0
1523828637.48089576,19146298,4.43,3.2,14.69,0.0105305258185,-0.112635433674,0.641480565071,0.0,0.0,0.0,0.736613929272,-0.01,0.0,-0.14,0.0
1523828637.52186990,19187272,4.43,3.2,14.73,0.010591911152,-0.114298895001,0.634131968021,0.0,0.0,0.0,0.73260396719,-0.01,0.0,-0.14,0.0
1523828637.56111479,19226517,4.43,3.2,14.76,0.0111868856475,-0.115534894168,0.626878798008,0.0,0.0,0.0,0.728326559067,-0.01,0.0,-0.14,0.0
1523828637.60199285,19267395,4.42,3.2,14.79,0.0112253632396,-0.117491982877,0.620673656464,0.0,0.0,0.0,0.727113723755,-0.01,0.0,-0.14,0.0
1523828637.64208388,19307486,4.42,3.2,14.82,0.0116327442229,-0.118426047266,0.611912608147,0.0,0.0,0.0,0.720538258553,-0.01,0.0,-0.15,0.0
1523828637.68106079,19346463,4.42,3.2,14.85,0.0119482195005,-0.11987734586,0.604878664017,0.0,0.0,0.0,0.717208266258,-0.01,0.0,-0.15,0.0
1523828637.72203875,19387441,4.41,3.2,14.87,0.0120250917971,-0.121128298342,0.597466886044,0.0,0.0,0.0,0.712003827095,-0.02,0.0,-0.15,0.0
1523828637.76105380,19426456,4.41,3.2,14.9,0.0123011600226,-0.122260525823,0.589225232601,0.0,0.0,0.0,0.705345749855,-0.02,0.0,-0.15,0.0
1523828637.80160379,19467006,4.41,3.2,14.93,0.0128749292344,-0.123766288161,0.583025574684,0.0,0.0,0.0,0.701919257641,-0.02,0.0,-0.15,0.0
1523828637.84226584,19507668,4.41,3.19,14.96,0.0130222253501,-0.124599456787,0.572946548462,0.0,0.0,0.0,0.692234158516,-0.02,0.0,-0.15,0.0
1523828637.88120890,19546611,4.41,3.19,14.98,0.0132782021537,-0.125895723701,0.564956903458,0.0,0.0,0.0,0.684953033924,-0.02,0.0,-0.15,0.0
1523828637.92200494,19587407,4.4,3.19,15.01,0.0136479716748,-0.126701369882,0.556323945522,0.0,0.0,0.0,0.676508903503,-0.03,0.0,-0.15,0.0
1523828637.96117282,19626575,4.4,3.19,15.04,0.0140782175586,-0.127742752433,0.546472489834,0.0,0.0,0.0,0.666702270508,-0.03,0.0,-0.16,0.0
1523828638.00153494,19666937,4.4,3.19,15.06,0.0144503405318,-0.128949865699,0.538466274738,0.0,0.0,0.0,0.660278499126,-0.03,0.0,-0.16,0.0
1523828638.04218483,19707587,4.4,3.19,15.09,0.0144140431657,-0.129166588187,0.528918862343,0.0,0.0,0.0,0.649970710278,-0.04,0.0,-0.16,0.0
1523828638.08102894,19746431,4.4,3.19,15.11,0.0147446645424,-0.129708856344,0.521461904049,0.0,0.0,0.0,0.643054842949,-0.04,0.0,-0.16,0.0
1523828638.12184572,19787248,4.4,3.19,15.14,0.0149952145293,-0.130755111575,0.513860285282,0.0,0.0,0.0,0.635479152203,-0.04,0.0,-0.16,0.0
1523828638.16131186,19826714,4.4,3.18,15.16,0.0146910352632,-0.131323501468,0.50492054224,0.0,0.0,0.0,0.626040160656,-0.04,0.0,-0.16,0.0
1523828638.20147491,19866877,4.4,3.18,15.18,0.0153342569247,-0.132197469473,0.49845713377,0.0,0.0,0.0,0.620315134525,-0.04,0.0,-0.16,0.0
1523828638.24178672,19907189,4.4,3.18,15.21,0.0154919084162,-0.132135629654,0.488959997892,0.0,0.0,0.0,0.609747231007,-0.05,0.0,-0.16,0.0
1523828638.28129673,19946699,4.41,3.18,15.22,0.0157757159323,-0.132551968098,0.481227517128,0.0,0.0,0.0,0.601604580879,-0.05,0.0,-0.16,0.0
1523828638.32226491,19987667,4.41,3.18,15.24,0.01606336236,-0.133176743984,0.472917199135,0.0,0.0,0.0,0.592804670334,-0.06,0.0,-0.16,0.0
1523828638.36140490,20026807,4.41,3.18,15.26,0.0163803584874,-0.133116096258,0.464181572199,0.0,0.0,0.0,0.582255005836,-0.06,0.0,-0.16,0.0
1523828638.40105677,20066459,4.41,3.18,15.27,0.0166950449347,-0.133786201477,0.457497000694,0.0,0.0,0.0,0.574557185173,-0.06,0.0,-0.16,0.0
1523828638.44174075,20107143,4.41,3.17,15.28,0.0165883526206,-0.133204370737,0.446171998978,0.0,0.0,0.0,0.560173630714,-0.07,0.01,-0.15,0.0
1523828638.48164392,20147046,4.41,3.17,15.29,0.0168888904154,-0.133232444525,0.437440752983,0.0,0.0,0.0,0.548947751522,-0.07,0.01,-0.15,0.0
1523828638.52218771,20187590,4.42,3.17,15.3,0.0173435732722,-0.132965758443,0.428319662809,0.0,0.0,0.0,0.536828994751,-0.08,0.01,-0.15,0.0
1523828638.56113887,20226541,4.42,3.17,15.31,0.017297450453,-0.132665917277,0.418588042259,0.0,0.0,0.0,0.524067699909,-0.08,0.01,-0.16,0.0
1523828638.60175681,20267159,4.42,3.17,15.32,0.0178020875901,-0.132865056396,0.410795003176,0.0,0.0,0.0,0.51461648941,-0.08,0.01,-0.16,0.0
1523828638.64215994,20307562,4.43,3.17,15.33,0.0180508550256,-0.132013440132,0.400774002075,0.0,0.0,0.0,0.500736176968,-0.08,0.01,-0.16,0.0
1523828638.68092775,20346330,4.43,3.17,15.34,0.0181992314756,-0.131727680564,0.392793416977,0.0,0.0,0.0,0.490217506886,-0.08,0.01,-0.16,0.0
1523828638.72213387,20387536,4.44,3.16,15.35,0.0182299315929,-0.130951464176,0.383891701698,0.0,0.0,0.0,0.478260308504,-0.09,0.01,-0.16,0.0
1523828638.76103377,20426436,4.44,3.16,15.37,0.0181914865971,-0.130045235157,0.3749358356,0.0,0.0,0.0,0.465574651957,-0.09,0.01,-0.15,0.0
1523828638.80153084,20466933,4.44,3.16,15.37,0.0180899500847,-0.129565268755,0.367056161165,0.0,0.0,0.0,0.455374389887,-0.09,0.01,-0.15,0.0
1523828638.84234977,20507752,4.45,3.16,15.38,0.0180477742106,-0.128325939178,0.357440859079,0.0,0.0,0.0,0.441462665796,-0.1,0.01,-0.15,0.0
1523828638.88120580,20546608,4.45,3.16,15.39,0.0177994761616,-0.127648591995,0.349527060986,0.0,0.0,0.0,0.430795967579,-0.1,0.01,-0.15,0.0
1523828638.92216778,20587570,4.46,3.15,15.4,0.0173847191036,-0.127060756087,0.340982228518,0.0,0.0,0.0,0.419443130493,-0.11,0.01,-0.15,0.0
1523828638.96119976,20626602,4.46,3.15,15.41,0.0174004230648,-0.125979408622,0.333008289337,0.0,0.0,0.0,0.407621532679,-0.11,0.01,-0.15,0.0
1523828639.00150990,20666912,4.47,3.15,15.42,0.0177044086158,-0.125593066216,0.326595336199,0.0,0.0,0.0,0.398780941963,-0.11,0.01,-0.15,0.0
1523828639.04182577,20707228,4.47,3.15,15.42,0.0177433993667,-0.124091558158,0.317311346531,0.0,0.0,0.0,0.3845461905,-0.12,0.01,-0.15,0.0
1523828639.08091879,20746321,4.48,3.15,15.43,0.017536021769,-0.123534567654,0.30962651968,0.0,0.0,0.0,0.374049425125,-0.12,0.01,-0.15,0.0
1523828639.12208772,20787490,4.49,3.15,15.44,0.0175929255784,-0.122468665242,0.301697939634,0.0,0.0,0.0,0.361402541399,-0.13,0.01,-0.15,0.0
1523828639.16107988,20826482,4.5,3.15,15.45,0.0173171740025,-0.121278591454,0.292770504951,0.0,0.0,0.0,0.347879350185,-0.13,0.01,-0.15,0.0
1523828639.20150590,20866908,4.5,3.14,15.46,0.0172889195383,-0.120621934533,0.285812169313,0.0,0.0,0.0,0.337596774101,-0.13,0.01,-0.15,0.0
1523828639.24226975,20907672,4.51,3.14,15.47,0.0170322749764,-0.118821963668,0.275815546513,0.0,0.0,0.0,0.321426808834,-0.14,0.01,-0.15,0.0
1523828639.28102183,20946424,4.51,3.14,15.48,0.0165886469185,-0.117593057454,0.267298400402,0.0,0.0,0.0,0.308451414108,-0.14,0.01,-0.15,0.0
1523828639.32204175,20987444,4.52,3.14,15.48,0.0162438284606,-0.116199493408,0.259039700031,0.0,0.0,0.0,0.294875502586,-0.15,0.02,-0.15,0.0
1523828639.36110973,21026512,4.53,3.14,15.49,0.0160849262029,-0.114929832518,0.249975934625,0.0,0.0,0.0,0.280908316374,-0.15,0.02,-0.15,0.0
1523828639.40148473,21066887,4.53,3.13,15.5,0.0161807760596,-0.114029765129,0.242975011468,0.0,0.0,0.0,0.269584566355,-0.15,0.02,-0.15,0.0
1523828639.44169593,21107098,4.54,3.13,15.51,0.0156359933317,-0.112421929836,0.235283926129,0.0,0.0,0.0,0.257544696331,-0.16,0.02,-0.15,0.0
1523828639.48104978,21146452,4.55,3.13,15.52,0.0155356088653,-0.110904559493,0.22947460413,0.0,0.0,0.0,0.247698754072,-0.16,0.02,-0.15,0.0
1523828639.52231884,21187721,4.55,3.13,15.53,0.0153591213748,-0.109734021127,0.222719579935,0.0,0.0,0.0,0.237305924296,-0.16,0.02,-0.15,0.0
1523828639.56158185,21226984,4.56,3.13,15.53,0.0150352129713,-0.107937715948,0.215553566813,0.0,0.0,0.0,0.225949570537,-0.16,0.02,-0.14,0.0
1523828639.60153174,21266934,4.57,3.12,15.54,0.0149987023324,-0.106898225844,0.20995028317,0.0,0.0,0.0,0.217096433043,-0.16,0.02,-0.14,0.0
1523828639.64170074,21307103,4.58,3.12,15.55,0.0147077320144,-0.104995049536,0.20194503665,0.0,0.0,0.0,0.203084468842,-0.17,0.02,-0.14,0.0
1523828639.68091893,21346321,4.58,3.12,15.55,0.0144385397434,-0.103691712022,0.195073351264,0.0,0.0,0.0,0.19180560112,-0.17,0.02,-0.14,0.0
1523828639.72196674,21387369,4.59,3.12,15.56,0.0140701653436,-0.102268256247,0.188744649291,0.0,0.0,0.0,0.181065931916,-0.18,0.02,-0.14,0.0
1523828639.76130080,21426703,4.6,3.12,15.57,0.0135690802708,-0.100542940199,0.18222565949,0.0,0.0,0.0,0.170847848058,-0.18,0.02,-0.14,0.0
1523828639.80166292,21467065,4.61,3.12,15.58,0.013525493443,-0.0993473529816,0.177284985781,0.0,0.0,0.0,0.162892267108,-0.18,0.02,-0.14,0.0
1523828639.84229779,21507700,4.62,3.12,15.58,0.0131083298475,-0.0972357988358,0.171247124672,0.0,0.0,0.0,0.152347385883,-0.19,0.02,-0.14,0.0
1523828639.88132787,21546730,4.62,3.12,15.59,0.0128389270976,-0.0959694758058,0.166407868266,0.0,0.0,0.0,0.144218832254,-0.19,0.02,-0.14,0.0
1523828639.92192674,21587329,4.63,3.12,15.6,0.0125888446346,-0.0946499407291,0.160901576281,0.0,0.0,0.0,0.135253384709,-0.19,0.02,-0.14,0.0
1523828639.96098089,21626383,4.64,3.11,15.61,0.0120708635077,-0.0924815014005,0.155574575067,0.0,0.0,0.0,0.126127913594,-0.19,0.02,-0.15,0.0
1523828640.00154686,21666949,4.64,3.11,15.63,0.011585643515,-0.0908920988441,0.151577010751,0.0,0.0,0.0,0.119048714638,-0.19,0.02,-0.15,0.0
1523828640.04179072,21707193,4.65,3.11,15.64,0.0112790204585,-0.0889219194651,0.145995572209,0.0,0.0,0.0,0.10945738852,-0.2,0.02,-0.15,0.0
1523828640.08141279,21746815,4.66,3.11,15.66,0.0108092287555,-0.0874504595995,0.141363173723,0.0,0.0,0.0,0.102053724229,-0.2,0.02,-0.15,0.0
1523828640.12192273,21787325,4.66,3.11,15.68,0.010424326174,-0.0858580097556,0.136136829853,0.0,0.0,0.0,0.0932496488094,-0.21,0.02,-0.15,0.0
1523828640.16102290,21826425,4.67,3.11,15.7,0.0100363856182,-0.084349103272,0.130574524403,0.0,0.0,0.0,0.0834726244211,-0.21,0.02,-0.16,0.0
1523828640.20203590,21867438,4.68,3.1,15.72,0.00994746945798,-0.0833795443177,0.126121640205,0.0,0.0,0.0,0.0756094902754,-0.21,0.02,-0.16,0.0
1523828640.24186182,21907264,4.68,3.1,15.74,0.00942881032825,-0.0818098708987,0.118760101497,0.0,0.0,0.0,0.063631221652,-0.21,0.02,-0.16,0.0
1523828640.28097391,21946376,4.69,3.1,15.76,0.00930953770876,-0.080414801836,0.113375477493,0.0,0.0,0.0,0.0538334809244,-0.21,0.02,-0.16,0.0
1523828640.32183671,21987239,4.7,3.1,15.78,0.0089825950563,-0.0791741833091,0.107754521072,0.0,0.0,0.0,0.0443245396018,-0.22,0.02,-0.16,0.0
1523828640.36135173,22026754,4.7,3.1,15.8,0.00852535013109,-0.0777846500278,0.102266214788,0.0,0.0,0.0,0.034939173609,-0.22,0.02,-0.15,0.0
1523828640.40169382,22067096,4.71,3.1,15.82,0.00863529089838,-0.0767485573888,0.097974807024,0.0,0.0,0.0,0.027308486402,-0.22,0.02,-0.15,0.0
1523828640.44193077,22107333,4.71,3.1,15.83,0.00856642518193,-0.0750794559717,0.0917686000466,0.0,0.0,0.0,0.0158101096749,-0.22,0.02,-0.15,0.0
1523828640.48114777,22146550,4.72,3.09,15.85,0.00827345997095,-0.0737653449178,0.0864998400211,0.0,0.0,0.0,0.006378185004,-0.22,0.02,-0.15,0.0
1523828640.52218485,22187587,4.73,3.09,15.86,0.00821489468217,-0.0722689777613,0.0812401920557,0.0,0.0,0.0,-0.00355987111107,-0.23,0.02,-0.15,0.0
1523828640.56147575,22226878,4.73,3.09,15.87,0.00777739100158,-0.070907317102,0.0757433474064,0.0,0.0,0.0,-0.0137719716877,-0.23,0.03,-0.15,0.0
1523828640.60167074,22267073,4.74,3.09,15.89,0.00789444986731,-0.0698513314128,0.0709666088223,0.0,0.0,0.0,-0.0221938379109,-0.23,0.03,-0.15,0.0
1523828640.64181876,22307221,4.75,3.09,15.9,0.00756019633263,-0.0680989101529,0.0657708123326,0.0,0.0,0.0,-0.032283462584,-0.23,0.03,-0.15,0.0
1523828640.68098187,22346384,4.75,3.09,15.91,0.00736712571234,-0.0669746920466,0.0611847229302,0.0,0.0,0.0,-0.0406403914094,-0.23,0.03,-0.15,0.0
1523828640.72221589,22387618,4.76,3.09,15.92,0.00709765776992,-0.0656413137913,0.0573555417359,0.0,0.0,0.0,-0.0492823719978,-0.24,0.03,-0.15,0.0
1523828640.76151371,22426916,4.76,3.09,15.93,0.00692653795704,-0.0646525397897,0.0525784045458,0.0,0.0,0.0,-0.0580861531198,-0.24,0.03,-0.15,0.0
1523828640.80165076,22467053,4.77,3.09,15.94,0.006360121537,-0.063580326736,0.049138866365,0.0,0.0,0.0,-0.065331235528,-0.24,0.03,-0.15,0.0
1523828640.84254980,22507952,4.77,3.08,15.95,0.00605970388278,-0.0622455812991,0.0451766066253,0.0,0.0,0.0,-0.0733787640929,-0.24,0.03,-0.15,0.0
1523828640.88111281,22546515,4.78,3.08,15.96,0.005741531495,-0.0611457638443,0.0420350879431,0.0,0.0,0.0,-0.079966366291,-0.24,0.03,-0.15,0.0
1523828640.92188883,22587291,4.78,3.08,15.97,0.00545049598441,-0.0603291317821,0.038068331778,0.0,0.0,0.0,-0.0876729339361,-0.25,0.03,-0.15,0.0
1523828640.96106386,22626466,4.78,3.08,15.98,0.0050252135843,-0.0590156950057,0.0340081006289,0.0,0.0,0.0,-0.0963456556201,-0.25,0.03,-0.15,0.0
1523828641.00150871,22666911,4.79,3.08,15.99,0.00499054882675,-0.0580470487475,0.0304142776877,0.0,0.0,0.0,-0.103498101234,-0.24,0.03,-0.15,0.0
1523828641.04184794,22707250,4.79,3.08,16.0,0.00484159728512,-0.0568240098655,0.0240547731519,0.0,0.0,0.0,-0.115601345897,-0.25,0.03,-0.15,0.0
1523828641.08131576,22746718,4.8,3.08,16.02,0.00512007577345,-0.0559329204261,0.0195319615304,0.0,0.0,0.0,-0.125891655684,-0.25,0.03,-0.15,0.0
1523828641.12193179,22787334,4.8,3.08,16.03,0.00511331250891,-0.0552304424345,0.0161708965898,0.0,0.0,0.0,-0.133342474699,-0.25,0.03,-0.15,0.0
1523828641.16139984,22826802,4.8,3.08,16.04,0.00505046499893,-0.0541127286851,0.0132775520906,0.0,0.0,0.0,-0.138373121619,-0.25,0.03,-0.15,0.0
1523828641.20158792,22866990,4.81,3.08,16.06,0.00472599454224,-0.053263861686,0.0113545302302,0.0,0.0,0.0,-0.142435073853,-0.25,0.03,-0.15,0.0
1523828641.24201083,22907413,4.81,3.08,16.07,0.00487818941474,-0.0520400926471,0.0110768415034,0.0,0.0,0.0,-0.142471045256,-0.26,0.03,-0.16,0.0
1523828641.28198385,22947386,4.81,3.08,16.09,0.00451713986695,-0.0509511753917,0.0111756492406,0.0,0.0,0.0,-0.142058208585,-0.26,0.03,-0.16,0.0
1523828641.32198071,22987383,4.82,3.07,16.1,0.00398698728532,-0.0496844351292,0.0127076264471,0.0,0.0,0.0,-0.137573197484,-0.26,0.03,-0.16,0.0
1523828641.36141491,23026817,4.82,3.07,16.12,0.00389596866444,-0.0484755262733,0.0162265580148,0.0,0.0,0.0,-0.129599004984,-0.26,0.03,-0.16,0.0
1523828641.40167594,23067078,4.83,3.07,16.14,0.00342958420515,-0.0476417951286,0.0194832794368,0.0,0.0,0.0,-0.121959842741,-0.26,0.03,-0.16,0.0
1523828641.44169974,23107102,4.83,3.07,16.16,0.0029797279276,-0.0468853265047,0.0243762489408,0.0,0.0,0.0,-0.110394380987,-0.26,0.03,-0.16,0.0
1523828641.48128676,23146689,4.83,3.07,16.18,0.00309586385265,-0.0461436212063,0.0291944183409,0.0,0.0,0.0,-0.0994641035795,-0.26,0.03,-0.16,0.0
1523828641.52210784,23187510,4.83,3.07,16.2,0.00271889218129,-0.0455486774445,0.0332576930523,0.0,0.0,0.0,-0.0882724970579,-0.26,0.03,-0.16,0.0
1523828641.56138873,23226791,4.84,3.07,16.22,0.00265862164088,-0.0447235926986,0.0378825999796,0.0,0.0,0.0,-0.0769025534391,-0.26,0.03,-0.17,0.0
1523828641.60159087,23266993,4.84,3.07,16.24,0.00278487754986,-0.0438737757504,0.0419419035316,0.0,0.0,0.0,-0.0660212188959,-0.26,0.03,-0.17,0.0
1523828641.64182687,23307229,4.84,3.07,16.26,0.00262566981837,-0.0429302155972,0.0458424501121,0.0,0.0,0.0,-0.0551023930311,-0.27,0.03,-0.17,0.0
1523828641.68109679,23346499,4.85,3.07,16.29,0.00232309103012,-0.0425316132605,0.0492202080786,0.0,0.0,0.0,-0.044668558985,-0.27,0.03,-0.17,0.0
1523828641.72204375,23387446,4.85,3.07,16.31,0.00207159016281,-0.0416872575879,0.0518228113651,0.0,0.0,0.0,-0.035044953227,-0.27,0.03,-0.17,0.0
1523828641.76131392,23426716,4.85,3.07,16.33,0.00168153166305,-0.0410938002169,0.0542863532901,0.0,0.0,0.0,-0.0261436253786,-0.27,0.03,-0.17,0.0
1523828641.80193090,23467333,4.85,3.07,16.36,0.00161703210324,-0.0406208671629,0.056620426476,0.0,0.0,0.0,-0.0175497550517,-0.27,0.03,-0.17,0.0
1523828641.84240294,23507805,4.86,3.07,16.38,0.00131279765628,-0.039643894881,0.0584862306714,0.0,0.0,0.0,-0.00859578512609,-0.27,0.03,-0.18,0.0
1523828641.88114786,23546550,4.86,3.07,16.41,0.00113412179053,-0.0392152890563,0.0608112439513,0.0,0.0,0.0,7.16052018106e-05,-0.27,0.03,-0.18,0.0
1523828641.92193389,23587336,4.86,3.07,16.43,0.00119190383703,-0.0382519178092,0.063133828342,0.0,0.0,0.0,0.00824669748545,-0.27,0.03,-0.18,0.0
1523828641.96116376,23626566,4.86,3.07,16.45,0.00115896621719,-0.0376416668296,0.0647218674421,0.0,0.0,0.0,0.0159619580954,-0.27,0.03,-0.18,0.0
1523828642.00153494,23666937,4.86,3.07,16.48,0.000885813380592,-0.0370890684426,0.066065274179,0.0,0.0,0.0,0.023512294516,-0.27,0.03,-0.18,0.0
1523828642.04186177,23707264,4.87,3.07,16.5,0.00057210365776,-0.036142244935,0.0677414983511,0.0,0.0,0.0,0.0314812958241,-0.27,0.03,-0.18,0.0
1523828642.08132982,23746732,4.87,3.07,16.52,0.000808914774098,-0.0356106944382,0.0697762221098,0.0,0.0,0.0,0.0392072796822,-0.27,0.03,-0.18,0.0
1523828642.12236786,23787770,4.87,3.07,16.54,0.000707852945197,-0.0350615754724,0.0716654509306,0.0,0.0,0.0,0.0467978194356,-0.28,0.03,-0.18,0.0
1523828642.16118574,23826588,4.87,3.07,16.56,0.000301588792354,-0.0343170277774,0.0734913051128,0.0,0.0,0.0,0.0542623698711,-0.28,0.03,-0.18,0.0
1523828642.20149183,23866894,4.88,3.07,16.57,0.000176160538103,-0.0338110178709,0.0750426948071,0.0,0.0,0.0,0.0615350753069,-0.28,0.03,-0.18,0.0
1523828642.24215078,23907553,4.88,3.07,16.59,-0.000166348574567,-0.0328870266676,0.0762241333723,0.0,0.0,0.0,0.0683431252837,-0.28,0.03,-0.17,0.0
1523828642.28144288,23946845,4.88,3.07,16.6,-0.000776255270466,-0.0325824432075,0.077704437077,0.0,0.0,0.0,0.074969612062,-0.28,0.03,-0.17,0.0
1523828642.32205081,23987453,4.88,3.07,16.61,-0.000848086434416,-0.0320156365633,0.0784061029553,0.0,0.0,0.0,0.0803586021066,-0.28,0.03,-0.17,0.0
1523828642.36130476,24026707,4.88,3.07,16.63,-0.000993022695184,-0.0315834619105,0.0783573612571,0.0,0.0,0.0,0.0849161595106,-0.28,0.03,-0.17,0.0
1523828642.40121174,24066614,4.88,3.07,16.64,-0.00142223935109,-0.0312876999378,0.0790344104171,0.0,0.0,0.0,0.089426741004,-0.28,0.03,-0.17,0.0
1523828642.44200277,24107405,4.88,3.07,16.65,-0.00221216562204,-0.0307461507618,0.0790841132402,0.0,0.0,0.0,0.0939905792475,-0.28,0.03,-0.17,0.0
1523828642.48109484,24146497,4.89,3.07,16.66,-0.00259048608132,-0.0302853770554,0.0793627724051,0.0,0.0,0.0,0.0985618904233,-0.28,0.03,-0.17,0.0
1523828642.52200079,24187403,4.89,3.07,16.67,-0.00266766687855,-0.0299259349704,0.0791065841913,0.0,0.0,0.0,0.102532818913,-0.28,0.03,-0.17,0.0
1523828642.56114674,24226549,4.89,3.07,16.69,-0.00307624787092,-0.0294432155788,0.0786758884788,0.0,0.0,0.0,0.10597743839,-0.28,0.03,-0.17,0.0
1523828642.60166693,24267069,4.89,3.07,16.7,-0.00277450797148,-0.0294449292123,0.0788427740335,0.0,0.0,0.0,0.109603486955,-0.28,0.03,-0.17,0.0
1523828642.64193583,24307338,4.89,3.07,16.71,-0.00296613224782,-0.0290806423873,0.0787690728903,0.0,0.0,0.0,0.112923748791,-0.28,0.03,-0.17,0.0
1523828642.68132472,24346727,4.89,3.07,16.72,-0.00321778282523,-0.0289242081344,0.0790132060647,0.0,0.0,0.0,0.116440705955,-0.28,0.03,-0.17,0.0
1523828642.72204685,24387449,4.9,3.07,16.73,-0.00355935283005,-0.0288828723133,0.078903965652,0.0,0.0,0.0,0.119409069419,-0.29,0.03,-0.17,0.0
1523828642.76115775,24426560,4.9,3.07,16.74,-0.00339204235934,-0.0286572147161,0.0788680315018,0.0,0.0,0.0,0.121924623847,-0.29,0.03,-0.17,0.0
1523828642.80144191,24466844,4.9,3.07,16.75,-0.00358949718066,-0.0287362840027,0.0785102769732,0.0,0.0,0.0,0.124718144536,-0.29,0.03,-0.17,0.0
1523828642.84226084,24507663,4.9,3.07,16.77,-0.00377088389359,-0.0287273935974,0.0777175500989,0.0,0.0,0.0,0.126126229763,-0.29,0.03,-0.17,0.0
1523828642.88161588,24547018,4.9,3.07,16.78,-0.00374224199913,-0.0282977931201,0.0773522183299,0.0,0.0,0.0,0.127923071384,-0.29,0.03,-0.17,0.0
1523828642.92195892,24587361,4.9,3.07,16.79,-0.00352499098517,-0.028298009187,0.0762821063399,0.0,0.0,0.0,0.129333421588,-0.29,0.03,-0.17,0.0
1523828642.96118474,24626587,4.9,3.06,16.8,-0.00360480463132,-0.0281984657049,0.0758821368217,0.0,0.0,0.0,0.130446121097,-0.29,0.03,-0.17,0.0
1523828643.00148082,24666883,4.9,3.06,16.81,-0.00399489654228,-0.0283308885992,0.0748978927732,0.0,0.0,0.0,0.131950050592,-0.29,0.03,-0.17,0.0
1523828643.04182076,24707223,4.9,3.06,16.82,-0.00422344915569,-0.0280510112643,0.0749695822597,0.0,0.0,0.0,0.134515509009,-0.29,0.04,-0.16,0.0
1523828643.08169484,24747097,4.91,3.06,16.83,-0.00451860250905,-0.0279984101653,0.0749249905348,0.0,0.0,0.0,0.137170672417,-0.29,0.04,-0.16,0.0
1523828643.12209582,24787498,4.91,3.06,16.83,-0.00468016695231,-0.0279649104923,0.0744977146387,0.0,0.0,0.0,0.138985723257,-0.29,0.04,-0.16,0.0
1523828643.16137385,24826776,4.91,3.06,16.84,-0.00435640430078,-0.0277982465923,0.0735041946173,0.0,0.0,0.0,0.140037462115,-0.29,0.04,-0.15,0.0
1523828643.20158386,24866986,4.91,3.06,16.84,-0.00435430696234,-0.0280291140079,0.0732031390071,0.0,0.0,0.0,0.141399130225,-0.29,0.04,-0.15,0.0
1523828643.24189878,24907301,4.91,3.06,16.84,-0.00417322712019,-0.0279384180903,0.0712864771485,0.0,0.0,0.0,0.139776945114,-0.29,0.04,-0.15,0.0
1523828643.28160882,24947011,4.91,3.06,16.84,-0.00429913029075,-0.0279269628227,0.06984025985,0.0,0.0,0.0,0.138681352139,-0.29,0.04,-0.15,0.0
1523828643.32236886,24987771,4.91,3.06,16.83,-0.00469538010657,-0.0277621112764,0.0686226338148,0.0,0.0,0.0,0.138729095459,-0.29,0.04,-0.15,0.0
1523828643.36120892,25026611,4.91,3.06,16.83,-0.0045486795716,-0.0275120660663,0.0681348145008,0.0,0.0,0.0,0.139740467072,-0.29,0.04,-0.14,0.0
1523828643.40181375,25067216,4.91,3.06,16.83,-0.00449549639598,-0.0277161765844,0.0672162249684,0.0,0.0,0.0,0.141022220254,-0.29,0.04,-0.14,0.0
1523828643.44177294,25107175,4.91,3.05,16.83,-0.00465767085552,-0.027666952461,0.0657195225358,0.0,0.0,0.0,0.14070302248,-0.3,0.04,-0.14,0.0
1523828643.48100376,25146406,4.91,3.05,16.83,-0.0047769206576,-0.0279477816075,0.0651514306664,0.0,0.0,0.0,0.14097815752,-0.3,0.04,-0.14,0.0
1523828643.52181983,25187222,4.91,3.05,16.83,-0.00492303399369,-0.0279400590807,0.0641171261668,0.0,0.0,0.0,0.140632584691,-0.3,0.04,-0.14,0.0
1523828643.56117582,25226578,4.91,3.05,16.83,-0.00527190091088,-0.0274910163134,0.0622845962644,0.0,0.0,0.0,0.139830172062,-0.3,0.04,-0.14,0.0
1523828643.60163879,25267041,4.91,3.05,16.82,-0.00539636053145,-0.0276067219675,0.0613317601383,0.0,0.0,0.0,0.139537349343,-0.3,0.04,-0.14,0.0
1523828643.64222884,25307631,4.91,3.05,16.82,-0.00522813899443,-0.0272126942873,0.0610102713108,0.0,0.0,0.0,0.14143294096,-0.3,0.04,-0.13,0.0
1523828643.68094277,25346345,4.91,3.05,16.82,-0.00515337055549,-0.0274599008262,0.0610594302416,0.0,0.0,0.0,0.143534973264,-0.3,0.04,-0.13,0.0
1523828643.72214293,25387545,4.91,3.05,16.81,-0.00510043743998,-0.0273503288627,0.06040051952,0.0,0.0,0.0,0.144734159112,-0.3,0.04,-0.13,0.0
1523828643.76105380,25426456,4.91,3.05,16.81,-0.00501152779907,-0.0274036414921,0.0599390529096,0.0,0.0,0.0,0.145195677876,-0.3,0.04,-0.12,0.0
1523828643.80152774,25466930,4.91,3.05,16.8,-0.00504600349814,-0.0273497346789,0.0597099661827,0.0,0.0,0.0,0.146032080054,-0.3,0.04,-0.12,0.0
1523828643.84244585,25507848,4.91,3.05,16.8,-0.00508811324835,-0.0272642187774,0.058309301734,0.0,0.0,0.0,0.144682511687,-0.3,0.04,-0.12,0.0
1523828643.88136077,25546763,4.91,3.05,16.79,-0.00510789640248,-0.0272200871259,0.0573403798044,0.0,0.0,0.0,0.143900617957,-0.3,0.04,-0.12,0.0
1523828643.92201877,25587421,4.91,3.05,16.79,-0.00497592240572,-0.0276036951691,0.0559091307223,0.0,0.0,0.0,0.142699241638,-0.3,0.04,-0.12,0.0
1523828643.96121073,25626613,4.91,3.05,16.78,-0.0054051540792,-0.0277289766818,0.0544125400484,0.0,0.0,0.0,0.141160339117,-0.3,0.04,-0.12,0.0
1523828644.00140786,25666810,4.91,3.05,16.78,-0.00558655615896,-0.0276215430349,0.0530447885394,0.0,0.0,0.0,0.14016006887,-0.3,0.04,-0.12,0.0
1523828644.04203987,25707442,4.91,3.05,16.78,-0.00584551645443,-0.0273120589554,0.0511214621365,0.0,0.0,0.0,0.137571439147,-0.3,0.04,-0.11,0.0
1523828644.08121181,25746614,4.91,3.05,16.77,-0.00583867030218,-0.0273179393262,0.0495606996119,0.0,0.0,0.0,0.135527819395,-0.3,0.04,-0.11,0.0
1523828644.12194490,25787347,4.91,3.05,16.77,-0.00586997019127,-0.0274676922709,0.0481094494462,0.0,0.0,0.0,0.133099377155,-0.3,0.04,-0.11,0.0
1523828644.16127777,25826680,4.91,3.05,16.77,-0.0059714675881,-0.0274125412107,0.0458595007658,0.0,0.0,0.0,0.130194425583,-0.3,0.04,-0.11,0.0
1523828644.20149183,25866894,4.91,3.04,16.77,-0.00577310519293,-0.0275552980602,0.0442301221192,0.0,0.0,0.0,0.127977579832,-0.3,0.04,-0.11,0.0
1523828644.24200678,25907409,4.91,3.05,16.77,-0.00561214936897,-0.0276664160192,0.0425763912499,0.0,0.0,0.0,0.125654935837,-0.3,0.04,-0.11,0.0
1523828644.28142476,25946827,4.91,3.04,16.77,-0.00531165814027,-0.0276762768626,0.0413678511977,0.0,0.0,0.0,0.12386585027,-0.3,0.04,-0.11,0.0
1523828644.32203388,25987436,4.91,3.04,16.77,-0.00531857134774,-0.0278471317142,0.0402394123375,0.0,0.0,0.0,0.121813826263,-0.31,0.04,-0.11,0.0
1523828644.36148787,26026890,4.91,3.04,16.76,-0.00522790523246,-0.0277337506413,0.0386445447803,0.0,0.0,0.0,0.119647994637,-0.31,0.04,-0.1,0.0
1523828644.40117884,26066581,4.91,3.04,16.76,-0.00489636370912,-0.0275908093899,0.0377478785813,0.0,0.0,0.0,0.118049494922,-0.31,0.04,-0.1,0.0
1523828644.44169784,26107100,4.91,3.04,16.76,-0.00461873039603,-0.0276263300329,0.0364989005029,0.0,0.0,0.0,0.117529571056,-0.31,0.04,-0.1,0.0
1523828644.48098683,26146389,4.91,3.04,16.76,-0.00464167259634,-0.0276654697955,0.0358182378113,0.0,0.0,0.0,0.117343783379,-0.31,0.04,-0.1,0.0
1523828644.52189684,26187299,4.91,3.04,16.76,-0.00477863894776,-0.0280947126448,0.0352088436484,0.0,0.0,0.0,0.116853028536,-0.31,0.04,-0.1,0.0
1523828644.56115580,26226558,4.9,3.04,16.76,-0.00492580281571,-0.028242032975,0.0338810011744,0.0,0.0,0.0,0.116115145385,-0.31,0.04,-0.1,0.0
1523828644.60155272,26266955,4.9,3.04,16.76,-0.0047535058111,-0.0286849047989,0.0330328680575,0.0,0.0,0.0,0.115727543831,-0.31,0.04,-0.1,0.0
1523828644.64173079,26307133,4.9,3.04,16.77,-0.00442501762882,-0.0284866653383,0.0322238616645,0.0,0.0,0.0,0.115027666092,-0.31,0.04,-0.1,0.0
1523828644.68166280,26347065,4.9,3.04,16.77,-0.00424375804141,-0.0291286595166,0.031788315624,0.0,0.0,0.0,0.114679954946,-0.31,0.04,-0.1,0.0
1523828644.72189593,26387298,4.9,3.04,16.78,-0.00454351678491,-0.0291565526277,0.0312601476908,0.0,0.0,0.0,0.113006457686,-0.31,0.04,-0.1,0.0
1523828644.76114178,26426544,4.9,3.04,16.78,-0.00425535766408,-0.0291894022375,0.0300495009869,0.0,0.0,0.0,0.110237970948,-0.31,0.04,-0.1,0.0
1523828644.80153680,26466939,4.9,3.04,16.79,-0.00389060168527,-0.029737919569,0.0290157180279,0.0,0.0,0.0,0.108052574098,-0.31,0.04,-0.1,0.0
1523828644.84245872,26507861,4.9,3.04,16.8,-0.00363518344238,-0.029886579141,0.0266680158675,0.0,0.0,0.0,0.103579208255,-0.31,0.04,-0.1,0.0
1523828644.88121772,26546620,4.9,3.04,16.81,-0.00354752875865,-0.0301470141858,0.0245602726936,0.0,0.0,0.0,0.0998337641358,-0.31,0.04,-0.1,0.0
1523828644.92223787,26587640,4.9,3.04,16.83,-0.0033967117779,-0.0303738508373,0.0232309829444,0.0,0.0,0.0,0.0963098406792,-0.31,0.04,-0.1,0.0
1523828644.96117091,26626573,4.9,3.04,16.84,-0.00274591846392,-0.0306086223572,0.0216605328023,0.0,0.0,0.0,0.0930029675364,-0.31,0.04,-0.1,0.0
1523828645.00188184,26667284,4.9,3.04,16.85,-0.00256963144056,-0.0309785548598,0.020185591653,0.0,0.0,0.0,0.0902603119612,-0.31,0.04,-0.1,0.0
1523828645.04196572,26707368,4.9,3.04,16.86,-0.00241451477632,-0.0310361105949,0.0185412187129,0.0,0.0,0.0,0.0859413221478,-0.31,0.04,-0.1,0.0
1523828645.08089375,26746296,4.9,3.04,16.87,-0.00246938853525,-0.0312777757645,0.0165716893971,0.0,0.0,0.0,0.0822943300009,-0.31,0.04,-0.1,0.0
1523828645.12198973,26787392,4.9,3.04,16.88,-0.00273962737992,-0.0314845368266,0.0143664553761,0.0,0.0,0.0,0.0788681656122,-0.31,0.04,-0.1,0.0
1523828645.16110492,26826507,4.9,3.04,16.89,-0.00249666185118,-0.0319208577275,0.0130171943456,0.0,0.0,0.0,0.0756588727236,-0.31,0.04,-0.1,0.0
1523828645.20164275,26867045,4.9,3.04,16.9,-0.00230218260549,-0.0324533693492,0.011847150512,0.0,0.0,0.0,0.0729875415564,-0.31,0.04,-0.1,0.0
1523828645.24176884,26907171,4.9,3.04,16.91,-0.00233316421509,-0.0325966402888,0.00971479527652,0.0,0.0,0.0,0.0701960623264,-0.31,0.04,-0.1,0.0
1523828645.28086782,26946270,4.9,3.03,16.92,-0.00198575458489,-0.0330804809928,0.00857190787792,0.0,0.0,0.0,0.0678568631411,-0.31,0.04,-0.1,0.0
1523828645.32277179,26988174,4.9,3.03,16.93,-0.00191383366473,-0.0330752804875,0.00771725783125,0.0,0.0,0.0,0.06507910043,-0.31,0.04,-0.1,0.0
1523828645.36110473,27026507,4.9,3.03,16.93,-0.00186091056094,-0.0333033241332,0.00690346676856,0.0,0.0,0.0,0.0619912222028,-0.31,0.04,-0.09,0.0
