timestamp,TimeUS,Status,GMS,GWk,NSats,HDop,Lat,Lng,Alt,Spd,GCrs,VZ,U
1523828626.28020477,7945607,1,0,0,0,-0.01,0.0,0.0,0.0,0.0,0.0,0.0,1
1523828626.39986277,8065265,1,78241400,0,0,99.99,39.8419216,-105.2125435,1811.05,0.0,0.0,0.0,1
1523828626.59999990,8265402,1,78241600,1997,0,99.99,39.8419216,-105.2125435,1811.05,0.0,0.0,0.0,1
1523828626.79997277,8465375,1,78241800,1997,0,99.99,39.8419216,-105.2125435,1811.05,0.0,0.0,0.0,1
1523828626.99983382,8665236,1,78242000,1997,0,99.99,39.8419216,-105.2125435,1811.05,0.0,0.0,0.0,1
1523828627.19984674,8865249,1,78242200,1997,0,99.99,39.8419216,-105.2125435,1811.05,0.0,0.0,0.0,1
1523828627.39988184,9065284,1,78242400,1997,0,99.99,39.8419216,-105.2125435,1811.05,0.0,0.0,0.0,1
1523828627.58027577,9245678,1,78242600,1997,0,99.99,39.8419216,-105.2125435,1811.05,0.0,0.0,0.0,1
1523828627.79995680,9465359,1,78242800,1997,0,99.99,39.8419216,-105.2125435,1811.05,0.0,0.0,0.0,1
1523828627.99998283,9665385,1,78243000,1997,0,99.99,39.8419216,-105.2125435,1811.05,0.0,0.0,0.0,1
1523828628.20015192,9865554,1,78243200,1997,0,99.99,39.8419216,-105.2125435,1811.05,0.0,0.0,0.0,1
1523828628.40003371,10065436,1,78243400,1997,0,99.99,39.8419216,-105.2125435,1811.05,0.0,0.0,0.0,1
1523828628.60019374,10265596,1,78243600,1997,0,99.99,39.8419216,-105.2125435,1811.05,0.0,0.0,0.0,1
1523828628.79984093,10465243,1,78243800,1997,0,99.99,39.8419216,-105.2125435,1811.05,0.0,0.0,0.0,1
1523828629.00010490,10665507,1,78244000,1997,0,99.99,39.8419216,-105.2125435,1811.05,0.0,0.0,0.0,1
1523828629.19980979,10865212,1,78244200,1997,0,99.99,39.8419216,-105.2125435,1811.05,0.0,0.0,0.0,1
1523828629.40013981,11065542,1,78244400,1997,0,99.99,39.8419216,-105.2125435,1811.05,0.0,0.0,0.0,1
1523828629.59993482,11265337,1,78244600,1997,0,99.99,39.8419216,-105.2125435,1811.05,0.0,0.0,0.0,1
1523828629.80005884,11465461,1,78244800,1997,0,99.99,39.8419216,-105.2125435,1811.05,0.0,0.0,0.0,1
1523828630.00002789,11665430,1,78245000,1997,0,99.99,39.8419216,-105.2125435,1811.05,0.0,0.0,0.0,1
1523828630.20017385,11865576,1,78245200,1997,0,99.99,39.8419216,-105.2125435,1811.05,0.0,0.0,0.0,1
1523828630.40019488,12065597,1,78245400,1997,0,99.99,39.8419216,-105.2125435,1811.05,0.0,0.0,0.0,1
1523828630.59999681,12265399,1,78245600,1997,0,99.99,39.8419216,-105.2125435,1811.05,0.0,0.0,0.0,1
1523828630.80014682,12465549,1,78245800,1997,0,99.99,39.8419216,-105.2125435,1811.05,0.0,0.0,0.0,1
1523828631.00016093,12665563,1,78246000,1997,0,99.99,39.8419216,-105.2125435,1811.05,0.0,0.0,0.0,1
1523828631.20016694,12865569,1,78246200,1997,0,99.99,39.8419216,-105.2125435,1811.05,0.0,0.0,0.0,1
1523828631.40018487,13065587,1,78246400,1997,0,99.99,39.8419216,-105.2125435,1811.05,0.0,0.0,0.0,1
1523828631.60014391,13265546,1,78246600,1997,0,99.99,39.8419216,-105.2125435,1811.05,0.0,0.0,0.0,1
1523828631.80020881,13465611,1,78246800,1997,0,99.99,39.8419216,-105.2125435,1811.05,0.0,0.0,0.0,1
1523828632.00056291,13665965,1,78247000,1997,0,99.99,39.8419216,-105.2125435,1811.05,0.0,0.0,0.0,1
1523828632.20005083,13865453,1,78247200,1997,0,99.99,39.8419216,-105.2125435,1811.05,0.0,0.0,0.0,1
1523828632.40005994,14065462,1,78247400,1997,0,99.99,39.8419216,-105.2125435,1811.05,0.0,0.0,0.0,1
1523828632.60014486,14265547,1,78247600,1997,0,99.99,39.8419216,-105.2125435,1811.05,0.0,0.0,0.0,1
1523828632.80023694,14465639,1,78247800,1997,0,99.99,39.8419216,-105.2125435,1811.05,0.0,0.0,0.0,1
1523828633.00023174,14665634,1,78248000,1997,0,99.99,39.8419216,-105.2125435,1811.05,0.0,0.0,0.0,1
1523828633.20017672,14865579,1,78248200,1997,0,99.99,39.8419216,-105.2125435,1811.05,0.0,0.0,0.0,1
1523828633.40021491,15065617,1,78248400,1997,0,99.99,39.8419216,-105.2125435,1811.05,0.0,0.0,0.0,1
1523828633.60032392,15265726,1,78248600,1997,0,99.99,39.8419216,-105.2125435,1811.05,0.0,0.0,0.0,1
1523828633.80032587,15465728,1,78248800,1997,0,99.99,39.8419216,-105.2125435,1811.05,0.0,0.0,0.0,1
1523828634.00041080,15665813,1,78249000,1997,0,99.99,39.8419216,-105.2125435,1811.05,0.0,0.0,0.0,1
1523828634.20031071,15865713,3,78249201,1997,4,2.13,39.8420065,-105.2125169,1791.68,0.20000000298,0.0,-0.0430000014603,1
1523828634.42063284,16086035,3,78249400,1997,10,0.97,39.8419484,-105.2124801,1798.55,0.0630000010133,0.0,0.199000015855,1
1523828634.60121393,16266616,3,78249600,1997,10,0.97,39.8419517,-105.2124755,1798.94,0.394000023603,0.0,0.194000005722,1
1523828634.80122185,16466624,3,78249800,1997,12,0.97,39.8419561,-105.2124704,1801.18,0.224000006914,0.0,0.0329999998212,1
1523828635.00130391,16666706,3,78250000,1997,12,0.86,39.8419576,-105.2124726,1802.56,0.302000015974,0.0,0.146999999881,1
1523828635.20113087,16866533,3,78250200,1997,13,0.82,39.8419628,-105.2124778,1805.11,0.0900000035763,0.0,0.0590000040829,1
1523828635.42193675,17087339,3,78250400,1997,13,0.83,39.8419677,-105.2124824,1807.0,0.276000022888,0.0,0.0870000049472,1
1523828635.60139775,17266800,3,78250600,1997,13,0.83,39.8419723,-105.2124853,1808.16,0.102000005543,0.0,-0.031000001356,1
1523828635.80136490,17466767,3,78250800,1997,13,0.83,39.8419744,-105.2124876,1809.13,0.0170000009239,0.0,0.0680000036955,1
1523828636.00140285,17666805,3,78251000,1997,14,0.75,39.8419784,-105.2124925,1808.96,0.0670000016689,0.0,0.0010000000475,1
1523828636.20134282,17866745,3,78251200,1997,14,0.75,39.8419832,-105.2125002,1808.94,0.0250000003725,0.0,0.0180000010878,1
1523828636.44139981,18106802,3,78251400,1997,15,0.72,39.8419868,-105.212507,1808.98,0.0430000014603,0.0,0.0960000008345,1
1523828636.60106087,18266463,3,78251600,1997,14,0.77,39.8419859,-105.2125075,1809.53,0.069000005722,0.0,0.070000000298,1
1523828636.80131292,18466715,3,78251800,1997,14,0.77,39.8419848,-105.2125085,1810.1,0.0490000024438,0.0,0.0780000016093,1
1523828637.00150180,18666904,3,78252000,1997,15,0.73,39.8419847,-105.2125104,1810.43,0.0650000050664,0.0,-0.0300000011921,1
1523828637.20120883,18866611,3,78252200,1997,15,0.73,39.8419845,-105.2125122,1810.72,0.0840000063181,0.0,0.12800000608,1
1523828637.40111089,19066513,3,78252400,1997,17,0.67,39.8419853,-105.2125164,1810.67,0.0640000030398,0.0,-0.0170000009239,1
1523828637.60138679,19266789,3,78252600,1997,17,0.67,39.8419865,-105.2125194,1810.69,0.0340000018477,0.0,0.0390000008047,1
1523828637.80120087,19466603,3,78252800,1997,17,0.67,39.841987,-105.21252,1810.95,0.0910000056028,0.0,0.0560000017285,1
1523828638.00120473,19666607,3,78253000,1997,17,0.67,39.8419871,-105.2125202,1811.1,0.0650000050664,0.0,0.112000003457,1
1523828638.20100880,19866411,3,78253200,1997,17,0.67,39.8419864,-105.2125197,1811.15,0.0720000043511,0.0,0.0329999998212,1
1523828638.42205191,20087454,3,78253400,1997,17,0.67,39.8419855,-105.2125198,1811.28,0.0120000001043,0.0,0.0450000017881,1
1523828638.60111690,20266519,3,78253600,1997,17,0.67,39.8419847,-105.2125204,1811.54,0.0720000043511,0.0,-0.0270000007004,1
1523828638.80116177,20466564,3,78253800,1997,17,0.67,39.8419838,-105.2125205,1811.75,0.0390000008047,0.0,-0.00800000037998,1
1523828639.00117874,20666581,3,78254000,1997,17,0.67,39.8419827,-105.2125205,1811.92,0.062000002712,0.0,-0.0170000009239,1
1523828639.20098472,20866387,3,78254200,1997,17,0.67,39.8419822,-105.2125207,1812.12,0.0460000038147,0.0,0.0240000002086,1
1523828639.40115094,21066553,3,78254400,1997,17,0.67,39.8419816,-105.212521,1812.25,0.0730000063777,0.0,-0.0540000014007,1
1523828639.60096884,21266371,3,78254600,1997,17,0.67,39.841981,-105.2125217,1812.4,0.0780000016093,0.0,-0.108000002801,1
1523828639.80112290,21466525,3,78254800,1997,17,0.67,39.8419806,-105.2125224,1812.56,0.0400000028312,0.0,0.0670000016689,1
1523828640.00119591,21666598,3,78255000,1997,17,0.67,39.8419805,-105.212523,1812.69,0.0580000020564,0.0,-0.00600000005215,1
1523828640.20120192,21866604,3,78255200,1997,17,0.67,39.8419804,-105.2125236,1812.82,0.123000003397,0.0,-0.105000004172,1
1523828640.40134883,22066751,3,78255400,1997,17,0.67,39.8419801,-105.2125243,1812.96,0.0500000007451,0.0,-0.0540000014007,1
1523828640.60117173,22266574,3,78255600,1997,17,0.67,39.8419798,-105.2125249,1813.05,0.0380000025034,0.0,-0.0500000007451,1
1523828640.80133677,22466739,3,78255800,1997,17,0.67,39.8419793,-105.212525,1813.19,0.031000001356,0.0,-0.00400000018999,1
1523828641.00114584,22666548,3,78256000,1997,17,0.67,39.8419786,-105.2125252,1813.3,0.062000002712,0.0,-0.00700000021607,1
1523828641.20120287,22866605,3,78256200,1997,17,0.67,39.841978,-105.2125254,1813.48,0.0270000007004,0.0,-0.015000000596,1
1523828641.40136194,23066764,3,78256400,1997,17,0.67,39.8419775,-105.2125256,1813.6,0.042000003159,0.0,-0.0360000021756,1
1523828641.60118890,23266591,3,78256600,1997,17,0.67,39.8419772,-105.2125259,1813.72,0.0250000003725,0.0,-0.0590000040829,1
1523828641.80138874,23466791,3,78256800,1997,17,0.67,39.8419769,-105.2125263,1813.84,0.015000000596,0.0,-0.0870000049472,1
1523828642.00114775,23666550,3,78257000,1997,17,0.67,39.8419765,-105.2125264,1813.98,0.0630000010133,0.0,-0.116000004113,1
1523828642.20116186,23866564,3,78257200,1997,17,0.67,39.8419761,-105.2125266,1814.14,0.0810000002384,0.0,-0.00400000018999,1
1523828642.40093374,24066336,3,78257400,1997,17,0.67,39.8419758,-105.2125267,1814.26,0.0580000020564,0.0,-0.00400000018999,1
1523828642.60110974,24266512,3,78257600,1997,17,0.67,39.8419754,-105.2125269,1814.4,0.0380000025034,0.0,-0.101000003517,1
1523828642.80104780,24466450,3,78257800,1997,17,0.67,39.8419749,-105.2125269,1814.52,0.0190000012517,0.0,-0.0140000004321,1
1523828643.00114679,24666549,3,78258000,1997,17,0.67,39.8419746,-105.212527,1814.59,0.0360000021756,0.0,-0.0490000024438,1
1523828643.20130587,24866708,3,78258200,1997,17,0.67,39.8419745,-105.2125269,1814.63,0.070000000298,0.0,0.01600000076,1
1523828643.40122294,25066625,3,78258400,1997,17,0.67,39.8419743,-105.2125271,1814.69,0.0250000003725,0.0,0.0810000002384,1
1523828643.60109878,25266501,3,78258600,1997,17,0.67,39.8419739,-105.2125272,1814.74,0.0870000049472,0.0,0.0320000015199,1
1523828643.80113673,25466539,3,78258800,1997,17,0.67,39.8419736,-105.2125273,1814.8,0.0360000021756,0.0,-0.0250000003725,1
1523828644.00114775,25666550,3,78259000,1997,17,0.67,39.8419731,-105.2125277,1814.91,0.116000004113,0.0,-0.00700000021607,1
1523828644.20103192,25866434,3,78259200,1997,17,0.67,39.8419727,-105.212528,1814.97,0.0180000010878,0.0,-0.0890000015497,1
1523828644.40084291,26066245,3,78259400,1997,17,0.67,39.8419725,-105.212528,1815.03,0.00400000018999,0.0,-0.0560000017285,1
1523828644.60134172,26266744,3,78259600,1997,17,0.67,39.8419724,-105.2125283,1815.05,0.047000002116,0.0,-0.0760000050068,1
1523828644.80118585,26466588,3,78259800,1997,17,0.67,39.8419723,-105.2125287,1815.08,0.00900000054389,0.0,-0.0930000022054,1
1523828645.00117373,26666576,3,78260000,1997,17,0.67,39.8419723,-105.2125289,1815.09,0.0260000005364,0.0,-0.0790000036359,1
1523828645.20117378,26866576,3,78260200,1997,17,0.67,39.8419724,-105.2125291,1815.12,0.062000002712,0.0,-0.120000004768,1
1523828645.40108871,27066491,3,78260400,1997,17,0.67,39.8419726,-105.2125291,1815.12,0.10000000149,0.0,-0.0740000009537,1
1523828645.60119176,27266594,3,78260600,1997,17,0.67,39.8419729,-105.2125293,1815.13,0.042000003159,0.0,-0.082000002265,1
1523828645.80139589,27466798,3,78260800,1997,17,0.67,39.841973,-105.2125295,1815.13,0.0890000015497,0.0,-0.0520000010729,1
1523828646.00109792,27666500,3,78261000,1997,17,0.67,39.8419731,-105.2125299,1815.17,0.070000000298,0.0,-0.0240000002086,1
1523828646.20101476,27866417,3,78261200,1997,17,0.67,39.8419733,-105.2125301,1815.19,0.0600000023842,0.0,-0.0140000004321,1
1523828646.40120173,28066604,3,78261400,1997,17,0.67,39.8419732,-105.21253,1815.2,0.069000005722,0.0,-0.047000002116,1
1523828646.60130692,28266709,3,78261600,1997,17,0.67,39.8419731,-105.21253,1815.2,0.0630000010133,0.0,0.00400000018999,1
1523828646.80115390,28466556,3,78261800,1997,17,0.67,39.8419729,-105.2125303,1815.24,0.0640000030398,0.0,0.0240000002086,1
1523828647.00096178,28666364,3,78262000,1997,17,0.67,39.8419728,-105.2125304,1815.25,0.0520000010729,0.0,-0.042000003159,1
1523828647.20092678,28866329,3,78262200,1997,17,0.67,39.8419729,-105.2125306,1815.3,0.0340000018477,0.0,-0.119000002742,1
1523828647.40113783,29066540,3,78262400,1997,17,0.67,39.8419729,-105.2125307,1815.31,0.0430000014603,0.0,0.0570000037551,1
1523828647.60089183,29266294,3,78262600,1997,17,0.67,39.841973,-105.2125309,1815.31,0.0380000025034,0.0,-0.0210000015795,1
1523828647.80109787,29466500,3,78262800,1997,17,0.67,39.8419731,-105.2125311,1815.35,0.0190000012517,0.0,-0.0400000028312,1
1523828648.00099993,29666402,3,78263000,1997,17,0.67,39.8419732,-105.2125314,1815.39,0.0250000003725,0.0,0.0640000030398,1
1523828648.20114183,29866544,3,78263200,1997,17,0.67,39.8419733,-105.2125317,1815.41,0.0560000017285,0.0,0.0100000007078,1
1523828648.40151381,30066916,3,78263400,1997,17,0.67,39.8419732,-105.212532,1815.48,0.0290000010282,0.0,0.0260000005364,1
1523828648.60141873,30266821,3,78263600,1997,17,0.67,39.8419733,-105.2125324,1815.55,0.0580000020564,0.0,0.0380000025034,1
1523828648.80119872,30466601,3,78263800,1997,17,0.67,39.8419732,-105.2125327,1815.6,0.121000006795,0.0,0.0220000017434,1
1523828649.00130486,30666707,3,78264000,1997,17,0.67,39.8419732,-105.212533,1815.62,0.0790000036359,0.0,0.0220000017434,1
1523828649.20130372,30866706,3,78264200,1997,17,0.67,39.8419732,-105.2125331,1815.67,0.0450000017881,0.0,0.00800000037998,1
1523828649.40131593,31066718,3,78264400,1997,17,0.67,39.8419732,-105.2125331,1815.72,0.0630000010133,0.0,-0.0930000022054,1
1523828649.60104179,31266444,3,78264600,1997,17,0.67,39.841973,-105.2125331,1815.78,0.0659999996424,0.0,-0.0329999998212,1
1523828649.80112672,31466529,3,78264800,1997,17,0.67,39.841973,-105.2125331,1815.84,0.0570000037551,0.0,-0.0870000049472,1
1523828650.00103688,31666439,3,78265000,1997,17,0.67,39.8419731,-105.2125332,1815.86,0.0360000021756,0.0,-0.0200000014156,1
1523828650.20116973,31866572,3,78265200,1997,17,0.67,39.8419732,-105.2125333,1815.91,0.0140000004321,0.0,-0.0730000063777,1
1523828650.40114284,32066545,3,78265400,1997,17,0.67,39.8419733,-105.2125334,1815.98,0.0710000023246,0.0,-0.0990000069141,1
1523828650.60135984,32266762,3,78265600,1997,17,0.67,39.8419734,-105.2125335,1816.02,0.0200000014156,0.0,0.00400000018999,1
1523828650.80105281,32466455,3,78265800,1997,17,0.67,39.8419735,-105.2125336,1816.05,0.035000000149,0.0,-0.031000001356,1
1523828651.00106382,32666466,3,78266000,1997,17,0.67,39.8419735,-105.2125337,1816.08,0.0540000014007,0.0,-0.062000002712,1
1523828651.20138884,32866791,3,78266200,1997,17,0.67,39.8419735,-105.2125337,1816.13,0.0260000005364,0.0,-0.0250000003725,1
1523828651.40113592,33066538,3,78266400,1997,17,0.67,39.8419735,-105.2125337,1816.18,0.0300000011921,0.0,0.00600000005215,1
1523828651.60112691,33266529,3,78266600,1997,17,0.67,39.8419735,-105.2125338,1816.2,0.0120000001043,0.0,-0.062000002712,1
1523828651.80115676,33466559,3,78266800,1997,17,0.67,39.8419735,-105.2125338,1816.25,0.0440000034869,0.0,-0.0170000009239,1
1523828652.00177073,33667173,3,78267000,1997,17,0.67,39.8419736,-105.2125338,1816.28,0.0590000040829,0.0,-0.0220000017434,1
1523828652.20113373,33866536,3,78267200,1997,17,0.67,39.8419738,-105.2125338,1816.3,0.0520000010729,0.0,-0.0340000018477,1
1523828652.40117192,34066574,3,78267400,1997,17,0.67,39.841974,-105.2125339,1816.28,0.0370000004768,0.0,-0.0760000050068,1
1523828652.60108280,34266485,3,78267600,1997,17,0.67,39.8419742,-105.2125341,1816.27,0.0140000004321,0.0,-0.0220000017434,1
1523828652.80124378,34466646,3,78267800,1997,17,0.67,39.8419744,-105.2125342,1816.23,0.119000002742,0.0,0.0520000010729,1
1523828653.00111485,34666517,3,78268000,1997,17,0.67,39.8419747,-105.2125344,1816.22,0.031000001356,0.0,-0.00900000054389,1
1523828653.20105171,34866454,3,78268200,1997,17,0.67,39.8419748,-105.2125345,1816.21,0.0510000027716,0.0,0.0190000012517,1
1523828653.40088391,35066286,3,78268400,1997,17,0.67,39.8419749,-105.2125345,1816.2,0.00800000037998,0.0,-0.0110000008717,1
1523828653.60092783,35266330,3,78268600,1997,17,0.67,39.841975,-105.2125347,1816.21,0.015000000596,0.0,-0.031000001356,1
1523828653.80115581,35466558,3,78268800,1997,17,0.67,39.841975,-105.2125347,1816.22,0.0329999998212,0.0,-0.0410000011325,1
1523828654.00113487,35666537,3,78269000,1997,17,0.67,39.8419749,-105.2125347,1816.26,0.0320000015199,0.0,0.0400000028312,1
1523828654.20097280,35866375,3,78269200,1997,17,0.67,39.8419747,-105.2125347,1816.25,0.00800000037998,0.0,-0.00900000054389,1
1523828654.40100288,36066405,3,78269400,1997,17,0.67,39.8419746,-105.2125347,1816.24,0.031000001356,0.0,-0.070000000298,1
1523828654.60109687,36266499,3,78269600,1997,17,0.67,39.8419745,-105.2125346,1816.22,0.0430000014603,0.0,-0.00900000054389,1
1523828654.80102491,36466427,3,78269800,1997,17,0.67,39.8419743,-105.2125347,1816.22,0.10300000757,0.0,0.00800000037998,1
1523828655.00100589,36666408,3,78270000,1997,17,0.67,39.8419742,-105.2125346,1816.23,0.0300000011921,0.0,0.0260000005364,1
1523828655.20111084,36866513,3,78270200,1997,17,0.67,39.8419741,-105.2125343,1816.22,0.0180000010878,0.0,-0.0490000024438,1
1523828655.40107584,37066478,3,78270400,1997,17,0.67,39.841974,-105.2125342,1816.21,0.0360000021756,0.0,0.0460000038147,1
1523828655.60122085,37266623,3,78270600,1997,17,0.67,39.8419737,-105.212534,1816.21,0.0520000010729,0.0,-0.0670000016689,1
1523828655.80114675,37466549,3,78270800,1997,17,0.67,39.8419736,-105.2125336,1816.19,0.0900000035763,0.0,-0.0640000030398,1
1523828656.00106287,37666465,3,78271000,1997,17,0.67,39.8419736,-105.2125335,1816.18,0.0270000007004,0.0,-0.0300000011921,1
1523828656.20101094,37866413,3,78271200,1997,17,0.67,39.8419736,-105.2125336,1816.12,0.0800000056624,0.0,-0.158000007272,1
1523828656.40120888,38066611,3,78271400,1997,17,0.67,39.8419736,-105.2125337,1816.09,0.097000002861,0.0,-0.0280000008643,1
1523828656.60107994,38266482,3,78271600,1997,17,0.67,39.8419737,-105.2125338,1816.07,0.0340000018477,0.0,-0.0960000008345,1
1523828656.80120587,38466608,3,78271800,1997,17,0.67,39.8419737,-105.212534,1816.04,0.0670000016689,0.0,-0.0680000036955,1
1523828657.00101590,38666418,3,78272000,1997,17,0.67,39.8419738,-105.212534,1815.99,0.101000003517,0.0,-0.154000014067,1
1523828657.20108294,38866485,3,78272200,1997,17,0.67,39.8419738,-105.2125341,1815.98,0.10000000149,0.0,-0.133000001311,1
1523828657.40105891,39066461,3,78272400,1997,17,0.67,39.8419739,-105.2125339,1815.97,0.0270000007004,0.0,-0.042000003159,1
1523828657.60135794,39266760,3,78272600,1997,17,0.67,39.841974,-105.2125341,1815.97,0.0260000005364,0.0,-0.11400000751,1
1523828657.80099988,39466402,3,78272800,1997,17,0.67,39.8419742,-105.2125342,1815.93,0.0430000014603,0.0,-0.0440000034869,1
1523828658.00099277,39666395,3,78273000,1997,17,0.67,39.8419744,-105.2125342,1815.9,0.0400000028312,0.0,-0.0260000005364,1
1523828658.20109177,39866494,3,78273200,1997,17,0.67,39.8419746,-105.2125343,1815.88,0.0600000023842,0.0,-0.070000000298,1
1523828658.40138793,40066790,3,78273400,1997,17,0.67,39.8419747,-105.2125345,1815.88,0.0400000028312,0.0,-0.062000002712,1
1523828658.60107279,40266475,3,78273600,1997,17,0.67,39.8419749,-105.2125347,1815.89,0.0550000034273,0.0,-0.0730000063777,1
1523828658.80130577,40466708,3,78273800,1997,17,0.67,39.8419752,-105.2125347,1815.86,0.104000002146,0.0,0.0050000003539,1
1523828659.00116873,40666571,3,78274000,1997,17,0.67,39.8419753,-105.2125349,1815.84,0.0390000008047,0.0,-0.0610000044107,1
1523828659.20111084,40866513,3,78274200,1997,17,0.67,39.8419753,-105.2125352,1815.83,0.097000002861,0.0,0.00900000054389,1
1523828659.40120578,41066608,3,78274400,1997,17,0.67,39.8419754,-105.2125353,1815.78,0.0540000014007,0.0,0.0410000011325,1
1523828659.60104394,41266446,3,78274600,1997,17,0.67,39.8419754,-105.2125353,1815.78,0.0329999998212,0.0,0.00900000054389,1
1523828659.80105877,41466461,3,78274800,1997,17,0.67,39.8419753,-105.2125353,1815.82,0.0590000040829,0.0,-0.131000012159,1
1523828660.00110173,41666504,3,78275000,1997,17,0.67,39.8419752,-105.2125353,1815.87,0.0460000038147,0.0,-0.130000010133,1
1523828660.20137072,41866773,3,78275200,1997,17,0.67,39.8419753,-105.2125353,1815.87,0.0920000076294,0.0,-0.0570000037551,1
1523828660.40133691,42066739,3,78275400,1997,17,0.67,39.8419754,-105.2125352,1815.85,0.0860000029206,0.0,-0.0650000050664,1
1523828660.60109591,42266498,3,78275600,1997,17,0.67,39.8419756,-105.2125353,1815.85,0.01600000076,0.0,-0.0190000012517,1
1523828660.80088377,42466286,3,78275800,1997,17,0.67,39.8419756,-105.2125352,1815.83,0.0460000038147,0.0,0.0050000003539,1
1523828661.00096679,42666369,3,78276000,1997,17,0.67,39.8419757,-105.2125351,1815.81,0.10000000149,0.0,-0.0230000019073,1
1523828661.20098281,42866385,3,78276200,1997,17,0.67,39.8419757,-105.212535,1815.83,0.0810000002384,0.0,0.0530000030994,1
1523828661.40119076,43066593,3,78276400,1997,17,0.67,39.8419758,-105.2125351,1815.83,0.0400000028312,0.0,0.00800000037998,1
1523828661.60116482,43266567,3,78276600,1997,17,0.67,39.8419758,-105.2125351,1815.83,0.0890000015497,0.0,0.0320000015199,1
1523828661.80120587,43466608,3,78276800,1997,17,0.67,39.8419758,-105.2125351,1815.79,0.0430000014603,0.0,0.0500000007451,1
1523828662.00100684,43666409,3,78277000,1997,17,0.67,39.8419759,-105.2125352,1815.78,0.0360000021756,0.0,-0.00900000054389,1
1523828662.20131588,43866718,3,78277200,1997,17,0.67,39.8419759,-105.2125352,1815.8,0.0510000027716,0.0,-0.0240000002086,1
1523828662.40117073,44066573,3,78277400,1997,17,0.67,39.8419759,-105.2125353,1815.79,0.069000005722,0.0,0.0329999998212,1
1523828662.60107088,44266473,3,78277600,1997,17,0.67,39.8419757,-105.2125353,1815.8,0.102000005543,0.0,-0.0260000005364,1
1523828662.80101490,44466417,3,78277800,1997,17,0.67,39.8419756,-105.2125354,1815.8,0.0360000021756,0.0,-0.0790000036359,1
1523828663.00107980,44666482,3,78278000,1997,17,0.67,39.8419756,-105.2125357,1815.78,0.204000011086,0.0,0.0860000029206,1
1523828663.20092177,44866324,3,78278200,1997,17,0.67,39.8419757,-105.2125361,1815.76,0.146000012755,0.0,-0.015000000596,1
1523828663.40119076,45066593,3,78278400,1997,17,0.67,39.8419758,-105.2125364,1815.76,0.062000002712,0.0,0.0490000024438,1
1523828663.60112977,45266532,3,78278600,1997,17,0.67,39.8419758,-105.2125366,1815.75,0.0750000029802,0.0,0.107000008225,1
1523828663.80131793,45466720,3,78278800,1997,17,0.67,39.8419759,-105.2125368,1815.7,0.069000005722,0.0,0.158000007272,1
1523828664.00113487,45666537,3,78279000,1997,17,0.67,39.8419759,-105.212537,1815.69,0.062000002712,0.0,0.170000001788,1
1523828664.20099878,45866401,3,78279200,1997,17,0.67,39.8419758,-105.2125371,1815.72,0.0940000042319,0.0,0.256000012159,1
1523828664.40138292,46066785,3,78279400,1997,17,0.67,39.8419758,-105.2125374,1815.75,0.101000003517,0.0,0.231000006199,1
1523828664.60102892,46266431,3,78279600,1997,17,0.67,39.8419757,-105.2125376,1815.78,0.12800000608,0.0,0.234000012279,1
1523828664.80112386,46466526,3,78279800,1997,17,0.67,39.8419757,-105.2125377,1815.79,0.0900000035763,0.0,0.309000015259,1
1523828665.00089788,46666300,3,78280000,1997,17,0.67,39.8419755,-105.2125375,1815.81,0.0630000010133,0.0,0.152000010014,1
1523828665.20085192,46866254,3,78280200,1997,17,0.67,39.8419754,-105.2125374,1815.8,0.0650000050664,0.0,0.169000014663,1
1523828665.40093493,47066337,3,78280400,1997,17,0.67,39.8419753,-105.2125375,1815.85,0.062000002712,0.0,0.0480000004172,1
1523828665.60089374,47266296,3,78280600,1997,17,0.67,39.8419752,-105.2125374,1815.86,0.140000000596,0.0,0.0340000018477,1
1523828665.80098486,47466387,3,78280800,1997,17,0.67,39.8419752,-105.2125372,1815.85,0.062000002712,0.0,0.0400000028312,1
1523828666.00094390,47666346,3,78281000,1997,17,0.67,39.8419751,-105.2125372,1815.84,0.097000002861,0.0,0.062000002712,1
1523828666.20117784,47866580,3,78281200,1997,17,0.67,39.8419752,-105.2125371,1815.82,0.140000000596,0.0,-0.196000009775,1
1523828666.40106392,48066466,3,78281400,1997,17,0.67,39.8419752,-105.2125372,1815.85,0.0490000024438,0.0,-0.0840000063181,1
1523828666.60136986,48266772,3,78281600,1997,17,0.67,39.8419753,-105.2125372,1815.83,0.01600000076,0.0,-0.184000015259,1
1523828666.80117989,48466582,3,78281800,1997,17,0.67,39.8419754,-105.2125371,1815.82,0.101000003517,0.0,-0.16400000453,1
1523828667.00100374,48666406,3,78282000,1997,17,0.67,39.8419755,-105.212537,1815.84,0.0550000034273,0.0,-0.187000006437,1
1523828667.20127773,48866680,3,78282200,1997,17,0.67,39.8419756,-105.212537,1815.83,0.031000001356,0.0,-0.160000011325,1
1523828667.40097380,49066376,3,78282400,1997,17,0.67,39.8419758,-105.2125367,1815.81,0.0560000017285,0.0,-0.223000004888,1
1523828667.60094690,49266349,3,78282600,1997,17,0.67,39.8419759,-105.2125364,1815.78,0.031000001356,0.0,-0.258000016212,1
1523828667.80108881,49466491,3,78282800,1997,17,0.67,39.8419761,-105.2125361,1815.74,0.0610000044107,0.0,-0.296000003815,1
1523828668.00111294,49666515,3,78283000,1997,17,0.67,39.8419763,-105.2125361,1815.71,0.0610000044107,0.0,-0.236000016332,1
1523828668.20142078,49866823,3,78283200,1997,17,0.67,39.8419765,-105.2125362,1815.65,0.0650000050664,0.0,-0.188000008464,1
1523828668.40099072,50066393,3,78283400,1997,17,0.67,39.8419766,-105.2125362,1815.64,0.0329999998212,0.0,-0.184000015259,1
1523828668.60107183,50266474,3,78283600,1997,17,0.67,39.8419767,-105.212536,1815.63,0.0430000014603,0.0,-0.109000004828,1
1523828668.80134892,50466751,3,78283800,1997,17,0.67,39.8419769,-105.2125358,1815.58,0.042000003159,0.0,-0.152000010014,1
1523828669.00141478,50666817,3,78284000,1997,17,0.67,39.8419772,-105.2125358,1815.55,0.127000004053,0.0,-0.0850000008941,1
1523828669.20117784,50866580,3,78284200,1997,17,0.67,39.8419774,-105.2125357,1815.51,0.0290000010282,0.0,-0.145000010729,1
1523828669.40131092,51066713,3,78284400,1997,17,0.67,39.8419775,-105.2125354,1815.51,0.0390000008047,0.0,-0.110000006855,1
1523828669.60114980,51266552,3,78284600,1997,17,0.67,39.8419775,-105.2125352,1815.5,0.0790000036359,0.0,-0.137000009418,1
1523828669.80116773,51466570,3,78284800,1997,17,0.67,39.8419775,-105.2125348,1815.51,0.031000001356,0.0,-0.201000005007,1
1523828670.00115871,51666561,3,78285000,1997,17,0.67,39.8419775,-105.2125345,1815.5,0.117000006139,0.0,-0.244000017643,1
1523828670.20130181,51866704,3,78285200,1997,17,0.67,39.8419774,-105.2125343,1815.46,0.0930000022054,0.0,-0.136000007391,1
1523828670.40100694,52066409,3,78285400,1997,17,0.67,39.8419773,-105.2125343,1815.45,0.0410000011325,0.0,-0.0450000017881,1
1523828670.60112882,52266531,3,78285600,1997,17,0.67,39.8419774,-105.212534,1815.45,0.0770000070333,0.0,-0.112000003457,1
1523828670.80116487,52466567,3,78285800,1997,17,0.67,39.8419773,-105.212534,1815.42,0.0520000010729,0.0,-0.158000007272,1
1523828671.00114274,52666545,3,78286000,1997,17,0.67,39.8419775,-105.2125339,1815.41,0.0550000034273,0.0,-0.107000008225,1
1523828671.20116782,52866570,3,78286200,1997,17,0.67,39.8419776,-105.212534,1815.39,0.156000003219,0.0,-0.0520000010729,1
1523828671.40114284,53066545,3,78286400,1997,17,0.67,39.8419777,-105.2125341,1815.37,0.0530000030994,0.0,-0.0460000038147,1
1523828671.60106993,53266472,3,78286600,1997,17,0.67,39.8419778,-105.2125342,1815.34,0.104000002146,0.0,-0.069000005722,1
1523828671.80118775,53466590,3,78286800,1997,17,0.67,39.841978,-105.2125342,1815.28,0.035000000149,0.0,-0.0750000029802,1
1523828672.00098586,53666388,3,78287000,1997,17,0.67,39.841978,-105.2125341,1815.23,0.0400000028312,0.0,0.062000002712,1
1523828672.20098186,53866384,3,78287200,1997,17,0.67,39.8419781,-105.2125341,1815.19,0.0260000005364,0.0,0.0740000009537,1
1523828672.40101790,54066420,3,78287400,1997,17,0.67,39.8419781,-105.2125339,1815.18,0.0240000002086,0.0,-0.0260000005364,1
1523828672.60129786,54266700,3,78287600,1997,17,0.67,39.8419781,-105.2125338,1815.16,0.0490000024438,0.0,0.0110000008717,1
1523828672.80100489,54466407,3,78287800,1997,17,0.67,39.8419781,-105.2125338,1815.13,0.0580000020564,0.0,-0.0540000014007,1
1523828673.00089884,54666301,3,78288000,1997,17,0.67,39.8419783,-105.2125337,1815.08,0.11400000751,0.0,0.0370000004768,1
1523828673.20116282,54866565,3,78288200,1997,17,0.67,39.8419785,-105.2125336,1815.02,0.0790000036359,0.0,0.0800000056624,1
1523828673.40121675,55066619,3,78288400,1997,17,0.67,39.8419784,-105.2125334,1814.94,0.0550000034273,0.0,0.0810000002384,1
1523828673.60139894,55266801,3,78288600,1997,17,0.67,39.8419784,-105.2125331,1814.82,0.0670000016689,0.0,-0.0520000010729,1
1523828673.80112076,55466523,3,78288800,1997,17,0.67,39.8419784,-105.2125326,1814.71,0.031000001356,0.0,0.0490000024438,1
1523828674.00102687,55666429,3,78289000,1997,17,0.67,39.8419785,-105.2125322,1814.61,0.0790000036359,0.0,0.0630000010133,1
1523828674.20129681,55866699,3,78289200,1997,17,0.67,39.8419786,-105.2125317,1814.53,0.0990000069141,0.0,0.0560000017285,1
1523828674.40134478,56066747,3,78289400,1997,17,0.67,39.8419789,-105.2125313,1814.44,0.133000001311,0.0,0.0110000008717,1
1523828674.60112381,56266526,3,78289600,1997,17,0.67,39.8419789,-105.2125309,1814.38,0.0610000044107,0.0,0.102000005543,1
1523828674.80110288,56466505,3,78289800,1997,17,0.67,39.841979,-105.2125305,1814.32,0.0890000015497,0.0,0.105000004172,1
1523828675.00131989,56666722,3,78290000,1997,17,0.67,39.8419791,-105.2125302,1814.26,0.0870000049472,0.0,0.109000004828,1
1523828675.20108676,56866489,3,78290200,1997,17,0.67,39.841979,-105.2125298,1814.23,0.131999999285,0.0,0.0600000023842,1
1523828675.40112591,57066528,3,78290400,1997,17,0.67,39.8419789,-105.2125295,1814.17,0.0780000016093,0.0,0.0230000019073,1
1523828675.60093594,57266338,3,78290600,1997,17,0.67,39.841979,-105.2125291,1814.13,0.047000002116,0.0,0.0710000023246,1
1523828675.80106378,57466466,3,78290800,1997,17,0.67,39.8419791,-105.2125288,1814.11,0.0740000009537,0.0,-0.0230000019073,1
1523828676.00102973,57666432,3,78291000,1997,17,0.67,39.8419789,-105.2125285,1814.08,0.0650000050664,0.0,0.0500000007451,1
1523828676.20146275,57866865,3,78291200,1997,17,0.67,39.841979,-105.2125284,1814.02,0.042000003159,0.0,0.069000005722,1
1523828676.40104294,58066445,3,78291400,1997,17,0.67,39.8419791,-105.2125282,1813.97,0.0180000010878,0.0,-0.0510000027716,1
1523828676.60093689,58266339,3,78291600,1997,17,0.67,39.8419791,-105.2125279,1813.96,0.0480000004172,0.0,0.0710000023246,1
1523828676.80115581,58466558,3,78291800,1997,17,0.67,39.8419791,-105.2125278,1813.95,0.0670000016689,0.0,-0.0120000001043,1
1523828677.00114489,58666547,3,78292000,1997,17,0.67,39.841979,-105.2125276,1813.91,0.0810000002384,0.0,0.0460000038147,1
1523828677.20152473,58866927,3,78292200,1997,17,0.67,39.841979,-105.2125275,1813.87,0.0910000056028,0.0,0.0480000004172,1
1523828677.40114379,59066546,3,78292400,1997,17,0.67,39.8419791,-105.2125274,1813.85,0.0720000043511,0.0,-0.0360000021756,1
1523828677.60119581,59266598,3,78292600,1997,17,0.67,39.8419791,-105.2125272,1813.79,0.0360000021756,0.0,-0.11400000751,1
1523828677.80120683,59466609,3,78292800,1997,17,0.67,39.8419792,-105.2125271,1813.74,0.0670000016689,0.0,-0.0520000010729,1
1523828678.00133276,59666735,3,78293000,1997,17,0.67,39.8419792,-105.212527,1813.71,0.047000002116,0.0,0.035000000149,1
1523828678.22148371,59886886,3,78293200,1997,17,0.67,39.8419791,-105.2125269,1813.68,0.0140000004321,0.0,-0.0010000000475,1
1523828678.40112090,60066523,3,78293400,1997,17,0.67,39.841979,-105.2125267,1813.65,0.0630000010133,0.0,-0.0670000016689,1
1523828678.60140371,60266806,3,78293600,1997,17,0.67,39.8419788,-105.2125265,1813.59,0.113000005484,0.0,0.0530000030994,1
1523828678.80100989,60466412,3,78293800,1997,17,0.67,39.8419786,-105.2125264,1813.54,0.0870000049472,0.0,0.0230000019073,1
1523828679.00117183,60666574,3,78294000,1997,17,0.67,39.8419786,-105.2125262,1813.52,0.0110000008717,0.0,-0.0190000012517,1
1523828679.20113873,60866541,3,78294200,1997,17,0.67,39.8419786,-105.2125262,1813.47,0.0680000036955,0.0,-0.0490000024438,1
1523828679.40136790,61066770,3,78294400,1997,17,0.67,39.8419787,-105.2125261,1813.46,0.0680000036955,0.0,-0.0830000042915,1
1523828679.60115886,61266561,3,78294600,1997,17,0.67,39.8419788,-105.2125261,1813.43,0.0140000004321,0.0,-0.166000008583,1
1523828679.80108786,61466490,3,78294800,1997,17,0.67,39.8419788,-105.2125261,1813.39,0.0300000011921,0.0,-0.123000003397,1
1523828680.00128388,61666686,3,78295000,1997,17,0.67,39.8419788,-105.212526,1813.38,0.0930000022054,0.0,-0.161000013351,1
1523828680.20145488,61866857,3,78295200,1997,17,0.67,39.8419788,-105.2125259,1813.37,0.0400000028312,0.0,-0.140000000596,1
1523828680.40133381,62066736,3,78295400,1997,17,0.67,39.8419788,-105.2125258,1813.33,0.0870000049472,0.0,-0.0530000030994,1
1523828680.60111475,62266517,3,78295600,1997,17,0.67,39.8419787,-105.2125257,1813.28,0.069000005722,0.0,-0.0550000034273,1
1523828680.80090094,62466303,3,78295800,1997,17,0.67,39.8419788,-105.2125257,1813.26,0.0360000021756,0.0,-0.0190000012517,1
1523828681.00104189,62666444,3,78296000,1997,17,0.67,39.8419787,-105.2125257,1813.24,0.0500000007451,0.0,-0.117000006139,1
1523828681.20121479,62866617,3,78296200,1997,17,0.67,39.8419787,-105.2125256,1813.24,0.0680000036955,0.0,-0.0750000029802,1
1523828681.40105891,63066461,3,78296400,1997,17,0.67,39.8419786,-105.2125254,1813.23,0.070000000298,0.0,0.0390000008047,1
1523828681.60114074,63266543,3,78296600,1997,17,0.67,39.8419784,-105.2125253,1813.24,0.0360000021756,0.0,-0.097000002861,1
1523828681.80135393,63466756,3,78296800,1997,17,0.67,39.8419783,-105.2125252,1813.23,0.0550000034273,0.0,-0.0710000023246,1
1523828682.00117683,63666579,3,78297000,1997,17,0.67,39.8419782,-105.2125251,1813.21,0.0260000005364,0.0,-0.0400000028312,1
1523828682.20100880,63866411,3,78297200,1997,17,0.67,39.8419781,-105.2125251,1813.19,0.0650000050664,0.0,-0.0520000010729,1
1523828682.40094876,64066351,3,78297400,1997,17,0.67,39.8419781,-105.2125249,1813.19,0.0740000009537,0.0,0.0260000005364,1
1523828682.60110283,64266505,3,78297600,1997,17,0.67,39.8419779,-105.2125247,1813.18,0.0340000018477,0.0,-0.0540000014007,1
1523828682.80116987,64466572,3,78297800,1997,17,0.67,39.8419777,-105.2125246,1813.16,0.0280000008643,0.0,-0.0830000042915,1
1523828683.00102186,64666424,3,78298000,1997,17,0.67,39.8419775,-105.2125244,1813.14,0.0870000049472,0.0,0.0050000003539,1
1523828683.20112371,64866526,3,78298200,1997,17,0.67,39.8419771,-105.2125242,1813.17,0.0480000004172,0.0,-0.0280000008643,1
1523828683.40099072,65066393,3,78298400,1997,17,0.67,39.8419769,-105.212524,1813.17,0.00400000018999,0.0,-0.0130000002682,1
1523828683.60102892,65266431,3,78298600,1997,17,0.67,39.8419767,-105.2125238,1813.16,0.0600000023842,0.0,-0.0440000034869,1
1523828683.80109978,65466502,3,78298800,1997,17,0.67,39.8419766,-105.2125235,1813.13,0.0260000005364,0.0,-0.0120000001043,1
1523828684.00108981,65666492,3,78299000,1997,17,0.67,39.8419764,-105.2125233,1813.09,0.0329999998212,0.0,-0.0650000050664,1
1523828684.20100188,65866404,3,78299200,1997,17,0.67,39.8419763,-105.2125233,1813.06,0.0490000024438,0.0,-0.0710000023246,1
1523828684.40115786,66066560,3,78299400,1997,17,0.67,39.8419762,-105.2125234,1813.04,0.0910000056028,0.0,-0.0610000044107,1
1523828684.60110879,66266511,3,78299600,1997,17,0.67,39.841976,-105.2125235,1813.02,0.0300000011921,0.0,-0.10000000149,1
1523828684.80098891,66466391,3,78299800,1997,17,0.67,39.8419759,-105.2125235,1812.99,0.00400000018999,0.0,-0.0680000036955,1
1523828685.00105786,66666460,3,78300000,1997,17,0.67,39.8419758,-105.2125234,1812.97,0.0500000007451,0.0,0.0290000010282,1
1523828685.20103979,66866442,3,78300200,1997,17,0.67,39.8419757,-105.2125232,1812.92,0.0630000010133,0.0,-0.097000002861,1
1523828685.40110493,67066507,3,78300400,1997,17,0.67,39.8419756,-105.2125231,1812.89,0.0320000015199,0.0,-0.0670000016689,1
1523828685.60118484,67266587,3,78300600,1997,17,0.67,39.8419755,-105.212523,1812.84,0.0190000012517,0.0,-0.0950000062585,1
1523828685.80120587,67466608,3,78300800,1997,17,0.67,39.8419755,-105.212523,1812.86,0.0580000020564,0.0,0.0200000014156,1
1523828686.00102782,67666430,3,78301000,1997,17,0.67,39.8419755,-105.2125229,1812.86,0.0430000014603,0.0,-0.0570000037551,1
1523828686.20097685,67866379,3,78301200,1997,17,0.67,39.8419754,-105.2125228,1812.85,0.0500000007451,0.0,-0.0450000017881,1
1523828686.40119886,68066601,3,78301400,1997,17,0.67,39.8419753,-105.2125227,1812.86,0.0710000023246,0.0,-0.110000006855,1
1523828686.60104489,68266447,3,78301600,1997,17,0.67,39.8419752,-105.2125225,1812.87,0.0630000010133,0.0,-0.144000008702,1
1523828686.80136776,68466770,3,78301800,1997,17,0.67,39.8419751,-105.2125223,1812.86,0.131000012159,0.0,-0.0480000004172,1
1523828687.00136185,68666764,3,78302000,1997,17,0.67,39.8419749,-105.212522,1812.82,0.0540000014007,0.0,-0.133000001311,1
1523828687.20108986,68866492,3,78302200,1997,17,0.67,39.8419748,-105.2125218,1812.81,0.109000004828,0.0,-0.184000015259,1
1523828687.40137577,69066778,3,78302400,1997,17,0.67,39.8419747,-105.2125215,1812.81,0.0190000012517,0.0,-0.125,1
1523828687.60112071,69266523,3,78302600,1997,17,0.67,39.8419747,-105.2125214,1812.78,0.0760000050068,0.0,-0.047000002116,1
1523828687.80101871,69466421,3,78302800,1997,17,0.67,39.8419747,-105.2125212,1812.76,0.0480000004172,0.0,-0.0930000022054,1
1523828688.00099993,69666402,3,78303000,1997,17,0.67,39.8419746,-105.2125212,1812.76,0.111000008881,0.0,-0.123000003397,1
1523828688.20119381,69866596,3,78303200,1997,17,0.67,39.8419746,-105.2125211,1812.75,0.0460000038147,0.0,0.0120000001043,1
1523828688.40110278,70066505,3,78303400,1997,17,0.67,39.8419745,-105.212521,1812.73,0.0200000014156,0.0,-0.0220000017434,1
1523828688.60105371,70266456,3,78303600,1997,17,0.67,39.8419745,-105.2125208,1812.69,0.0590000040829,0.0,0.0640000030398,1
1523828688.80132389,70466726,3,78303800,1997,17,0.67,39.8419745,-105.2125207,1812.66,0.0440000034869,0.0,0.104000002146,1
1523828689.00136685,70666769,3,78304000,1997,17,0.67,39.8419745,-105.2125206,1812.64,0.0340000018477,0.0,0.0500000007451,1
1523828689.20147181,70866874,3,78304200,1997,17,0.67,39.8419745,-105.2125206,1812.61,0.0340000018477,0.0,0.0220000017434,1
1523828689.40128779,71066690,3,78304400,1997,17,0.67,39.8419746,-105.2125207,1812.55,0.0710000023246,0.0,0.101000003517,1
1523828689.60128188,71266684,3,78304600,1997,17,0.67,39.8419748,-105.2125207,1812.5,0.0740000009537,0.0,-0.062000002712,1
1523828689.80118489,71466587,3,78304800,1997,17,0.67,39.8419749,-105.2125207,1812.45,0.0730000063777,0.0,0.00200000009499,1
1523828690.00118876,71666591,3,78305000,1997,17,0.67,39.8419749,-105.2125208,1812.41,0.0430000014603,0.0,0.01600000076,1
1523828690.20122194,71866624,3,78305200,1997,17,0.67,39.8419748,-105.2125206,1812.41,0.0930000022054,0.0,0.0640000030398,1
1523828690.40115285,72066555,3,78305400,1997,17,0.67,39.8419747,-105.2125205,1812.36,0.0590000040829,0.0,0.141000002623,1
1523828690.60116172,72266564,3,78305600,1997,17,0.67,39.8419746,-105.2125204,1812.34,0.0810000002384,0.0,0.0520000010729,1
1523828690.80132174,72466724,3,78305800,1997,17,0.67,39.8419746,-105.2125202,1812.33,0.0650000050664,0.0,0.15000000596,1
1523828691.00120592,72666608,3,78306000,1997,17,0.67,39.8419745,-105.2125201,1812.32,0.069000005722,0.0,0.159000009298,1
1523828691.20132494,72866727,3,78306200,1997,17,0.67,39.8419745,-105.21252,1812.3,0.0280000008643,0.0,0.0510000027716,1
1523828691.40122390,73066626,3,78306400,1997,17,0.67,39.8419744,-105.2125199,1812.31,0.0560000017285,0.0,0.157000005245,1
1523828691.60098386,73266386,3,78306600,1997,17,0.67,39.8419744,-105.2125199,1812.29,0.0400000028312,0.0,0.0800000056624,1
1523828691.80145073,73466853,3,78306800,1997,17,0.67,39.8419744,-105.2125198,1812.27,0.0490000024438,0.0,0.0960000008345,1
1523828692.00120091,73666603,3,78307000,1997,17,0.67,39.8419744,-105.2125198,1812.25,0.0440000034869,0.0,0.0870000049472,1
1523828692.20115590,73866558,3,78307200,1997,17,0.67,39.8419745,-105.2125199,1812.23,0.0210000015795,0.0,0.116000004113,1
1523828692.40119576,74066598,3,78307400,1997,17,0.67,39.8419745,-105.21252,1812.18,0.0850000008941,0.0,0.12800000608,1
1523828692.60132384,74266726,3,78307600,1997,17,0.67,39.8419747,-105.2125199,1812.19,0.0760000050068,0.0,0.127000004053,1
1523828692.80134988,74466752,3,78307800,1997,17,0.67,39.8419748,-105.2125197,1812.15,0.0730000063777,0.0,0.0260000005364,1
1523828693.00113392,74666536,3,78308000,1997,17,0.67,39.8419749,-105.2125196,1812.12,0.0490000024438,0.0,0.182000011206,1
1523828693.20104289,74866445,3,78308200,1997,17,0.67,39.8419748,-105.2125195,1812.08,0.0770000070333,0.0,0.0580000020564,1
1523828693.40110874,75066511,3,78308400,1997,17,0.67,39.8419747,-105.2125194,1812.05,0.0320000015199,0.0,0.102000005543,1
1523828693.60109878,75266501,3,78308600,1997,17,0.67,39.8419746,-105.2125195,1812.03,0.0880000069737,0.0,0.0240000002086,1
1523828693.80119371,75466596,3,78308800,1997,17,0.67,39.8419745,-105.2125195,1812.0,0.0500000007451,0.0,0.0550000034273,1
1523828694.00114083,75666543,3,78309000,1997,17,0.67,39.8419744,-105.2125196,1811.97,0.0380000025034,0.0,0.0270000007004,1
1523828694.20115781,75866560,3,78309200,1997,17,0.67,39.8419742,-105.2125195,1811.93,0.113000005484,0.0,0.0100000007078,1
1523828694.40120983,76066612,3,78309400,1997,17,0.67,39.8419739,-105.2125195,1811.91,0.0530000030994,0.0,-0.0210000015795,1
1523828694.60115790,76266560,3,78309600,1997,17,0.67,39.8419738,-105.2125194,1811.88,0.0550000034273,0.0,0.0570000037551,1
1523828694.80136871,76466771,3,78309800,1997,17,0.67,39.8419737,-105.2125194,1811.83,0.0860000029206,0.0,0.00200000009499,1
1523828695.00110078,76666503,3,78310000,1997,17,0.67,39.8419737,-105.2125193,1811.79,0.0659999996424,0.0,0.0,1
1523828695.20118093,76866583,3,78310200,1997,17,0.67,39.8419738,-105.2125194,1811.73,0.135000005364,0.0,-0.00800000037998,1
1523828695.40114093,77066543,3,78310400,1997,17,0.67,39.841974,-105.2125196,1811.67,0.157000005245,0.0,-0.0530000030994,1
1523828695.60133290,77266735,3,78310600,1997,17,0.67,39.8419741,-105.2125196,1811.69,0.0300000011921,0.0,0.0680000036955,1
1523828695.80109477,77466497,3,78310800,1997,17,0.67,39.8419742,-105.2125196,1811.65,0.062000002712,0.0,-0.0050000003539,1
1523828696.00099373,77666396,3,78311000,1997,17,0.67,39.8419743,-105.2125197,1811.59,0.113000005484,0.0,-0.00800000037998,1
1523828696.20098281,77866385,3,78311200,1997,17,0.67,39.8419744,-105.2125198,1811.56,0.00700000021607,0.0,0.0110000008717,1
1523828696.40108585,78066488,3,78311400,1997,17,0.67,39.8419743,-105.2125199,1811.56,0.146000012755,0.0,0.0170000009239,1
1523828696.60100484,78266407,3,78311600,1997,17,0.67,39.8419741,-105.21252,1811.57,0.0450000017881,0.0,0.00800000037998,1
1523828696.80092883,78466331,3,78311800,1997,17,0.67,39.841974,-105.2125201,1811.56,0.0220000017434,0.0,-0.0010000000475,1
1523828697.00150490,78666907,3,78312000,1997,17,0.67,39.841974,-105.2125202,1811.54,0.0630000010133,0.0,-0.125,1
1523828697.20133781,78866740,3,78312200,1997,17,0.67,39.841974,-105.2125202,1811.53,0.035000000149,0.0,-0.0810000002384,1
1523828697.40116572,79066568,3,78312400,1997,17,0.67,39.8419741,-105.2125202,1811.51,0.0990000069141,0.0,-0.0610000044107,1
1523828697.60104489,79266447,3,78312600,1997,16,0.69,39.8419742,-105.2125202,1811.46,0.0430000014603,0.0,-0.152000010014,1
1523828697.80120277,79466605,3,78312800,1997,16,0.69,39.8419743,-105.2125205,1811.45,0.109000004828,0.0,-0.139000013471,1
1523828698.00108075,79666483,3,78313000,1997,16,0.69,39.8419744,-105.2125208,1811.42,0.097000002861,0.0,-0.0230000019073,1
1523828698.20110679,79866509,3,78313200,1997,16,0.69,39.8419744,-105.212521,1811.41,0.0260000005364,0.0,-0.0850000008941,1
1523828698.40129781,80066700,3,78313400,1997,16,0.69,39.8419742,-105.2125206,1811.51,0.187000006437,0.0,-0.12800000608,1
1523828698.60107088,80266473,3,78313600,1997,16,0.69,39.8419742,-105.2125206,1811.49,0.113000005484,0.0,-0.160000011325,1
1523828698.80107880,80466481,3,78313800,1997,16,0.69,39.8419741,-105.2125208,1811.45,0.0650000050664,0.0,-0.188000008464,1
1523828699.00111890,80666521,3,78314000,1997,16,0.69,39.8419741,-105.212521,1811.4,0.0380000025034,0.0,-0.0840000063181,1
1523828699.20134377,80866746,3,78314200,1997,16,0.69,39.8419742,-105.2125212,1811.35,0.0530000030994,0.0,-0.0480000004172,1
1523828699.40118790,81066590,3,78314400,1997,16,0.69,39.8419741,-105.2125213,1811.33,0.0410000011325,0.0,-0.0680000036955,1
1523828699.60116172,81266564,3,78314600,1997,16,0.69,39.841974,-105.2125213,1811.22,0.0710000023246,0.0,-0.0940000042319,1
1523828699.80117488,81466577,3,78314800,1997,16,0.69,39.8419736,-105.2125212,1811.19,0.062000002712,0.0,-0.0460000038147,1
1523828700.00099087,81666393,3,78315000,1997,16,0.69,39.8419736,-105.2125213,1811.15,0.123000003397,0.0,-0.208000004292,1
1523828700.20122385,81866626,3,78315200,1997,16,0.69,39.8419736,-105.2125214,1811.14,0.0280000008643,0.0,-0.177000001073,1
1523828700.40163088,82067033,3,78315400,1997,16,0.69,39.8419736,-105.2125215,1811.08,0.0190000012517,0.0,-0.179000005126,1
1523828700.60118389,82266586,3,78315600,1997,16,0.69,39.8419737,-105.212522,1810.93,0.196000009775,0.0,-0.107000008225,1
1523828700.80140471,82466807,3,78315800,1997,16,0.69,39.8419738,-105.212522,1810.89,0.0360000021756,0.0,0.0260000005364,1
1523828701.00114775,82666550,3,78316000,1997,16,0.69,39.8419739,-105.2125219,1810.83,0.0720000043511,0.0,0.0600000023842,1
1523828701.20121694,82866619,3,78316200,1997,16,0.69,39.841974,-105.2125219,1810.78,0.0570000037551,0.0,-0.0400000028312,1
1523828701.40090775,83066310,3,78316400,1997,16,0.69,39.8419741,-105.212522,1810.7,0.0130000002682,0.0,-0.0370000004768,1
1523828701.60109878,83266501,3,78316600,1997,16,0.69,39.8419741,-105.2125219,1810.66,0.00800000037998,0.0,0.0550000034273,1
1523828701.80113173,83466534,3,78316800,1997,16,0.69,39.8419742,-105.2125218,1810.56,0.0320000015199,0.0,0.0930000022054,1
1523828702.00105476,83666457,3,78317000,1997,16,0.69,39.8419743,-105.2125219,1810.43,0.0329999998212,0.0,0.0870000049472,1
1523828702.20094991,83866352,3,78317200,1997,16,0.69,39.8419743,-105.2125217,1810.36,0.0930000022054,0.0,0.116000004113,1
1523828702.40094090,84066343,3,78317400,1997,16,0.69,39.8419744,-105.2125217,1810.25,0.0340000018477,0.0,0.0640000030398,1
1523828702.60117292,84266575,3,78317600,1997,16,0.69,39.8419744,-105.2125217,1810.18,0.0340000018477,0.0,0.105000004172,1
1523828702.80119991,84466602,3,78317800,1997,16,0.69,39.8419745,-105.2125216,1810.1,0.149000003934,0.0,0.0960000008345,1
1523828703.00116873,84666571,3,78318000,1997,16,0.69,39.8419744,-105.2125216,1810.05,0.115000002086,0.0,-0.0200000014156,1
1523828703.20109582,84866498,3,78318200,1997,16,0.69,39.8419743,-105.2125217,1810.0,0.0860000029206,0.0,0.0650000050664,1
1523828703.40104795,85066450,3,78318400,1997,16,0.69,39.8419742,-105.2125218,1809.93,0.0520000010729,0.0,0.0130000002682,1
1523828703.60107493,85266477,3,78318600,1997,16,0.69,39.8419741,-105.2125219,1809.88,0.0050000003539,0.0,-0.00200000009499,1
1523828703.80172682,85467129,3,78318800,1997,16,0.69,39.8419741,-105.212522,1809.83,0.097000002861,0.0,0.00300000002608,1
1523828704.00133276,85666735,3,78319000,1997,16,0.69,39.8419742,-105.212522,1809.78,0.0580000020564,0.0,0.0510000027716,1
1523828704.20082283,85866225,3,78319200,1997,16,0.69,39.8419742,-105.212522,1809.73,0.0840000063181,0.0,0.00700000021607,1
1523828704.40132093,86066723,3,78319400,1997,16,0.69,39.8419742,-105.2125219,1809.67,0.0880000069737,0.0,0.0560000017285,1
1523828704.60095286,86266355,3,78319600,1997,16,0.69,39.8419744,-105.2125218,1809.63,0.0790000036359,0.0,-0.0610000044107,1
1523828704.80133080,86466733,3,78319800,1997,16,0.69,39.8419745,-105.2125219,1809.6,0.0880000069737,0.0,-0.0360000021756,1
1523828705.00136781,86666770,3,78320000,1997,16,0.69,39.8419747,-105.2125219,1809.56,0.0100000007078,0.0,0.0340000018477,1
1523828705.20116472,86866567,3,78320200,1997,16,0.69,39.8419748,-105.2125218,1809.55,0.0370000004768,0.0,-0.0900000035763,1
1523828705.40147591,87066878,3,78320400,1997,16,0.69,39.8419749,-105.2125217,1809.49,0.042000003159,0.0,-0.0480000004172,1
1523828705.60139394,87266796,3,78320600,1997,16,0.69,39.841975,-105.2125216,1809.44,0.0710000023246,0.0,-0.0670000016689,1
1523828705.80131888,87466721,3,78320800,1997,16,0.69,39.8419752,-105.2125217,1809.39,0.035000000149,0.0,0.00300000002608,1
1523828706.00118375,87666586,3,78321000,1997,16,0.69,39.8419752,-105.2125216,1809.38,0.0670000016689,0.0,0.00600000005215,1
1523828706.20134783,87866750,3,78321200,1997,16,0.69,39.8419752,-105.2125216,1809.33,0.0290000010282,0.0,-0.0510000027716,1
1523828706.40118480,88066587,3,78321400,1997,16,0.69,39.8419752,-105.2125217,1809.3,0.119000002742,0.0,-0.070000000298,1
1523828706.60118985,88266592,3,78321600,1997,15,0.7,39.8419754,-105.212522,1809.29,0.172000005841,0.0,0.00900000054389,1
1523828706.80130386,88466706,3,78321800,1997,16,0.69,39.8419754,-105.212522,1809.28,0.102000005543,0.0,-0.0329999998212,1
1523828707.00097585,88666378,3,78322000,1997,16,0.69,39.8419753,-105.2125219,1809.25,0.0610000044107,0.0,-0.0480000004172,1
1523828707.20122075,88866623,3,78322200,1997,16,0.69,39.8419752,-105.2125221,1809.22,0.0570000037551,0.0,0.00900000054389,1
1523828707.40099287,89066395,3,78322400,1997,16,0.69,39.8419751,-105.2125223,1809.18,0.0329999998212,0.0,-0.035000000149,1
1523828707.60109186,89266494,3,78322600,1997,16,0.69,39.8419752,-105.2125225,1809.14,0.0720000043511,0.0,-0.0560000017285,1
1523828707.80128789,89466690,3,78322800,1997,16,0.69,39.8419754,-105.2125226,1809.13,0.0880000069737,0.0,-0.0790000036359,1
1523828708.00116372,89666566,3,78323000,1997,16,0.69,39.8419755,-105.2125226,1809.09,0.0130000002682,0.0,0.0560000017285,1
1523828708.20121574,89866618,3,78323200,1997,16,0.69,39.8419756,-105.2125227,1809.06,0.0760000050068,0.0,-0.0590000040829,1
1523828708.40133190,90066734,3,78323400,1997,17,0.67,39.8419758,-105.2125227,1809.04,0.070000000298,0.0,0.00200000009499,1
1523828708.60105491,90266457,3,78323600,1997,17,0.66,39.841976,-105.2125227,1808.98,0.0390000008047,0.0,-0.0650000050664,1
1523828708.80142474,90466827,3,78323800,1997,17,0.66,39.841976,-105.2125224,1808.97,0.0790000036359,0.0,0.0,1
1523828709.00120473,90666607,3,78324000,1997,17,0.66,39.8419762,-105.2125222,1808.92,0.00900000054389,0.0,0.00200000009499,1
1523828709.20138979,90866792,3,78324200,1997,17,0.66,39.8419762,-105.212522,1808.88,0.097000002861,0.0,-0.0720000043511,1
1523828709.40108275,91066485,3,78324400,1997,17,0.66,39.8419763,-105.2125218,1808.85,0.0490000024438,0.0,-0.0740000009537,1
1523828709.60104871,91266451,3,78324600,1997,17,0.66,39.8419765,-105.2125216,1808.82,0.0750000029802,0.0,-0.125,1
1523828709.80117393,91466576,3,78324800,1997,17,0.66,39.8419766,-105.2125215,1808.79,0.0430000014603,0.0,-0.127000004053,1
1523828710.00135779,91666760,3,78325000,1997,17,0.66,39.8419767,-105.2125214,1808.74,0.00700000021607,0.0,-0.174000009894,1
1523828710.20110178,91866504,3,78325200,1997,17,0.66,39.8419768,-105.2125214,1808.72,0.031000001356,0.0,-0.235000014305,1
1523828710.40120888,92066611,3,78325400,1997,17,0.66,39.8419769,-105.2125216,1808.7,0.158000007272,0.0,-0.146000012755,1
1523828710.60099578,92266398,3,78325600,1997,17,0.66,39.841977,-105.2125217,1808.7,0.0880000069737,0.0,-0.0760000050068,1
1523828710.80117393,92466576,3,78325800,1997,17,0.66,39.8419771,-105.2125217,1808.68,0.0810000002384,0.0,-0.144000008702,1
1523828711.00155473,92666957,3,78326000,1997,17,0.66,39.8419773,-105.2125216,1808.68,0.104000002146,0.0,-0.0880000069737,1
1523828711.20115781,92866560,3,78326200,1997,17,0.66,39.8419774,-105.2125213,1808.65,0.062000002712,0.0,0.0050000003539,1
1523828711.40114379,93066546,3,78326400,1997,17,0.66,39.8419773,-105.2125211,1808.62,0.047000002116,0.0,-0.0290000010282,1
1523828711.60116482,93266567,3,78326600,1997,17,0.66,39.8419774,-105.212521,1808.58,0.0360000021756,0.0,0.00800000037998,1
1523828711.80118084,93466583,3,78326800,1997,17,0.66,39.8419774,-105.2125208,1808.54,0.0500000007451,0.0,0.0540000014007,1
1523828712.00128174,93666684,3,78327000,1997,17,0.66,39.8419775,-105.2125207,1808.52,0.0390000008047,0.0,0.031000001356,1
1523828712.20113277,93866535,3,78327200,1997,17,0.66,39.8419774,-105.2125206,1808.51,0.0920000076294,0.0,0.047000002116,1
1523828712.40132475,94066727,3,78327400,1997,17,0.66,39.8419774,-105.2125205,1808.5,0.0850000008941,0.0,-0.00900000054389,1
1523828712.60145593,94266858,3,78327600,1997,17,0.66,39.8419776,-105.2125203,1808.48,0.0730000063777,0.0,0.0550000034273,1
1523828712.80121493,94466617,3,78327800,1997,17,0.66,39.8419777,-105.2125203,1808.44,0.0760000050068,0.0,-0.0490000024438,1
1523828713.00120187,94666604,3,78328000,1997,17,0.66,39.8419777,-105.2125204,1808.41,0.0130000002682,0.0,0.0600000023842,1
1523828713.20128894,94866691,3,78328200,1997,17,0.66,39.8419778,-105.2125203,1808.38,0.0220000017434,0.0,-0.0140000004321,1
1523828713.40128088,95066683,3,78328400,1997,17,0.66,39.8419779,-105.2125202,1808.37,0.097000002861,0.0,0.0340000018477,1
1523828713.60107183,95266474,3,78328600,1997,17,0.66,39.8419778,-105.2125201,1808.34,0.0850000008941,0.0,0.0210000015795,1
1523828713.80113673,95466539,3,78328800,1997,17,0.66,39.8419778,-105.2125202,1808.31,0.0990000069141,0.0,0.0130000002682,1
1523828714.00118971,95666592,3,78329000,1997,17,0.66,39.8419779,-105.2125203,1808.28,0.0370000004768,0.0,0.0490000024438,1
1523828714.20120192,95866604,3,78329200,1997,17,0.66,39.841978,-105.2125202,1808.26,0.0340000018477,0.0,0.0190000012517,1
1523828714.40121984,96066622,3,78329400,1997,17,0.66,39.8419781,-105.2125201,1808.25,0.0540000014007,0.0,-0.0230000019073,1
1523828714.60142684,96266829,3,78329600,1997,17,0.66,39.8419781,-105.2125201,1808.25,0.0380000025034,0.0,-0.0130000002682,1
1523828714.80117393,96466576,3,78329800,1997,17,0.66,39.841978,-105.2125202,1808.23,0.0630000010133,0.0,-0.0680000036955,1
1523828715.00118494,96666587,3,78330000,1997,17,0.66,39.841978,-105.2125203,1808.19,0.0560000017285,0.0,0.0140000004321,1
1523828715.20145392,96866856,3,78330200,1997,17,0.66,39.8419779,-105.2125203,1808.14,0.0500000007451,0.0,-0.136000007391,1
1523828715.40142393,97066826,3,78330400,1997,17,0.66,39.8419779,-105.2125203,1808.13,0.047000002116,0.0,-0.15300001204,1
1523828715.60141087,97266813,3,78330600,1997,17,0.66,39.8419778,-105.2125202,1808.14,0.0580000020564,0.0,-0.0990000069141,1
1523828715.80116582,97466568,3,78330800,1997,17,0.66,39.8419779,-105.2125202,1808.12,0.0750000029802,0.0,-0.116000004113,1
1523828716.00113177,97666534,3,78331000,1997,17,0.66,39.841978,-105.2125202,1808.1,0.0900000035763,0.0,-0.185000002384,1
1523828716.20116186,97866564,3,78331200,1997,17,0.66,39.8419781,-105.2125203,1808.07,0.082000002265,0.0,-0.131000012159,1
1523828716.40131378,98066716,3,78331400,1997,17,0.66,39.8419782,-105.2125204,1808.05,0.0290000010282,0.0,-0.10000000149,1
1523828716.60110974,98266512,3,78331600,1997,17,0.66,39.8419785,-105.2125208,1807.98,0.40600001812,0.0,-0.186000004411,1
1523828716.80101180,98466414,3,78331800,1997,17,0.66,39.8419788,-105.2125212,1807.99,0.0290000010282,0.0,-0.134000003338,1
1523828717.00109482,98666497,3,78332000,1997,17,0.66,39.8419789,-105.2125213,1807.96,0.0320000015199,0.0,0.00200000009499,1
1523828717.20138788,98866790,3,78332200,1997,17,0.66,39.841979,-105.2125215,1807.92,0.12800000608,0.0,-0.0460000038147,1
1523828717.40107679,99066479,3,78332400,1997,17,0.66,39.8419791,-105.2125216,1807.94,0.0600000023842,0.0,-0.00800000037998,1
1523828717.60114789,99266550,3,78332600,1997,17,0.66,39.8419787,-105.2125216,1807.96,0.414000034332,0.0,-0.0630000010133,1
1523828717.80105972,99466462,3,78332800,1997,17,0.66,39.8419781,-105.2125212,1808.01,0.472000032663,0.0,0.0840000063181,1
1523828718.00105071,99666453,3,78333000,1997,17,0.66,39.8419777,-105.212521,1808.04,0.140000000596,0.0,-0.0960000008345,1
1523828718.20112276,99866525,3,78333200,1997,17,0.66,39.8419775,-105.2125211,1808.07,0.110000006855,0.0,-0.152000010014,1
1523828718.40118575,100066588,3,78333400,1997,17,0.66,39.8419774,-105.2125212,1808.04,0.0329999998212,0.0,-0.47800001502,1
1523828718.60131383,100266716,3,78333600,1997,17,0.66,39.8419771,-105.2125215,1808.13,0.36700001359,0.0,-0.482000023127,1
1523828718.80103993,100466442,3,78333800,1997,16,0.69,39.8419764,-105.212522,1808.19,0.474000036716,0.0,-0.56200003624,1
1523828719.00114489,100666547,3,78334000,1997,16,0.69,39.8419754,-105.212522,1808.26,0.649000048637,0.0,-0.56200003624,1
1523828719.20114994,100866552,3,78334200,1997,16,0.69,39.841975,-105.2125218,1808.29,0.124000005424,0.0,-0.20600001514,1
1523828719.40113282,101066535,3,78334400,1997,16,0.69,39.8419754,-105.2125212,1808.35,0.552000045776,0.0,-0.330000013113,1
1523828719.60106373,101266466,3,78334600,1997,16,0.69,39.8419754,-105.2125208,1808.39,0.263000011444,0.0,-0.0900000035763,1
1523828719.80129981,101466702,3,78334800,1997,16,0.69,39.8419755,-105.2125207,1808.37,0.358000010252,0.0,-0.491000026464,1
1523828720.00090885,101666311,3,78335000,1997,16,0.69,39.8419758,-105.2125207,1808.33,0.131000012159,0.0,-0.225000008941,1
1523828720.20095181,101866354,3,78335200,1997,16,0.69,39.8419759,-105.2125209,1808.26,0.110000006855,0.0,-0.248000010848,1
1523828720.40104175,102066444,3,78335400,1997,16,0.69,39.8419758,-105.2125204,1808.27,0.340000003576,0.0,-0.0329999998212,1
1523828720.60116673,102266569,3,78335600,1997,16,0.69,39.841976,-105.2125197,1808.24,0.366000026464,0.0,-0.157000005245,1
1523828720.80138779,102466790,3,78335800,1997,16,0.69,39.8419764,-105.2125194,1808.18,0.215000003576,0.0,0.015000000596,1
1523828721.00114489,102666547,3,78336000,1997,16,0.69,39.8419769,-105.2125193,1808.14,0.375000029802,0.0,-0.175000011921,1
1523828721.20099878,102866401,3,78336200,1997,16,0.69,39.8419776,-105.2125196,1808.15,0.441000014544,0.0,-0.0580000020564,1
1523828721.40134287,103066745,3,78336400,1997,16,0.69,39.8419782,-105.2125195,1808.23,0.414000034332,0.0,0.0790000036359,1
1523828721.60104179,103266444,3,78336600,1997,16,0.69,39.8419788,-105.212519,1808.17,0.356000006199,0.0,-0.0210000015795,1
1523828721.80112982,103466532,3,78336800,1997,16,0.69,39.8419788,-105.2125189,1808.27,0.163000002503,0.0,-0.0840000063181,1
1523828722.00118089,103666583,3,78337000,1997,16,0.69,39.8419786,-105.2125196,1808.24,0.423000007868,0.0,0.0380000025034,1
1523828722.20109582,103866498,3,78337200,1997,15,0.7,39.8419786,-105.2125203,1808.39,0.162000000477,0.0,-0.109000004828,1
1523828722.40093994,104066342,3,78337400,1997,16,0.69,39.8419787,-105.2125207,1808.45,0.155000001192,0.0,-0.0600000023842,1
1523828722.60103083,104266433,3,78337600,1997,16,0.69,39.8419789,-105.2125214,1808.45,0.300000011921,0.0,-0.105000004172,1
1523828722.80103087,104466433,3,78337800,1997,16,0.69,39.841979,-105.2125219,1808.48,0.0750000029802,0.0,-0.0770000070333,1
1523828723.00116992,104666572,3,78338000,1997,16,0.69,39.8419792,-105.2125226,1808.52,0.40600001812,0.0,-0.0990000069141,1
1523828723.20121694,104866619,3,78338200,1997,16,0.69,39.8419795,-105.2125236,1808.5,0.399000018835,0.0,-0.101000003517,1
1523828723.40106082,105066463,3,78338400,1997,16,0.69,39.8419801,-105.2125246,1808.43,0.518000006676,0.0,-0.0830000042915,1
1523828723.60105491,105266457,3,78338600,1997,16,0.69,39.8419806,-105.212525,1808.36,0.187000006437,0.0,-0.134000003338,1
1523828723.80101991,105466422,3,78338800,1997,16,0.69,39.8419806,-105.2125252,1808.47,0.0920000076294,0.0,-0.171000003815,1
1523828724.00085187,105666254,3,78339000,1997,16,0.69,39.8419804,-105.212525,1808.49,0.322000026703,0.0,-0.0730000063777,1
1523828724.20117879,105866581,3,78339200,1997,16,0.69,39.8419799,-105.2125245,1808.46,0.430000007153,0.0,-0.156000003219,1
1523828724.40117073,106066573,3,78339400,1997,16,0.69,39.8419795,-105.2125246,1808.65,0.229000017047,0.0,-0.0180000010878,1
1523828724.60108471,106266487,3,78339600,1997,16,0.69,39.8419791,-105.2125251,1808.87,0.26700001955,0.0,-0.141000002623,1
1523828724.80114079,106466543,3,78339800,1997,16,0.69,39.8419786,-105.2125258,1809.04,0.423000007868,0.0,-0.224000006914,1
1523828725.00104976,106666452,3,78340000,1997,16,0.69,39.8419783,-105.2125267,1809.16,0.383000016212,0.0,-0.262000024319,1
1523828725.20120883,106866611,3,78340200,1997,16,0.69,39.841978,-105.2125275,1809.19,0.363000005484,0.0,-0.231000006199,1
